[
{"name":"bi1","brand":"bi1","city":"Arnay-le-Duc","address":"Rue Lucienne et Jean Barnet, 21230 Arnay-le-Duc","lat":47.1302655,"lon":4.4791867},
{"name":"Bi1","brand":"bi1","city":null,"address":null,"lat":47.9627376,"lon":3.5057583},
{"name":"bi1","brand":"bi1","city":null,"address":null,"lat":47.6643785,"lon":3.7393824},
{"name":"bi1","brand":"bi1","city":null,"address":null,"lat":48.2948863,"lon":4.0571271},
{"name":"bi1","brand":"bi1","city":null,"address":null,"lat":47.4877001,"lon":3.9212419},
{"name":"bi1","brand":"bi1","city":null,"address":null,"lat":47.1093186,"lon":6.1267288},
{"name":"bi1","brand":"bi1","city":null,"address":null,"lat":46.5456295,"lon":6.0170255},
{"name":"bi1","brand":"bi1","city":null,"address":null,"lat":47.3553114,"lon":3.3875087},
{"name":"bi1","brand":"bi1","city":null,"address":null,"lat":47.1952825,"lon":5.084253},
{"name":"bi1","brand":"bi1","city":"Bourbon-Lancy","address":"39 Avenue Émile et Claude Puzenat, 71140 Bourbon-Lancy","lat":46.6235575,"lon":3.758039},
{"name":"bi1","brand":"bi1","city":null,"address":null,"lat":46.684092,"lon":4.1362805},
{"name":"bi1","brand":"bi1","city":"Pierrefontaine-les-Varans","address":"Grande Rue, 25510 Pierrefontaine-les-Varans","lat":47.218322,"lon":6.5415225},
{"name":"bi1","brand":"bi1","city":"Dompierre-sur-besbre","address":"Route de Moulins, 03290 Dompierre-sur-besbre","lat":46.5280275,"lon":3.6688775},
{"name":"bi1","brand":"bi1","city":null,"address":null,"lat":47.481198,"lon":6.7784645},
{"name":"bi1","brand":"bi1","city":null,"address":null,"lat":46.7675742,"lon":6.3821749},
{"name":"bi1","brand":"bi1","city":"Salins-les-Bains","address":"Avenue Aristide Briand, 39110 Salins-les-Bains","lat":46.9477625,"lon":5.8751395},
{"name":"Bi1 Veigy","brand":"bi1","city":null,"address":"453 Route des Voirons, 74140","lat":46.2690909,"lon":6.2637951},
{"name":"bi1","brand":"bi1","city":null,"address":null,"lat":48.3238296,"lon":2.5779056},
{"name":"bi1","brand":"bi1","city":null,"address":null,"lat":46.9548523,"lon":6.1274526},
{"name":"bi1","brand":"bi1","city":null,"address":null,"lat":47.903158,"lon":3.6088725},
{"name":"bi1","brand":"bi1","city":null,"address":null,"lat":47.310673,"lon":5.408752},
{"name":"bi1","brand":"bi1","city":null,"address":"21 Avenue Valéry Giscard d'Estaing","lat":46.892031,"lon":5.0243605},
{"name":"bi1","brand":"bi1","city":null,"address":null,"lat":47.621018,"lon":3.1967645},
{"name":"bi1","brand":"bi1","city":null,"address":null,"lat":48.29521,"lon":3.1969435},
{"name":"bi1","brand":"bi1","city":null,"address":null,"lat":47.499228,"lon":4.1259225},
{"name":"bi1","brand":"bi1","city":null,"address":null,"lat":47.8771704,"lon":3.3541505},
{"name":"bi1","brand":"bi1","city":"Vitteaux","address":"Lotissement Sainte-Anne, 21350 Vitteaux","lat":47.3955524,"lon":4.5493964},
{"name":"bi1","brand":"bi1","city":null,"address":"Route de Vivans","lat":46.1765145,"lon":3.871314},
{"name":"Maximarché (bi1)","brand":"bi1","city":null,"address":null,"lat":47.3057609,"lon":6.5949382},
{"name":"bi1","brand":"bi1","city":null,"address":null,"lat":46.7261575,"lon":2.945464},
{"name":"bi1","brand":"bi1","city":null,"address":null,"lat":48.2361876,"lon":4.4683418},
{"name":"Bi1","brand":"bi1","city":null,"address":null,"lat":46.7934715,"lon":3.1224489},
{"name":"bi1","brand":"bi1","city":null,"address":null,"lat":47.8542905,"lon":2.7425935},
{"name":"bi1","brand":"bi1","city":null,"address":null,"lat":47.5047355,"lon":4.1765254},
{"name":"bi1","brand":"bi1","city":null,"address":null,"lat":47.7706509,"lon":4.1754908},
{"name":"bi1","brand":"bi1","city":null,"address":null,"lat":47.045387,"lon":3.6447939},
{"name":"bi1","brand":"bi1","city":null,"address":null,"lat":46.8350065,"lon":2.9133298},
{"name":"bi1","brand":"bi1","city":"Saint-Gengoux-le-National","address":"Rue des Tanneries, 71460 Saint-Gengoux-le-National","lat":46.6108136,"lon":4.6613824},
{"name":"bi1","brand":"bi1","city":"La Chapelle-de-Guinchay","address":"Les Grandes Terres, 71570 La Chapelle-de-Guinchay","lat":46.2128736,"lon":4.7616214},
{"name":"bi1","brand":"bi1","city":null,"address":null,"lat":46.7143675,"lon":6.195846},
{"name":"bi1","brand":"bi1","city":null,"address":null,"lat":48.4140273,"lon":3.231314},
{"name":"bi1","brand":"bi1","city":"Buxy","address":"Route de Givry, 71390 Buxy","lat":46.7164825,"lon":4.7054392},
{"name":"bi1","brand":"bi1","city":null,"address":null,"lat":46.0584461,"lon":6.3759529},
{"name":"bi1","brand":"bi1","city":null,"address":null,"lat":47.01025,"lon":5.1574264},
{"name":"bi1","brand":"bi1","city":null,"address":null,"lat":47.2809008,"lon":4.2367872},
{"name":"bi1","brand":"bi1","city":null,"address":null,"lat":46.5315678,"lon":6.1354461},
{"name":"bi1","brand":"bi1","city":null,"address":null,"lat":47.6432786,"lon":3.0693283},
{"name":"bi1","brand":"bi1","city":null,"address":null,"lat":46.6385549,"lon":5.2113766},
{"name":"bi1","brand":"bi1","city":null,"address":null,"lat":47.0824579,"lon":2.7295378},
{"name":"bi1","brand":"bi1","city":null,"address":null,"lat":47.286091,"lon":3.8187991},
{"name":"bi1","brand":"bi1","city":null,"address":null,"lat":46.9537117,"lon":4.295826},
{"name":"bi1","brand":"bi1","city":null,"address":null,"lat":46.2907175,"lon":4.299692},
{"name":"bi1","brand":"bi1","city":null,"address":null,"lat":47.0350961,"lon":5.7848632},
{"name":"bi1","brand":"bi1","city":null,"address":null,"lat":46.8496753,"lon":4.6307705},
{"name":"bi1","brand":"bi1","city":"Ervy-le-Châtel","address":"Ervy-le-Châtel","lat":48.0465968,"lon":3.9245768},
{"name":"bi1","brand":"bi1","city":null,"address":null,"lat":46.8920018,"lon":2.5698323},
{"name":"bi1","brand":"bi1","city":null,"address":null,"lat":46.8548501,"lon":3.6435483},
{"name":"bi1 Supermarché","brand":"bi1","city":"Luzy","address":"Rue Ledru Rollin, 58170 Luzy","lat":46.7893733,"lon":3.9637564},
{"name":"bi1","brand":"bi1","city":"Venarey-les-Laumes","address":"Rue de Lusiau, 21150 Venarey-les-Laumes","lat":47.5372508,"lon":4.4604071},
{"name":"bi1","brand":"bi1","city":null,"address":null,"lat":47.8019334,"lon":3.5276306},
{"name":"bi1","brand":"bi1","city":"Cluny","address":"Cluny","lat":46.4279221,"lon":4.6610119},
{"name":"bi1","brand":"bi1","city":null,"address":null,"lat":46.3817822,"lon":5.7776343},
{"name":"bi1","brand":"bi1","city":null,"address":null,"lat":46.5205118,"lon":6.0214439},
{"name":"bi1","brand":"bi1","city":null,"address":null,"lat":46.5802421,"lon":5.7476175},
{"name":"bi1","brand":"bi1","city":null,"address":null,"lat":46.7555788,"lon":5.6124438},
{"name":"bi1","brand":"bi1","city":null,"address":null,"lat":47.8866483,"lon":3.0954974},
{"name":"bi1","brand":"bi1","city":"Nolay","address":"Nolay","lat":46.9523191,"lon":4.626996},
{"name":"bi1","brand":"bi1","city":null,"address":null,"lat":46.2985041,"lon":4.8841389},
{"name":"bi1","brand":"bi1","city":null,"address":null,"lat":48.4032745,"lon":6.8353051}
]