[
{"name":"Supeco","brand":"Supeco","city":"Poissy","address":"107 Avenue Blanche de Castille, 78300 Poissy","lat":48.9220227,"lon":2.0283479},
{"name":"Supeco","brand":"Supeco","city":"Rumilly","address":"9, 74150 Rumilly","lat":45.8586488,"lon":5.9435473},
{"name":"Supeco","brand":"Supeco","city":null,"address":"161 Rue Émile Zola","lat":50.4172195,"lon":2.979144},
{"name":"Supeco","brand":"Supeco","city":"Valenciennes","address":"860 Boulevard Harpignies, 59300 Valenciennes","lat":50.3635865,"lon":3.5273365},
{"name":"Supeco","brand":"Supeco","city":null,"address":null,"lat":45.5830285,"lon":5.296497},
{"name":"Supeco","brand":"Supeco","city":null,"address":"Boulevard Raymond Splingard","lat":50.698955,"lon":1.580813},
{"name":"Supeco","brand":"Supeco","city":null,"address":"Rue Claude Bernard","lat":50.2992805,"lon":2.736775},
{"name":"Supeco","brand":"Supeco","city":null,"address":"Rue du Docteur Menu","lat":49.56402,"lon":3.6460108},
{"name":"Supeco","brand":"Supeco","city":null,"address":null,"lat":50.5161643,"lon":2.6232975},
{"name":"Supeco","brand":"Supeco","city":null,"address":null,"lat":43.3570645,"lon":5.3568695},
{"name":"Supeco","brand":"Supeco","city":"Saint-Martin-au-Laërt","address":"Rue de l'Industrie, 62500 Saint-Martin-au-Laërt","lat":50.7616215,"lon":2.2245392},
{"name":"Supeco","brand":"Supeco","city":null,"address":null,"lat":50.385237,"lon":3.5977385},
{"name":"Supeco","brand":"Supeco","city":"Saint-Avold","address":"Zone Agora- 21 Rue de la Piscine, 57500 Saint-Avold","lat":49.1090023,"lon":6.6984657},
{"name":"Supeco","brand":"Supeco","city":"Puget-sur-Argens","address":"D N7, 83480 Puget-sur-Argens","lat":43.4477161,"lon":6.6972799},
{"name":"Supeco","brand":"Supeco","city":"Gardanne","address":"Avenue des Anciens Combattants, 13120 Gardanne","lat":43.4539615,"lon":5.4758498},
{"name":"Supeco","brand":"Supeco","city":null,"address":null,"lat":44.56264,"lon":6.492922},
{"name":"Supeco","brand":"Supeco","city":"Corbas","address":"32 Avenue de Corbetta, 69960 Corbas","lat":45.6645771,"lon":4.8956231},
{"name":"Supeco","brand":"Supeco","city":null,"address":null,"lat":50.7668772,"lon":3.1205923},
{"name":"Supeco","brand":"Supeco","city":null,"address":"Rue du Milieu","lat":50.71668,"lon":2.5469799}
]