[
{"name":"G20","brand":"G20","city":null,"address":null,"lat":47.2297259,"lon":0.7681288},
{"name":"G20","brand":"G20","city":null,"address":null,"lat":48.0452452,"lon":-1.6026893},
{"name":"G20","brand":"G20","city":null,"address":null,"lat":48.7640312,"lon":2.4105387},
{"name":"G20","brand":"G20","city":"Bezons","address":"76 Rue Édouard Vaillant, 95870 Bezons","lat":48.9267136,"lon":2.2134319},
{"name":"G20","brand":"G20","city":null,"address":null,"lat":48.7897192,"lon":2.4500367},
{"name":"G20","brand":"G20","city":null,"address":"287 Avenue du Général de Gaulle","lat":48.7909485,"lon":2.4452808},
{"name":"G20","brand":"G20","city":"Paris","address":"28 Rue Regnault, 75013 Paris","lat":48.8248462,"lon":2.3769354},
{"name":"G20","brand":"G20","city":null,"address":null,"lat":49.2782787,"lon":4.0163512},
{"name":"G20","brand":"G20","city":null,"address":null,"lat":47.534036,"lon":-0.5677505},
{"name":"G20","brand":"G20","city":"Champigny-sur-Marne","address":"22-24 Rue Jean Jaurès, 94500 Champigny-sur-Marne","lat":48.8153264,"lon":2.5045765},
{"name":"G20","brand":"G20","city":"Chelles","address":"Avenue des Sciences, 77500 Chelles","lat":48.9041788,"lon":2.5862974},
{"name":"G20","brand":"G20","city":null,"address":null,"lat":49.6289665,"lon":-1.641573},
{"name":"G20","brand":"G20","city":null,"address":null,"lat":48.866768,"lon":2.7076765},
{"name":"G20","brand":"G20","city":null,"address":"56-60 Rue d'Albuféra, 27200","lat":49.0928775,"lon":1.482796},
{"name":"G20","brand":"G20","city":null,"address":"132 Rue du Connétable","lat":49.1945154,"lon":2.4679939},
{"name":"G20","brand":"G20","city":null,"address":null,"lat":48.6727357,"lon":2.5377548},
{"name":"G20","brand":"G20","city":null,"address":"37 Rue Alexandre Michel","lat":49.1660718,"lon":2.2472687},
{"name":"G20","brand":"G20","city":null,"address":null,"lat":45.582501,"lon":1.7221915},
{"name":"G20","brand":"G20","city":"Chevilly-Larue","address":"25-35 Rue Henri Cretté, 94550 Chevilly-Larue","lat":48.7735885,"lon":2.352139},
{"name":"G20","brand":"G20","city":"Montlouis-sur-Loire","address":"Allée des Raluères, 37270 Montlouis-sur-Loire","lat":47.3843945,"lon":0.8269682},
{"name":"G20","brand":"G20","city":null,"address":null,"lat":48.485931,"lon":6.093244},
{"name":"G20","brand":"G20","city":null,"address":"174 Rue de Calais","lat":50.9447265,"lon":2.1196725},
{"name":"G20","brand":"G20","city":null,"address":null,"lat":48.8545145,"lon":7.0267905},
{"name":"G20","brand":"G20","city":null,"address":null,"lat":47.336615,"lon":-1.267589},
{"name":"G20","brand":"G20","city":null,"address":null,"lat":48.8359056,"lon":2.2906833},
{"name":"G20","brand":"G20","city":null,"address":null,"lat":48.9264795,"lon":2.3671231},
{"name":"G20","brand":"G20","city":null,"address":null,"lat":48.698861,"lon":-0.3628465},
{"name":"G20","brand":"G20","city":"Paris","address":"217 Avenue de Versailles, 75016 Paris","lat":48.8379645,"lon":2.258237},
{"name":"G20","brand":"G20","city":null,"address":"6 Boulevard Saint-Denis","lat":48.8693722,"lon":2.3551317},
{"name":"G20","brand":"G20","city":null,"address":null,"lat":48.8579464,"lon":2.3012012},
{"name":"G20","brand":"G20","city":null,"address":"48 Route Nationale","lat":50.036748,"lon":2.3217104},
{"name":"G20","brand":"G20","city":null,"address":null,"lat":48.8515486,"lon":2.4016481},
{"name":"G20","brand":"G20","city":"Thoiry","address":"4 Route de Versailles, 78770 Thoiry","lat":48.8655232,"lon":1.7971265},
{"name":"G20","brand":"G20","city":null,"address":null,"lat":48.8705122,"lon":2.3709103},
{"name":"G20","brand":"G20","city":"Iffendic","address":"8, 35750 Iffendic","lat":48.1302462,"lon":-2.0355239},
{"name":"G20","brand":"G20","city":null,"address":null,"lat":47.6731181,"lon":-2.7664407},
{"name":"G20","brand":"G20","city":null,"address":"3","lat":48.8072273,"lon":2.4718433},
{"name":"G20","brand":"G20","city":null,"address":null,"lat":48.8370665,"lon":2.481461},
{"name":"G20","brand":"G20","city":null,"address":null,"lat":48.8471183,"lon":2.3177609},
{"name":"G20","brand":"G20","city":null,"address":null,"lat":48.8893922,"lon":2.3195945},
{"name":"G20","brand":"G20","city":null,"address":null,"lat":48.8772158,"lon":2.3147005},
{"name":"G20","brand":"G20","city":"Sannois","address":"82 Boulevard Charles de Gaulle, 95110 Sannois","lat":48.9723982,"lon":2.255968},
{"name":"G20","brand":"G20","city":"Dreux","address":"3, 28100 Dreux","lat":48.7353856,"lon":1.3654497},
{"name":"G20","brand":"G20","city":null,"address":null,"lat":48.8280974,"lon":2.2465088},
{"name":"G20","brand":"G20","city":null,"address":"14 Place Marguerite et Émile le Morillon","lat":48.8647652,"lon":2.4784768},
{"name":"G20","brand":"G20","city":null,"address":null,"lat":48.8457406,"lon":2.3127192},
{"name":"G20","brand":"G20","city":null,"address":null,"lat":48.8443206,"lon":2.4868452},
{"name":"G20","brand":"G20","city":null,"address":null,"lat":47.2833978,"lon":0.1709549},
{"name":"G20","brand":"G20","city":"Palaiseau","address":"91120 Palaiseau","lat":48.7168883,"lon":2.2472756},
{"name":"G20","brand":"G20","city":null,"address":null,"lat":47.4048028,"lon":-0.4850352},
{"name":"G20","brand":"G20","city":null,"address":"40","lat":48.9009724,"lon":2.2677795},
{"name":"G20","brand":"G20","city":null,"address":null,"lat":48.8129799,"lon":2.3100235},
{"name":"G20","brand":"G20","city":null,"address":null,"lat":48.8652374,"lon":2.4438866},
{"name":"G20","brand":"G20","city":null,"address":null,"lat":48.8946097,"lon":2.3446712},
{"name":"G20","brand":"G20","city":null,"address":null,"lat":48.7747477,"lon":2.5259968},
{"name":"G20","brand":"G20","city":null,"address":"401 Avenue du Président Hoover","lat":50.6277952,"lon":3.0791389},
{"name":"G20","brand":"G20","city":null,"address":null,"lat":42.696578,"lon":2.8786976},
{"name":"G20","brand":"G20","city":null,"address":null,"lat":48.7965499,"lon":2.4416082},
{"name":"G20","brand":"G20","city":null,"address":null,"lat":47.649005,"lon":-2.7765697},
{"name":"G20","brand":"G20","city":null,"address":null,"lat":48.8628384,"lon":2.3526556},
{"name":"G20","brand":"G20","city":null,"address":null,"lat":48.8382852,"lon":2.3968325},
{"name":"G20","brand":"G20","city":null,"address":null,"lat":48.8225454,"lon":2.3602368},
{"name":"G20","brand":"G20","city":"Beynes","address":"Centre Commercial de la Petite Mauldre, 78650 Beynes","lat":48.8517018,"lon":1.8790902},
{"name":"G20","brand":"G20","city":null,"address":null,"lat":47.4752515,"lon":-0.5282932},
{"name":"G20","brand":"G20","city":null,"address":"6 Rue de Normandie","lat":49.403643,"lon":2.8173085},
{"name":"G20","brand":"G20","city":null,"address":null,"lat":48.9060986,"lon":2.2698543},
{"name":"G20","brand":"G20","city":null,"address":null,"lat":48.6219876,"lon":2.4415634},
{"name":"G20","brand":"G20","city":"Chelles","address":"3 Rue Gustave Nast, 77500 Chelles","lat":48.8791178,"lon":2.5876931},
{"name":"G20","brand":"G20","city":null,"address":null,"lat":48.8892317,"lon":2.335693},
{"name":"G20","brand":"G20","city":null,"address":null,"lat":48.8756567,"lon":2.392556},
{"name":"G20","brand":"G20","city":null,"address":null,"lat":48.8057452,"lon":2.4405023},
{"name":"G20","brand":"G20","city":null,"address":null,"lat":48.8021617,"lon":2.3561478},
{"name":"G20","brand":"G20","city":"Paris","address":"92 Rue de Lévis, 75017 Paris","lat":48.8848532,"lon":2.3116016},
{"name":"G20","brand":"G20","city":null,"address":null,"lat":48.8468492,"lon":2.3063014},
{"name":"G20","brand":"G20","city":null,"address":"53 Rue de la Harpe, 75005","lat":48.8515225,"lon":2.3438292},
{"name":"G20","brand":"G20","city":null,"address":null,"lat":49.6544358,"lon":-1.6730243},
{"name":"G20","brand":"G20","city":"Paris","address":"Paris","lat":48.8599348,"lon":2.3449563},
{"name":"G20","brand":"G20","city":"Noisy-le-Grand","address":"5 Place Antoine Renard, 93160 Noisy-le-Grand","lat":48.8390481,"lon":2.5732054},
{"name":"G20","brand":"G20","city":null,"address":null,"lat":48.8748709,"lon":2.3790821},
{"name":"G20","brand":"G20","city":null,"address":null,"lat":48.8769538,"lon":2.3545068},
{"name":"G20","brand":"G20","city":null,"address":null,"lat":48.9216498,"lon":2.4480925},
{"name":"G20","brand":"G20","city":null,"address":null,"lat":48.8606251,"lon":2.3073994},
{"name":"G20","brand":"G20","city":null,"address":null,"lat":48.8622793,"lon":2.3416985},
{"name":"G20","brand":"G20","city":null,"address":null,"lat":48.9013775,"lon":2.2443641},
{"name":"G20","brand":"G20","city":null,"address":null,"lat":48.8580866,"lon":2.3656474},
{"name":"G20","brand":"G20","city":"Montreuil","address":"134 Avenue du Président Wilson, 93100 Montreuil","lat":48.8551729,"lon":2.4393138},
{"name":"G20","brand":"G20","city":null,"address":null,"lat":48.831303,"lon":2.3271428},
{"name":"G20","brand":"G20","city":"Montreuil","address":"5 Avenue de la Résistance, 93100 Montreuil","lat":48.8587508,"lon":2.4356678},
{"name":"G20","brand":"G20","city":null,"address":null,"lat":48.8465483,"lon":2.4381238},
{"name":"G20","brand":"G20","city":null,"address":null,"lat":48.8871298,"lon":2.3544487},
{"name":"G20","brand":"G20","city":null,"address":null,"lat":48.8858646,"lon":2.3941868},
{"name":"G20","brand":"G20","city":null,"address":null,"lat":48.8557369,"lon":2.3902893},
{"name":"G20","brand":"G20","city":null,"address":null,"lat":48.8763068,"lon":2.2905899},
{"name":"G20","brand":"G20","city":null,"address":null,"lat":48.8452039,"lon":2.2841485},
{"name":"G20","brand":"G20","city":null,"address":null,"lat":48.8801144,"lon":2.3196281},
{"name":"G20","brand":"G20","city":null,"address":null,"lat":48.7894179,"lon":2.3666399},
{"name":"G20","brand":"G20","city":null,"address":null,"lat":48.864706,"lon":2.4063677},
{"name":"G20","brand":"G20","city":null,"address":null,"lat":48.8675028,"lon":2.2978598},
{"name":"G20","brand":"G20","city":null,"address":null,"lat":48.8127954,"lon":2.332914},
{"name":"G20","brand":"G20","city":"Paris","address":"9 Rue des Cloÿs, 75018 Paris","lat":48.8925233,"lon":2.3405976},
{"name":"G20","brand":"G20","city":null,"address":"46-50 Rue de l'Ouest","lat":48.8362099,"lon":2.319275},
{"name":"G20","brand":"G20","city":null,"address":null,"lat":48.828362,"lon":2.371056},
{"name":"G20","brand":"G20","city":null,"address":null,"lat":48.8391786,"lon":2.2846364},
{"name":"G20","brand":"G20","city":null,"address":null,"lat":48.8757193,"lon":2.3220634},
{"name":"G20","brand":"G20","city":null,"address":null,"lat":48.8807853,"lon":2.350006},
{"name":"G20","brand":"G20","city":null,"address":null,"lat":48.836687,"lon":2.3503833},
{"name":"G20","brand":"G20","city":null,"address":null,"lat":48.9066898,"lon":2.3887673},
{"name":"G20","brand":"G20","city":null,"address":"Rue des Tanneurs","lat":50.634259,"lon":3.0654685},
{"name":"G20","brand":"G20","city":null,"address":"160 Boulevard du Général de Gaulle, 92380","lat":48.8389899,"lon":2.1871146},
{"name":"G20","brand":"G20","city":"Paris","address":"55 Rue Saint-Antoine, 75004 Paris","lat":48.8539998,"lon":2.3641258},
{"name":"G20","brand":"G20","city":null,"address":null,"lat":48.852769,"lon":2.3977192},
{"name":"G20","brand":"G20","city":null,"address":null,"lat":48.8565765,"lon":2.3962473},
{"name":"G20","brand":"G20","city":null,"address":null,"lat":48.9542098,"lon":2.417425},
{"name":"G20","brand":"G20","city":"Champs-sur-Marne","address":"18 Place du Bois de Grâce, 77420 Champs-sur-Marne","lat":48.8466455,"lon":2.5849203},
{"name":"G20","brand":"G20","city":"Paris","address":"21 Rue Francœur, 75018 Paris","lat":48.8904017,"lon":2.3410749},
{"name":"G20","brand":"G20","city":null,"address":null,"lat":48.8710426,"lon":2.3812035},
{"name":"G20","brand":"G20","city":null,"address":null,"lat":48.9486961,"lon":2.2540138},
{"name":"G20","brand":"G20","city":null,"address":"24 Cours Blaise Pascal, 91000","lat":48.6262869,"lon":2.4300757},
{"name":"G20","brand":"G20","city":null,"address":null,"lat":48.6285511,"lon":2.4523494},
{"name":"G20","brand":"G20","city":null,"address":null,"lat":48.8517199,"lon":2.2937587},
{"name":"G20","brand":"G20","city":null,"address":null,"lat":48.8773355,"lon":2.2950322},
{"name":"G20","brand":"G20","city":null,"address":"97 Avenue de Verdun, 93230","lat":48.88158,"lon":2.4295357},
{"name":"G20","brand":"G20","city":null,"address":null,"lat":48.7862611,"lon":2.3325404},
{"name":"G20","brand":"G20","city":null,"address":null,"lat":48.8287932,"lon":2.2960047},
{"name":"G20","brand":"G20","city":null,"address":"12 Rue Blanche","lat":48.8775076,"lon":2.3321959},
{"name":"G20","brand":"G20","city":"Montgeron","address":"Avenue Charles de Gaulle, 91230 Montgeron","lat":48.6964562,"lon":2.4552686},
{"name":"G20","brand":"G20","city":"Chelles","address":"42 Avenue du Maréchal Foch, 77500 Chelles","lat":48.8714684,"lon":2.5771837},
{"name":"G20","brand":"G20","city":"Rosny-sous-Bois","address":"245 Boulevard de la Boissière, 93110 Rosny-sous-Bois","lat":48.8755888,"lon":2.4688717},
{"name":"G20","brand":"G20","city":null,"address":null,"lat":48.8337012,"lon":2.3144823},
{"name":"G20","brand":"G20","city":null,"address":"5","lat":49.2487013,"lon":4.0152393},
{"name":"G20","brand":"G20","city":null,"address":null,"lat":47.27113,"lon":0.5925525},
{"name":"G20","brand":"G20","city":"Saint-Denis","address":"1 Rue du Port, 93200 Saint-Denis","lat":48.9361198,"lon":2.3438074},
{"name":"G20","brand":"G20","city":null,"address":null,"lat":48.7801192,"lon":2.2284383},
{"name":"G20","brand":"G20","city":"Moissy-Cramayel","address":"Rue de la Liberté, 77550 Moissy-Cramayel","lat":48.6279116,"lon":2.5898691},
{"name":"G20","brand":"G20","city":null,"address":null,"lat":48.697143,"lon":2.2926848},
{"name":"G20","brand":"G20","city":"Paris","address":"31 Rue d'Orsel, 75018 Paris","lat":48.8837394,"lon":2.3439114},
{"name":"G20","brand":"G20","city":null,"address":null,"lat":48.8575233,"lon":2.2776863},
{"name":"G20","brand":"G20","city":"Paris","address":"46 Rue Saint-Didier, 75016 Paris","lat":48.866821,"lon":2.2848525},
{"name":"G20","brand":"G20","city":null,"address":"17 Rue Lepic","lat":48.8850068,"lon":2.3337579},
{"name":"G20","brand":"G20","city":"Pantin","address":"17 Avenue Jean Lolive, 93500 Pantin","lat":48.8908425,"lon":2.4000713},
{"name":"G20","brand":"G20","city":"Éragny-sur-Oise","address":"1-7 Rue de la Papeterie, 95610 Éragny-sur-Oise","lat":49.0175182,"lon":2.0906006},
{"name":"G20","brand":"G20","city":null,"address":null,"lat":47.1224758,"lon":-0.7892266},
{"name":"G20","brand":"G20","city":null,"address":null,"lat":48.902375,"lon":2.4828196},
{"name":"Nom inconnu","brand":"G20","city":null,"address":null,"lat":48.8390176,"lon":2.5736627},
{"name":"G20","brand":"G20","city":null,"address":null,"lat":49.2555101,"lon":4.0281049},
{"name":"G20","brand":"G20","city":null,"address":null,"lat":48.8836874,"lon":2.3288537},
{"name":"G20","brand":"G20","city":null,"address":null,"lat":48.87826,"lon":2.40248},
{"name":"G20","brand":"G20","city":null,"address":null,"lat":48.6941201,"lon":2.3098361},
{"name":"G20","brand":"G20","city":null,"address":"44-46 Grande Rue","lat":49.1434052,"lon":2.4687249},
{"name":"G20","brand":"G20","city":null,"address":null,"lat":48.9104622,"lon":2.2350097},
{"name":"G20","brand":"G20","city":null,"address":"9 Avenue Marie Amelie","lat":49.1790092,"lon":2.4604102},
{"name":"G20","brand":"G20","city":null,"address":"15 Place d'Armes","lat":49.4216491,"lon":2.8285754},
{"name":"G20","brand":"G20","city":null,"address":null,"lat":47.5858323,"lon":2.7585176},
{"name":"G20","brand":"G20","city":null,"address":null,"lat":48.8989662,"lon":2.3213392},
{"name":"G20","brand":"G20","city":null,"address":null,"lat":48.812668,"lon":2.1917797},
{"name":"G20","brand":"G20","city":null,"address":"77 Rue d'Auteuil","lat":48.8477896,"lon":2.260416},
{"name":"G20","brand":"G20","city":"Paris","address":"15 Passage Thiéré, 75011 Paris","lat":48.8541473,"lon":2.373366},
{"name":"G20","brand":"G20","city":null,"address":null,"lat":48.8814497,"lon":2.3344461},
{"name":"G20","brand":"G20","city":null,"address":null,"lat":48.8245463,"lon":2.3375704},
{"name":"G20","brand":"G20","city":null,"address":"3 Avenue Jean Lurçat","lat":48.811053,"lon":2.0457537},
{"name":"G20","brand":"G20","city":null,"address":null,"lat":47.3173517,"lon":-2.1890681},
{"name":"G20","brand":"G20","city":null,"address":null,"lat":48.8985811,"lon":2.2897844},
{"name":"G20","brand":"G20","city":null,"address":null,"lat":48.977094,"lon":2.3888645},
{"name":"G20","brand":"G20","city":null,"address":null,"lat":48.5943542,"lon":2.5827864},
{"name":"G20","brand":"G20","city":null,"address":null,"lat":48.7528904,"lon":2.5062085},
{"name":"G20","brand":"G20","city":null,"address":null,"lat":48.9324742,"lon":2.3994463},
{"name":"G20","brand":"G20","city":null,"address":"7 Rue des Immeubles Industriels","lat":48.8495388,"lon":2.3926242},
{"name":"G20","brand":"G20","city":null,"address":null,"lat":48.8359999,"lon":2.2362027},
{"name":"G20","brand":"G20","city":"Paris","address":"42 Rue Guersant, 75017 Paris","lat":48.8827655,"lon":2.2880742},
{"name":"G20","brand":"G20","city":null,"address":null,"lat":48.916317,"lon":2.3052353},
{"name":"G20","brand":"G20","city":null,"address":null,"lat":48.7905608,"lon":2.2629462},
{"name":"G20","brand":"G20","city":null,"address":null,"lat":48.9491616,"lon":2.2565451},
{"name":"G20","brand":"G20","city":"Noisy Le Grand","address":"57 Rue de Malnoue, 93160 Noisy Le Grand","lat":48.8448966,"lon":2.5645882},
{"name":"G20","brand":"G20","city":"Melun","address":"3 Boulevard de Maincy, 77000 Melun","lat":48.5415527,"lon":2.6727976},
{"name":"G20","brand":"G20","city":"Saint-Maurice","address":"1 Rue du Maréchal Leclerc, 94410 Saint-Maurice","lat":48.8184892,"lon":2.419923},
{"name":"G20","brand":"G20","city":null,"address":null,"lat":48.8713095,"lon":2.4398032},
{"name":"G20","brand":"G20","city":"Rueil-Malmaison","address":"Rue Henri Sainte-Claire Deville, 92500 Rueil-Malmaison","lat":48.8930206,"lon":2.1724784},
{"name":"G20","brand":"G20","city":null,"address":null,"lat":48.9164577,"lon":2.2820503}
]