[
{"name":"Spar de Ramonville St Agne","brand":"Spar","city":null,"address":null,"lat":43.5507355,"lon":1.4689949},
{"name":"Spar","brand":"Spar","city":null,"address":null,"lat":47.9961812,"lon":4.3666151},
{"name":"Spar","brand":"Spar","city":"Préfailles","address":"6 Grande Rue, 44770 Préfailles","lat":47.1284503,"lon":-2.2150803},
{"name":"Spar","brand":"Spar","city":null,"address":null,"lat":47.9826175,"lon":0.2117162},
{"name":"Spar","brand":"Spar","city":null,"address":null,"lat":45.7641103,"lon":3.0481567},
{"name":"Spar","brand":"Spar","city":null,"address":null,"lat":42.136588,"lon":8.5971875},
{"name":"Spar","brand":"Spar","city":null,"address":null,"lat":41.4873453,"lon":9.1276776},
{"name":"Spar","brand":"Spar","city":null,"address":null,"lat":42.263414,"lon":8.7096969},
{"name":"Spar","brand":"Spar","city":null,"address":null,"lat":43.6031808,"lon":2.704489},
{"name":"Spar","brand":"Spar","city":null,"address":null,"lat":48.6053318,"lon":-3.8993605},
{"name":"Spar","brand":"Spar","city":null,"address":null,"lat":42.7548506,"lon":2.8157582},
{"name":"Spar","brand":"Spar","city":null,"address":null,"lat":46.9668683,"lon":-1.5769119},
{"name":"Spar","brand":"Spar","city":null,"address":null,"lat":43.3129209,"lon":3.472805},
{"name":"Spar","brand":"Spar","city":null,"address":null,"lat":46.9448463,"lon":-2.1853498},
{"name":"Spar","brand":"Spar","city":null,"address":null,"lat":43.8647912,"lon":-0.5897759},
{"name":"Spar","brand":"Spar","city":null,"address":null,"lat":42.1136176,"lon":8.7013999},
{"name":"SPAR","brand":"Spar","city":null,"address":null,"lat":47.0445687,"lon":-0.2643754},
{"name":"Spar","brand":"Spar","city":"Cassis","address":"Cassis","lat":43.2135168,"lon":5.5397109},
{"name":"Spar","brand":"Spar","city":"Le Havre","address":"370 Rue de Verdun, 76600 Le Havre","lat":49.5021364,"lon":0.1745608},
{"name":"Spar","brand":"Spar","city":"Cugand","address":"Rue du 8 Mai 1945, 85610 Cugand","lat":47.0645266,"lon":-1.2541483},
{"name":"Spar","brand":"Spar","city":null,"address":null,"lat":46.1324939,"lon":0.1068054},
{"name":"Spar","brand":"Spar","city":null,"address":null,"lat":48.5214775,"lon":-3.7141801},
{"name":"Spar","brand":"Spar","city":null,"address":"Avenue du Midi","lat":43.5679915,"lon":7.073732},
{"name":"Spar","brand":"Spar","city":null,"address":"27 bis Avenue d'Albi","lat":43.9173015,"lon":2.032304},
{"name":"Spar","brand":"Spar","city":null,"address":null,"lat":43.6908248,"lon":4.8672207},
{"name":"Spar","brand":"Spar","city":null,"address":null,"lat":45.150417,"lon":4.614761},
{"name":"Spar","brand":"Spar","city":"Lacanau","address":"Les Grands Pins, 33680 Lacanau","lat":45.011832,"lon":-1.193577},
{"name":"Spar","brand":"Spar","city":"Wissant","address":"16, 62179 Wissant","lat":50.885123,"lon":1.661142},
{"name":"Spar","brand":"Spar","city":null,"address":null,"lat":47.543131,"lon":-0.1060815},
{"name":"Spar","brand":"Spar","city":null,"address":"348","lat":43.548771,"lon":3.978174},
{"name":"Spar","brand":"Spar","city":null,"address":null,"lat":43.7771495,"lon":-0.1869972},
{"name":"Spar","brand":"Spar","city":"Sospel","address":"Sospel","lat":43.877969,"lon":7.4465565},
{"name":"Spar","brand":"Spar","city":null,"address":"Route de la Mer","lat":42.0037433,"lon":9.441795},
{"name":"Spar","brand":"Spar","city":null,"address":null,"lat":47.841339,"lon":4.3710355},
{"name":"Spar","brand":"Spar","city":null,"address":null,"lat":47.4824455,"lon":-2.1614305},
{"name":"Spar","brand":"Spar","city":null,"address":null,"lat":45.3131155,"lon":0.2546305},
{"name":"Spar","brand":"Spar","city":null,"address":null,"lat":43.4477945,"lon":5.6848645},
{"name":"Spar","brand":"Spar","city":null,"address":null,"lat":47.176608,"lon":3.018468},
{"name":"Spar","brand":"Spar","city":null,"address":null,"lat":49.4106586,"lon":0.2472668},
{"name":"Spar","brand":"Spar","city":null,"address":"507 Route de Bellet","lat":43.7327189,"lon":7.2164135},
{"name":"Spar","brand":"Spar","city":null,"address":null,"lat":43.0935795,"lon":6.0759425},
{"name":"Spar","brand":"Spar","city":null,"address":null,"lat":46.420898,"lon":0.0422856},
{"name":"Spar","brand":"Spar","city":"Prades","address":"14 Rue Jean Jaurès, 66500 Prades","lat":42.6170751,"lon":2.4225636},
{"name":"Spar","brand":"Spar","city":null,"address":null,"lat":47.7722585,"lon":4.169293},
{"name":"Spar","brand":"Spar","city":null,"address":null,"lat":43.2694685,"lon":5.4066495},
{"name":"Spar","brand":"Spar","city":null,"address":null,"lat":47.502536,"lon":-2.8394455},
{"name":"Spar","brand":"Spar","city":null,"address":null,"lat":51.0077121,"lon":2.2951636},
{"name":"Spar","brand":"Spar","city":null,"address":null,"lat":42.967259,"lon":0.3763166},
{"name":"Spar","brand":"Spar","city":null,"address":null,"lat":45.446887,"lon":6.9868309},
{"name":"Spar","brand":"Spar","city":null,"address":null,"lat":48.7546538,"lon":7.8137427},
{"name":"Spar","brand":"Spar","city":"Macot La Plagne","address":"73210 Macot La Plagne","lat":45.5061826,"lon":6.6754182},
{"name":"Spar","brand":"Spar","city":null,"address":null,"lat":45.064708,"lon":1.1649},
{"name":"Spar","brand":"Spar","city":"Pianottoli-Caldarello","address":"Pianottoli-Caldarello","lat":41.4920726,"lon":9.0543167},
{"name":"Spar","brand":"Spar","city":null,"address":"11 Rue Jean-Marie Barré","lat":47.6673835,"lon":-2.9846925},
{"name":"Spar","brand":"Spar","city":"Gaillard","address":"118 Rue de Genève, 74240 Gaillard","lat":46.1919755,"lon":6.2110209},
{"name":"Spar","brand":"Spar","city":null,"address":null,"lat":44.4723977,"lon":4.3564661},
{"name":"Point Frais","brand":"Spar","city":null,"address":"2 Place Eugène d'Angerville, 62340","lat":50.8695277,"lon":1.8710788},
{"name":"Spar","brand":"Spar","city":"Balaruc-les-Bains","address":"44 Avenue de Montpellier, 34540 Balaruc-les-Bains","lat":43.4444099,"lon":3.6811911},
{"name":"Spar","brand":"Spar","city":null,"address":null,"lat":44.8110584,"lon":-0.4769916},
{"name":"Spar","brand":"Spar","city":"Le Donjon","address":"9 Avenue Honoré Preveraud, 03130 Le Donjon","lat":46.3483882,"lon":3.7934982},
{"name":"Spar","brand":"Spar","city":null,"address":null,"lat":43.3415066,"lon":6.6839033},
{"name":"Spar","brand":"Spar","city":null,"address":null,"lat":45.1425464,"lon":2.0925454},
{"name":"Spar","brand":"Spar","city":null,"address":null,"lat":43.2462438,"lon":3.0008326},
{"name":"Spar","brand":"Spar","city":null,"address":null,"lat":49.6181174,"lon":-1.6059467},
{"name":"Spar","brand":"Spar","city":null,"address":null,"lat":42.4472346,"lon":9.50763},
{"name":"Spar","brand":"Spar","city":null,"address":null,"lat":42.565993,"lon":8.7570615},
{"name":"Spar","brand":"Spar","city":"Saint-Pierre-du-Vauvray","address":"Grande Rue, 27430 Saint-Pierre-du-Vauvray","lat":49.2331458,"lon":1.2218704},
{"name":"Spar","brand":"Spar","city":null,"address":null,"lat":42.8628645,"lon":3.043935},
{"name":"Spar","brand":"Spar","city":null,"address":null,"lat":45.187287,"lon":4.799108},
{"name":"Spar","brand":"Spar","city":null,"address":null,"lat":43.3912671,"lon":5.5514631},
{"name":"Spar","brand":"Spar","city":null,"address":null,"lat":43.8167294,"lon":4.4692131},
{"name":"Spar","brand":"Spar","city":null,"address":null,"lat":48.4909933,"lon":-1.7274126},
{"name":"Spar","brand":"Spar","city":null,"address":null,"lat":47.7571525,"lon":0.2733455},
{"name":"Spar","brand":"Spar","city":null,"address":null,"lat":43.2473801,"lon":5.4010833},
{"name":"Spar","brand":"Spar","city":null,"address":null,"lat":45.1816198,"lon":5.7323316},
{"name":"Spar","brand":"Spar","city":"Ghisonaccia","address":"455 Avenue du 9 Septembre, 20240 Ghisonaccia","lat":42.0132209,"lon":9.4035111},
{"name":"Spar","brand":"Spar","city":"Ghisonaccia","address":"455 Avenue du 9 Septembre, 20240 Ghisonaccia","lat":42.0133266,"lon":9.4033055},
{"name":"Spar","brand":"Spar","city":null,"address":null,"lat":45.0115006,"lon":6.1247149},
{"name":"Spar","brand":"Spar","city":"Vendat","address":"6 Rue des Landes, 03110 Vendat","lat":46.166943,"lon":3.355062},
{"name":"Spar","brand":"Spar","city":null,"address":"6 Rue de l'Église, 09220","lat":42.7684341,"lon":1.5009841},
{"name":"Utile","brand":"Spar","city":null,"address":null,"lat":44.6384498,"lon":-1.1135442},
{"name":"Spar","brand":"Spar","city":null,"address":null,"lat":44.1909878,"lon":3.2075723},
{"name":"Spar","brand":"Spar","city":null,"address":null,"lat":43.504896,"lon":3.3102629},
{"name":"Spar","brand":"Spar","city":null,"address":"Rue Jean Jaurès","lat":43.2843761,"lon":3.4457962},
{"name":"Spar","brand":"Spar","city":"La Cavalerie","address":"12230 La Cavalerie","lat":44.0110964,"lon":3.1484756},
{"name":"Spar","brand":"Spar","city":null,"address":null,"lat":41.6981692,"lon":9.3432187},
{"name":"Spar","brand":"Spar","city":null,"address":null,"lat":43.8642573,"lon":3.3164929},
{"name":"Spar","brand":"Spar","city":null,"address":null,"lat":41.7208266,"lon":9.1486756},
{"name":"Spar","brand":"Spar","city":null,"address":null,"lat":44.7762046,"lon":0.9984964},
{"name":"Spar","brand":"Spar","city":null,"address":null,"lat":46.4094588,"lon":3.0543217},
{"name":"Spar","brand":"Spar","city":"Tourves","address":"Avenue Gambetta, Tourves","lat":43.410119,"lon":5.9209124},
{"name":"Spar","brand":"Spar","city":null,"address":null,"lat":43.5492363,"lon":1.536789},
{"name":"Spar","brand":"Spar","city":null,"address":null,"lat":42.5082063,"lon":8.8523867},
{"name":"Spar","brand":"Spar","city":null,"address":null,"lat":43.3161595,"lon":3.5491026},
{"name":"Spar","brand":"Spar","city":"Cotignac","address":"D 22, Cotignac","lat":43.5102912,"lon":6.1555353},
{"name":"Spar","brand":"Spar","city":null,"address":null,"lat":42.8948657,"lon":2.9934395},
{"name":"Spar","brand":"Spar","city":null,"address":null,"lat":42.959022,"lon":9.4520967},
{"name":"Spar","brand":"Spar","city":null,"address":null,"lat":49.4899247,"lon":0.5665504},
{"name":"Spar","brand":"Spar","city":null,"address":null,"lat":42.4124991,"lon":8.6506899},
{"name":"Spar","brand":"Spar","city":null,"address":"Le Chalet A, 73450","lat":45.1742959,"lon":6.4933395},
{"name":"Spar","brand":"Spar","city":null,"address":null,"lat":43.1594176,"lon":3.1672726},
{"name":"Spar","brand":"Spar","city":null,"address":null,"lat":43.4913695,"lon":-1.4752988},
{"name":"Spar","brand":"Spar","city":"Morzine","address":"106 Route de la Plagne, 74110 Morzine","lat":46.1822593,"lon":6.7031579},
{"name":"Spar","brand":"Spar","city":null,"address":null,"lat":42.8975509,"lon":9.4084801},
{"name":"Spar","brand":"Spar","city":null,"address":null,"lat":42.4589246,"lon":9.208457},
{"name":"Spar","brand":"Spar","city":null,"address":null,"lat":43.7260075,"lon":4.7087191},
{"name":"Spar","brand":"Spar","city":null,"address":null,"lat":44.280467,"lon":1.3582665},
{"name":"Spar","brand":"Spar","city":null,"address":"5 B","lat":49.2301927,"lon":4.0073585},
{"name":"Spar","brand":"Spar","city":null,"address":null,"lat":48.7692953,"lon":2.0268292},
{"name":"Spar","brand":"Spar","city":null,"address":null,"lat":44.805928,"lon":0.0727371},
{"name":"Spar","brand":"Spar","city":"Arâches-la-Frasse","address":"2249 Route de la Barliette, 74300 Arâches-la-Frasse","lat":46.0331925,"lon":6.6368925},
{"name":"Spar","brand":"Spar","city":null,"address":null,"lat":43.8535412,"lon":1.8103506},
{"name":"Spar","brand":"Spar","city":null,"address":null,"lat":46.8237335,"lon":-1.3573162},
{"name":"Spar","brand":"Spar","city":null,"address":null,"lat":43.3149939,"lon":2.4635786},
{"name":"Spar","brand":"Spar","city":null,"address":null,"lat":43.285584,"lon":2.4390813},
{"name":"Spar","brand":"Spar","city":"Molières","address":"45 Avenue de Larché, 82220 Molières","lat":44.1899327,"lon":1.3597499},
{"name":"Spar","brand":"Spar","city":null,"address":null,"lat":44.3086578,"lon":2.2412093},
{"name":"Spar","brand":"Spar","city":null,"address":null,"lat":43.4122147,"lon":5.0505947},
{"name":"Spar","brand":"Spar","city":null,"address":null,"lat":43.4185397,"lon":6.8499535},
{"name":"Spar","brand":"Spar","city":"Chamalières","address":"44 Boulevard Gambetta, 63400 Chamalières","lat":45.767727,"lon":3.069298},
{"name":"Spar","brand":"Spar","city":"Marseille","address":"Marseille","lat":43.2933644,"lon":5.3746669},
{"name":"Spar","brand":"Spar","city":null,"address":null,"lat":43.7834745,"lon":3.7371744},
{"name":"Spar","brand":"Spar","city":null,"address":null,"lat":45.0919785,"lon":6.0678123},
{"name":"Nom inconnu","brand":"Spar","city":null,"address":null,"lat":47.5691501,"lon":-2.9452138},
{"name":"Spar","brand":"Spar","city":null,"address":null,"lat":43.3977722,"lon":5.2502302},
{"name":"Spar","brand":"Spar","city":null,"address":"17","lat":48.6737938,"lon":5.8881443},
{"name":"Spar","brand":"Spar","city":"Teyran","address":"8 Rue du Deves, 34820 Teyran","lat":43.6841314,"lon":3.9272688},
{"name":"Spar","brand":"Spar","city":null,"address":null,"lat":45.2979828,"lon":6.5805588},
{"name":"Spar","brand":"Spar","city":"Chanac","address":"48230 Chanac","lat":44.4682938,"lon":3.3443395},
{"name":"Spar","brand":"Spar","city":null,"address":null,"lat":42.9074879,"lon":9.3511752},
{"name":"Spar","brand":"Spar","city":null,"address":null,"lat":44.0596585,"lon":1.9637601},
{"name":"Spar","brand":"Spar","city":"Macot La Plagne","address":"28 Rue de la Desserte, 73210 Macot La Plagne","lat":45.5135604,"lon":6.6784874},
{"name":"Spar","brand":"Spar","city":null,"address":null,"lat":43.1757989,"lon":-1.3464396},
{"name":"Spar","brand":"Spar","city":null,"address":null,"lat":47.462815,"lon":3.255576},
{"name":"Spar","brand":"Spar","city":null,"address":null,"lat":43.5063506,"lon":6.9401293},
{"name":"Spar","brand":"Spar","city":"Bram","address":"Place Carnot, 11150 Bram","lat":43.2438038,"lon":2.1150008},
{"name":"Spar","brand":"Spar","city":null,"address":null,"lat":46.4030002,"lon":5.7935763},
{"name":"Spar","brand":"Spar","city":"Saint-Vallier-de-Thiey","address":"1 Allée Charles Bonome, 06460 Saint-Vallier-de-Thiey","lat":43.6991635,"lon":6.8481819},
{"name":"Spar","brand":"Spar","city":null,"address":null,"lat":42.0508269,"lon":8.7492562},
{"name":"Spar","brand":"Spar","city":null,"address":"20217","lat":42.6793724,"lon":9.3026649},
{"name":"Spar","brand":"Spar","city":null,"address":null,"lat":42.0066682,"lon":8.8631989},
{"name":"Spar","brand":"Spar","city":null,"address":null,"lat":41.6992317,"lon":8.8412357},
{"name":"Spar","brand":"Spar","city":null,"address":null,"lat":41.388172,"lon":9.1668543},
{"name":"Spar","brand":"Spar","city":"Vayrac","address":"355 Avenue de Saint-Céré, 46110 Vayrac","lat":44.9549697,"lon":1.7126707},
{"name":"Spar","brand":"Spar","city":null,"address":null,"lat":45.570375,"lon":2.9454314},
{"name":"Spar","brand":"Spar","city":null,"address":null,"lat":44.8589359,"lon":1.893564},
{"name":"Spar","brand":"Spar","city":null,"address":null,"lat":43.9588936,"lon":4.7692985},
{"name":"Spar","brand":"Spar","city":"Séranon","address":"8152 Route Napoléon, 06750 Séranon","lat":43.766266,"lon":6.6519906},
{"name":"Spar","brand":"Spar","city":null,"address":null,"lat":43.4065173,"lon":6.0618557},
{"name":"Spar","brand":"Spar","city":null,"address":null,"lat":44.3377444,"lon":1.5480007},
{"name":"Spar","brand":"Spar","city":null,"address":null,"lat":43.6553627,"lon":7.1511254},
{"name":"Spar","brand":"Spar","city":null,"address":null,"lat":44.8293778,"lon":-0.5683581},
{"name":"Spar","brand":"Spar","city":null,"address":null,"lat":45.4684911,"lon":6.9089555},
{"name":"Spar","brand":"Spar","city":null,"address":null,"lat":43.937829,"lon":7.514151},
{"name":"Spar","brand":"Spar","city":null,"address":null,"lat":43.9433652,"lon":5.383361},
{"name":"Spar","brand":"Spar","city":null,"address":null,"lat":44.0113152,"lon":4.4169052},
{"name":"Spar","brand":"Spar","city":null,"address":null,"lat":43.7034009,"lon":5.1576466},
{"name":"Spar","brand":"Spar","city":null,"address":null,"lat":44.6536496,"lon":4.3649438},
{"name":"Spar","brand":"Spar","city":null,"address":"7 Place de la Libération des Résistants de la 2BCP, 71500","lat":46.6297224,"lon":5.2205738},
{"name":"Spar","brand":"Spar","city":null,"address":null,"lat":44.5404205,"lon":4.411358},
{"name":"Spar","brand":"Spar","city":null,"address":null,"lat":46.5665664,"lon":0.3438278},
{"name":"Spar","brand":"Spar","city":null,"address":null,"lat":44.1661863,"lon":3.8424434},
{"name":"Spar","brand":"Spar","city":null,"address":"Rue des Jardins, 46200","lat":44.8803489,"lon":1.5655344},
{"name":"Spar","brand":"Spar","city":null,"address":null,"lat":41.8668075,"lon":8.7913619},
{"name":"Spar","brand":"Spar","city":null,"address":null,"lat":45.4004399,"lon":6.5655163},
{"name":"Spar","brand":"Spar","city":null,"address":null,"lat":43.3181206,"lon":5.4068121},
{"name":"Spar","brand":"Spar","city":"Saze","address":"Route de Rochefort, 30650 Saze","lat":43.9473464,"lon":4.6835621},
{"name":"Spar","brand":"Spar","city":"Quimper","address":"39 bis-41 Avenue de la Gare, 29000 Quimper","lat":47.994776,"lon":-4.0958356},
{"name":"SPAR","brand":"Spar","city":null,"address":null,"lat":44.8030543,"lon":2.7622446},
{"name":"Spar","brand":"Spar","city":null,"address":null,"lat":43.2937643,"lon":5.3857663},
{"name":"Spar","brand":"Spar","city":null,"address":null,"lat":43.7903195,"lon":7.2740654},
{"name":"Spar","brand":"Spar","city":null,"address":null,"lat":49.0352292,"lon":2.6936099},
{"name":"Spar","brand":"Spar","city":"Montady","address":"22 Avenue des Platanes, 34310 Montady","lat":43.33108,"lon":3.121779},
{"name":"Spar","brand":"Spar","city":null,"address":null,"lat":49.1090934,"lon":0.7101333},
{"name":"Spar","brand":"Spar","city":null,"address":null,"lat":41.5666049,"lon":9.2740126},
{"name":"Spar","brand":"Spar","city":null,"address":null,"lat":41.3882263,"lon":9.1651768},
{"name":"Spar","brand":"Spar","city":null,"address":null,"lat":45.7558963,"lon":3.5381588},
{"name":"Spar","brand":"Spar","city":null,"address":null,"lat":43.277382,"lon":3.5098921},
{"name":"Spar","brand":"Spar","city":null,"address":null,"lat":43.6501795,"lon":-1.4334282},
{"name":"Spar","brand":"Spar","city":null,"address":null,"lat":45.2967956,"lon":6.5813151},
{"name":"Spar","brand":"Spar","city":null,"address":"40530","lat":43.5964279,"lon":-1.4610132},
{"name":"Spar","brand":"Spar","city":"Marseille","address":"Marseille","lat":43.2890009,"lon":5.3668616},
{"name":"Spar","brand":"Spar","city":null,"address":"11 Route de Châteauneuf","lat":44.9755835,"lon":5.0272644},
{"name":"Spar","brand":"Spar","city":null,"address":null,"lat":43.411696,"lon":3.6883867},
{"name":"Spar","brand":"Spar","city":null,"address":null,"lat":43.2936839,"lon":3.4176993},
{"name":"Spar","brand":"Spar","city":null,"address":null,"lat":45.5597183,"lon":5.9063507},
{"name":"Spar","brand":"Spar","city":null,"address":null,"lat":47.2407548,"lon":-1.5568464},
{"name":"Spar","brand":"Spar","city":null,"address":null,"lat":45.1860729,"lon":-1.0586998},
{"name":"Spar","brand":"Spar","city":null,"address":null,"lat":43.2872731,"lon":5.3894934},
{"name":"Spar","brand":"Spar","city":null,"address":null,"lat":45.4213039,"lon":6.3633907},
{"name":"Spar","brand":"Spar","city":"Val-d'Isère","address":"Les Hameaux du Val, 73150 Val-d'Isère","lat":45.4495906,"lon":6.9773745},
{"name":"Spar - Le Marché du Charvet","brand":"Spar","city":null,"address":null,"lat":45.5763101,"lon":6.7808878},
{"name":"Spar","brand":"Spar","city":null,"address":null,"lat":45.8162313,"lon":4.7174236},
{"name":"Spar","brand":"Spar","city":null,"address":null,"lat":44.8553858,"lon":2.2328412},
{"name":"Spar","brand":"Spar","city":null,"address":null,"lat":44.8553677,"lon":2.2337291},
{"name":"Spar","brand":"Spar","city":null,"address":null,"lat":45.9218364,"lon":4.5850369},
{"name":"Spar","brand":"Spar","city":null,"address":null,"lat":41.9181901,"lon":8.7348304},
{"name":"Spar","brand":"Spar","city":null,"address":null,"lat":41.9339243,"lon":8.7552192},
{"name":"Spar","brand":"Spar","city":null,"address":null,"lat":43.1810449,"lon":3.0059123},
{"name":"Spar","brand":"Spar","city":null,"address":null,"lat":46.1155832,"lon":3.0867139},
{"name":"Spar","brand":"Spar","city":"Chamonix-Mont-Blanc","address":"17 Avenue du Mont-Blanc, 74400 Chamonix-Mont-Blanc","lat":45.9252792,"lon":6.8704936},
{"name":"Supermaché SPAR","brand":"Spar","city":"Agde","address":"1 Boulevard des Matelots, 34300 Agde","lat":43.2955396,"lon":3.5285745},
{"name":"Spar","brand":"Spar","city":null,"address":null,"lat":48.8788435,"lon":2.7647922},
{"name":"Spar","brand":"Spar","city":null,"address":null,"lat":43.551911,"lon":7.0122405},
{"name":"Spar","brand":"Spar","city":null,"address":null,"lat":43.1013796,"lon":5.8800332},
{"name":"Spar","brand":"Spar","city":null,"address":"18 Cours Georges Mandel","lat":45.4313994,"lon":-1.0351102},
{"name":"Spar","brand":"Spar","city":null,"address":"21 Boulevard Raymond Poincaré","lat":43.5715236,"lon":7.1097041},
{"name":"Spar","brand":"Spar","city":null,"address":null,"lat":47.2227061,"lon":-1.5534533},
{"name":"Spar","brand":"Spar","city":"Gap","address":"62 Rue Jean Eymar, 05000 Gap","lat":44.5603585,"lon":6.0779326},
{"name":"Spar","brand":"Spar","city":"Saint-Cyprien","address":"2 Rue Mirabeau, 66750 Saint-Cyprien","lat":42.6349889,"lon":3.0328969},
{"name":"SPAR Superette","brand":"Spar","city":null,"address":null,"lat":43.476069,"lon":2.6379817},
{"name":"Spar","brand":"Spar","city":null,"address":"501 Rue de Cagny","lat":49.8761713,"lon":2.3287426},
{"name":"Spar","brand":"Spar","city":null,"address":null,"lat":43.6639224,"lon":5.3475432},
{"name":"Spar","brand":"Spar","city":null,"address":null,"lat":45.8842524,"lon":4.8042351},
{"name":"Spar","brand":"Spar","city":null,"address":null,"lat":45.3273499,"lon":1.5486832},
{"name":"Spar","brand":"Spar","city":null,"address":null,"lat":42.6207228,"lon":9.4365384},
{"name":"Spar","brand":"Spar","city":"Panissières","address":"25 Rue Jean Macé, 42360 Panissières","lat":45.7940033,"lon":4.3408859},
{"name":"Spar","brand":"Spar","city":null,"address":null,"lat":44.4370878,"lon":-1.157784},
{"name":"Spar","brand":"Spar","city":null,"address":null,"lat":44.6814502,"lon":0.8939547},
{"name":"Spar","brand":"Spar","city":null,"address":null,"lat":45.2359244,"lon":5.6750438},
{"name":"Spar","brand":"Spar","city":null,"address":null,"lat":43.6606588,"lon":7.1753926},
{"name":"Spar","brand":"Spar","city":null,"address":null,"lat":43.3436322,"lon":5.3593471},
{"name":"Spar","brand":"Spar","city":null,"address":null,"lat":43.6999794,"lon":7.2723442},
{"name":"SPAR","brand":"Spar","city":null,"address":null,"lat":43.2345851,"lon":0.0716782},
{"name":"Spar","brand":"Spar","city":null,"address":null,"lat":44.555758,"lon":4.749774},
{"name":"Spar","brand":"Spar","city":null,"address":"41 Avenue Jean Moulin","lat":46.6730031,"lon":5.5550792},
{"name":"Spar","brand":"Spar","city":null,"address":null,"lat":43.5101369,"lon":4.9832466},
{"name":"Spar","brand":"Spar","city":"Issigeac","address":"Tour de Ville, 24560 Issigeac","lat":44.7296264,"lon":0.6088644},
{"name":"Spar","brand":"Spar","city":"Belle Plagne","address":"Centre Cial Aval, 73210 Belle Plagne","lat":45.5073519,"lon":6.7072687},
{"name":"Spar","brand":"Spar","city":null,"address":null,"lat":45.1793171,"lon":0.7262299},
{"name":"Spar","brand":"Spar","city":null,"address":"Route des Plans, 06510","lat":43.7824617,"lon":7.2044749},
{"name":"Nom inconnu","brand":"Spar","city":null,"address":null,"lat":43.5727456,"lon":7.1159962},
{"name":"Spar","brand":"Spar","city":null,"address":null,"lat":47.4829499,"lon":-0.5264472},
{"name":"SPAR Ville d'Avray","brand":"Spar","city":null,"address":null,"lat":48.8279529,"lon":2.1843712},
{"name":"Spar","brand":"Spar","city":null,"address":null,"lat":45.4185297,"lon":6.3634412},
{"name":"Spar","brand":"Spar","city":null,"address":null,"lat":48.0592084,"lon":-3.8298706},
{"name":"Spar","brand":"Spar","city":"Brignais","address":"1 Place du 8 Mai 1945, 69530 Brignais","lat":45.6722635,"lon":4.7535312},
{"name":"Spar","brand":"Spar","city":"Bourg-en-Bresse","address":"14, 01000 Bourg-en-Bresse","lat":46.1912413,"lon":5.2387222},
{"name":"Spar","brand":"Spar","city":null,"address":null,"lat":47.2943541,"lon":-3.0838466},
{"name":"Spar","brand":"Spar","city":null,"address":null,"lat":41.7512587,"lon":9.172237},
{"name":"Spar","brand":"Spar","city":null,"address":null,"lat":47.3476189,"lon":-3.1580226},
{"name":"Spar","brand":"Spar","city":null,"address":null,"lat":42.7745507,"lon":9.4754541},
{"name":"Spar","brand":"Spar","city":null,"address":null,"lat":42.5506794,"lon":8.7952688},
{"name":"Spar","brand":"Spar","city":null,"address":"117 Rue Émile Machet","lat":45.442231,"lon":6.6472713},
{"name":"Spar Patrik","brand":"Spar","city":null,"address":null,"lat":43.1519938,"lon":6.4279448},
{"name":"Spar","brand":"Spar","city":null,"address":null,"lat":43.1812426,"lon":5.7114967},
{"name":"Spar","brand":"Spar","city":null,"address":null,"lat":43.1837234,"lon":5.7001874},
{"name":"Spar","brand":"Spar","city":null,"address":null,"lat":43.2819641,"lon":5.9697078},
{"name":"Spar","brand":"Spar","city":null,"address":null,"lat":45.7664145,"lon":3.0956675},
{"name":"Spar","brand":"Spar","city":null,"address":null,"lat":45.5618124,"lon":2.6231727},
{"name":"Spar","brand":"Spar","city":null,"address":null,"lat":45.5138515,"lon":6.6975777},
{"name":"Spar","brand":"Spar","city":null,"address":null,"lat":47.7453327,"lon":-3.3731255},
{"name":"Spar","brand":"Spar","city":null,"address":null,"lat":45.5060331,"lon":6.6838191},
{"name":"Spar","brand":"Spar","city":null,"address":null,"lat":43.7588952,"lon":-0.0330098},
{"name":"Spar","brand":"Spar","city":"Hyères","address":"30-32 Rue Massillon, 83400 Hyères","lat":43.1213639,"lon":6.1289496},
{"name":"Spar","brand":"Spar","city":null,"address":"2 Avenue Jean Moulin","lat":44.9472266,"lon":4.8977165},
{"name":"Spar","brand":"Spar","city":null,"address":null,"lat":43.4093099,"lon":6.708604},
{"name":"Spar","brand":"Spar","city":null,"address":"586 Avenue Colonel Picot","lat":43.1301829,"lon":5.9710544},
{"name":"Spar","brand":"Spar","city":null,"address":null,"lat":45.2240179,"lon":0.5589015},
{"name":"Spar","brand":"Spar","city":null,"address":null,"lat":44.5753236,"lon":2.0780319},
{"name":"Spar","brand":"Spar","city":null,"address":null,"lat":41.9813692,"lon":8.7782618},
{"name":"Spar","brand":"Spar","city":null,"address":null,"lat":50.108294,"lon":1.8380481},
{"name":"Spar","brand":"Spar","city":null,"address":null,"lat":42.7031731,"lon":9.4505571},
{"name":"Eurospar","brand":"Spar","city":null,"address":null,"lat":42.57921,"lon":2.0740674},
{"name":"Spar","brand":"Spar","city":null,"address":null,"lat":44.4504903,"lon":1.4392812},
{"name":"Spar","brand":"Spar","city":null,"address":null,"lat":47.4415219,"lon":6.8814226},
{"name":"Spar","brand":"Spar","city":null,"address":null,"lat":44.9316687,"lon":6.7253544},
{"name":"Spar","brand":"Spar","city":null,"address":null,"lat":43.3462385,"lon":-1.6220595},
{"name":"Spar","brand":"Spar","city":null,"address":null,"lat":44.566673,"lon":6.4979509},
{"name":"Spar","brand":"Spar","city":null,"address":null,"lat":45.7528407,"lon":4.8273039},
{"name":"Spar","brand":"Spar","city":null,"address":null,"lat":43.33842,"lon":5.0530737},
{"name":"Spar","brand":"Spar","city":null,"address":"Avenue Jean Jaurès","lat":43.0940409,"lon":6.0743986},
{"name":"Nom inconnu","brand":"Spar","city":null,"address":null,"lat":44.0764141,"lon":-1.1668906},
{"name":"Spar","brand":"Spar","city":"Boulogne-sur-Mer","address":"40 Rue Victor Hugo, 62200 Boulogne-sur-Mer","lat":50.7238539,"lon":1.6042006},
{"name":"Spar","brand":"Spar","city":null,"address":null,"lat":46.9675372,"lon":-2.2355237},
{"name":"Spar","brand":"Spar","city":null,"address":null,"lat":48.8760793,"lon":2.3996061},
{"name":"Nom inconnu","brand":"Spar","city":null,"address":null,"lat":45.3301233,"lon":-0.0446615},
{"name":"SPAR Saint-Paul","brand":"Spar","city":"Saint-Paul","address":"Avenue de Limoges, 87260 Saint-Paul, 87260 Saint-Paul","lat":45.7509987,"lon":1.4308813},
{"name":"Spar","brand":"Spar","city":null,"address":null,"lat":45.8722204,"lon":3.0370676},
{"name":"Spar","brand":"Spar","city":null,"address":null,"lat":43.4500679,"lon":6.75366},
{"name":"Spar","brand":"Spar","city":null,"address":"95 Rue des Pyrénées","lat":43.6342691,"lon":-0.4873386},
{"name":"Spar","brand":"Spar","city":"Bordeaux","address":"211 Cours de la Marne, 33800 Bordeaux","lat":44.8275672,"lon":-0.5591417},
{"name":"Spar","brand":"Spar","city":"Saint-Vincent-de-Tyrosse","address":"44 Avenue Nationale, 40230 Saint-Vincent-de-Tyrosse","lat":43.6607142,"lon":-1.3052652},
{"name":"Spar","brand":"Spar","city":"Le Grand-Bornand","address":"Route de Villavit, 74450 Le Grand-Bornand","lat":45.9416723,"lon":6.4260216},
{"name":"Spar","brand":"Spar","city":null,"address":null,"lat":42.9770381,"lon":2.7766928},
{"name":"Spar","brand":"Spar","city":null,"address":null,"lat":43.2914646,"lon":2.969043},
{"name":"Spar","brand":"Spar","city":null,"address":"Résidence Alta Ribba, 20230","lat":42.3824797,"lon":9.5298489},
{"name":"Spar","brand":"Spar","city":"Saint-Amand-sur-Sèvre","address":"12, 79700 Saint-Amand-sur-Sèvre","lat":46.8692202,"lon":-0.7946554},
{"name":"Spar","brand":"Spar","city":null,"address":null,"lat":50.9871677,"lon":2.126074},
{"name":"Spar","brand":"Spar","city":null,"address":null,"lat":45.7407205,"lon":0.242126},
{"name":"Spar","brand":"Spar","city":null,"address":null,"lat":45.4510185,"lon":0.4514079},
{"name":"Spar","brand":"Spar","city":null,"address":null,"lat":48.5053817,"lon":-2.7669511},
{"name":"Spar","brand":"Spar","city":null,"address":null,"lat":43.4594637,"lon":3.42457},
{"name":"Spar","brand":"Spar","city":null,"address":"1 La Promenade de l'Europe, 44700","lat":47.2723256,"lon":-1.626332},
{"name":"Spar","brand":"Spar","city":null,"address":null,"lat":43.1156896,"lon":1.6150803},
{"name":"Spar","brand":"Spar","city":null,"address":null,"lat":49.9645038,"lon":1.943407},
{"name":"Spar","brand":"Spar","city":null,"address":"1","lat":46.9477675,"lon":-1.2963344},
{"name":"Spar","brand":"Spar","city":null,"address":null,"lat":45.4533527,"lon":6.97232},
{"name":"Spar","brand":"Spar","city":null,"address":null,"lat":45.6110978,"lon":4.0549396},
{"name":"Spar","brand":"Spar","city":null,"address":null,"lat":43.5661399,"lon":7.016264},
{"name":"Spar","brand":"Spar","city":null,"address":null,"lat":45.6065975,"lon":0.0997025},
{"name":"Spar","brand":"Spar","city":null,"address":null,"lat":45.5500527,"lon":3.7433925},
{"name":"Spar","brand":"Spar","city":null,"address":null,"lat":43.3120816,"lon":-1.5818408},
{"name":"Spar","brand":"Spar","city":null,"address":null,"lat":44.7794381,"lon":3.3840376},
{"name":"Spar","brand":"Spar","city":null,"address":null,"lat":43.4245883,"lon":6.7592416},
{"name":"Spar","brand":"Spar","city":null,"address":null,"lat":45.0634603,"lon":-0.6165164},
{"name":"Spar","brand":"Spar","city":null,"address":"194 Boulevard Front de Mer","lat":43.1037807,"lon":6.1743074},
{"name":"Spar","brand":"Spar","city":null,"address":null,"lat":43.2756082,"lon":5.7001106},
{"name":"Spar","brand":"Spar","city":null,"address":null,"lat":46.079316,"lon":4.758392},
{"name":"Spar","brand":"Spar","city":null,"address":"Allée du Château","lat":43.629636,"lon":2.4971374},
{"name":"Spar","brand":"Spar","city":"Nîmes","address":"2 Place Montcalm, 30000 Nîmes","lat":43.8320879,"lon":4.3581524},
{"name":"Spar","brand":"Spar","city":null,"address":null,"lat":41.9091201,"lon":8.7090495},
{"name":"Spar","brand":"Spar","city":"Nîmes","address":"67 Avenue Jean Jaurès, 30900 Nîmes","lat":43.827868,"lon":4.3534728},
{"name":"Spar","brand":"Spar","city":null,"address":null,"lat":46.6435347,"lon":-1.8082555},
{"name":"Spar","brand":"Spar","city":null,"address":null,"lat":43.6814349,"lon":1.4804238},
{"name":"Spar","brand":"Spar","city":null,"address":null,"lat":45.7597015,"lon":5.6861575},
{"name":"Spar","brand":"Spar","city":null,"address":null,"lat":43.2928109,"lon":5.3751237},
{"name":"Spar","brand":"Spar","city":"Marseille","address":"Marseille","lat":43.2998659,"lon":5.3857514},
{"name":"Spar","brand":"Spar","city":null,"address":null,"lat":44.2135753,"lon":-0.9208412},
{"name":"Spar","brand":"Spar","city":"Usson-du-Poitou","address":"Place du Marché, 86350 Usson-du-Poitou","lat":46.2777887,"lon":0.5277501},
{"name":"Spar","brand":"Spar","city":null,"address":null,"lat":47.4675768,"lon":-0.545594},
{"name":"Spar","brand":"Spar","city":null,"address":null,"lat":44.4246098,"lon":2.1557726},
{"name":"Spar","brand":"Spar","city":null,"address":null,"lat":43.8160553,"lon":4.3269905},
{"name":"Spar","brand":"Spar","city":null,"address":null,"lat":42.6551406,"lon":2.9528444},
{"name":"Spar","brand":"Spar","city":"Peyrat-le-Château","address":"1 Rue de la Ribière, 87470 Peyrat-le-Château","lat":45.8103083,"lon":1.7656741},
{"name":"Spar","brand":"Spar","city":"Avrillé","address":"18 Place du Bois du Roy, 49240 Avrillé","lat":47.4951569,"lon":-0.5864511},
{"name":"Spar","brand":"Spar","city":"Concarneau","address":"1 Place du Marché, 29900 Concarneau","lat":47.8825866,"lon":-3.9176149},
{"name":"Spar","brand":"Spar","city":null,"address":null,"lat":46.3788289,"lon":-1.1167526},
{"name":"Spar","brand":"Spar","city":"Villeveyrac","address":"1205 Route de Montagnac, 34560 Villeveyrac","lat":43.4991129,"lon":3.5918498},
{"name":"Spar","brand":"Spar","city":"Castres","address":"52 Allées Corbière, 81100 Castres","lat":43.6058359,"lon":2.2331766},
{"name":"Spar","brand":"Spar","city":null,"address":null,"lat":45.763414,"lon":4.9624689},
{"name":"Spar","brand":"Spar","city":null,"address":null,"lat":45.4862946,"lon":5.4763225},
{"name":"Spar","brand":"Spar","city":"Gravelines","address":"Boulevard de l'Europe, 59820 Gravelines","lat":50.9978294,"lon":2.1225401},
{"name":"Spar","brand":"Spar","city":"Ciboure","address":"21 Rue François Tournaco, 64500 Ciboure","lat":43.3805969,"lon":-1.6642853},
{"name":"Spar","brand":"Spar","city":null,"address":null,"lat":43.3082512,"lon":6.6356823},
{"name":"Spar","brand":"Spar","city":null,"address":null,"lat":43.3188388,"lon":1.9535963},
{"name":"Spar","brand":"Spar","city":null,"address":null,"lat":41.9220011,"lon":8.8305778},
{"name":"Spar","brand":"Spar","city":null,"address":null,"lat":46.3924464,"lon":5.8645497},
{"name":"Spar","brand":"Spar","city":"Narbonne","address":"51 Avenue des Cigales, 11100 Narbonne","lat":43.1630525,"lon":3.169711},
{"name":"Spar","brand":"Spar","city":null,"address":null,"lat":42.7699082,"lon":2.8745177},
{"name":"Spar","brand":"Spar","city":null,"address":"2 Esplanade Napoléon Bonaparte","lat":48.8067072,"lon":2.069289},
{"name":"Spar","brand":"Spar","city":null,"address":null,"lat":42.6936522,"lon":2.9326878},
{"name":"Spar","brand":"Spar","city":null,"address":null,"lat":44.3618128,"lon":2.5774966},
{"name":"Spar","brand":"Spar","city":"Champigny-sur-Marne","address":"111-113 Avenue Roger Salengro, 94500 Champigny-sur-Marne","lat":48.8178304,"lon":2.4950333},
{"name":"Spar","brand":"Spar","city":"Valenciennes","address":"189 Rue Lomprez, 59300 Valenciennes","lat":50.3537717,"lon":3.4891248},
{"name":"Spar","brand":"Spar","city":null,"address":null,"lat":46.9038336,"lon":6.3533257},
{"name":"Spar","brand":"Spar","city":"Pamproux","address":"9 Rue du Marché, 79800 Pamproux","lat":46.3973702,"lon":-0.0520744},
{"name":"Spar","brand":"Spar","city":null,"address":null,"lat":42.7016625,"lon":9.4493483},
{"name":"Spar","brand":"Spar","city":null,"address":null,"lat":42.7000269,"lon":9.449303},
{"name":"Spar","brand":"Spar","city":null,"address":null,"lat":45.4550071,"lon":5.291421},
{"name":"Spar","brand":"Spar","city":"Saint-Pierre-La-Mer","address":"11 Avenue de la Mer, 11560 Saint-Pierre-La-Mer","lat":43.1793562,"lon":3.1895205},
{"name":"Spar","brand":"Spar","city":null,"address":null,"lat":43.561947,"lon":5.4345281},
{"name":"Spar","brand":"Spar","city":null,"address":"22190","lat":48.5413664,"lon":-2.7276751},
{"name":"Spar","brand":"Spar","city":null,"address":null,"lat":43.4091405,"lon":4.7265733},
{"name":"Spar","brand":"Spar","city":null,"address":null,"lat":42.3058325,"lon":9.152419},
{"name":"Spar","brand":"Spar","city":null,"address":null,"lat":42.7650422,"lon":3.0312636},
{"name":"Spar","brand":"Spar","city":null,"address":"240 Avenue Paul Arène","lat":44.1972132,"lon":5.9437289},
{"name":"Spar","brand":"Spar","city":null,"address":null,"lat":48.9796251,"lon":2.2442508},
{"name":"Spar","brand":"Spar","city":"Albi","address":"17 Avenue Pierre Mendès France, 81000 Albi","lat":43.9196152,"lon":2.1659601},
{"name":"Spar","brand":"Spar","city":"Tarnos","address":"22 Boulevard Jacques Duclos, 40220 Tarnos","lat":43.5386183,"lon":-1.460756},
{"name":"Spar","brand":"Spar","city":null,"address":null,"lat":43.6881236,"lon":-1.2249649},
{"name":"Spar","brand":"Spar","city":null,"address":null,"lat":43.8588678,"lon":7.2298537},
{"name":"Spar","brand":"Spar","city":null,"address":null,"lat":43.4232213,"lon":-1.6052962},
{"name":"Spar","brand":"Spar","city":"Portiragnes","address":"Avenue de la Redoute, 34420 Portiragnes","lat":43.3025454,"lon":3.3352682},
{"name":"Spar","brand":"Spar","city":null,"address":null,"lat":44.6319506,"lon":-1.1494271},
{"name":"Spar","brand":"Spar","city":null,"address":null,"lat":45.240929,"lon":4.6713406},
{"name":"Spar","brand":"Spar","city":null,"address":null,"lat":42.6961221,"lon":9.4403018},
{"name":"Spar","brand":"Spar","city":"Saint-Raphaël","address":"370 Avenue de la Gare, 83700 Saint-Raphaël","lat":43.4170374,"lon":6.8078745},
{"name":"Spar","brand":"Spar","city":null,"address":null,"lat":43.3945923,"lon":3.6637244},
{"name":"Spar","brand":"Spar","city":null,"address":null,"lat":43.2340115,"lon":3.0581054},
{"name":"Spar","brand":"Spar","city":"Billère","address":"68 Route de Bayonne, 64140 Billère","lat":43.3032116,"lon":-0.3976429},
{"name":"Spar","brand":"Spar","city":null,"address":null,"lat":47.7207264,"lon":-3.000214},
{"name":"SPAR","brand":"Spar","city":null,"address":null,"lat":43.1899913,"lon":3.0175629},
{"name":"Spar","brand":"Spar","city":"Rignac","address":"32 La Promenade, 12390 Rignac","lat":44.4104202,"lon":2.2899101},
{"name":"Spar","brand":"Spar","city":null,"address":null,"lat":43.290992,"lon":5.3719245},
{"name":"Spar","brand":"Spar","city":null,"address":null,"lat":47.8696202,"lon":-3.9067615},
{"name":"Spar","brand":"Spar","city":null,"address":null,"lat":50.277838,"lon":3.9743069},
{"name":"Spar","brand":"Spar","city":null,"address":null,"lat":42.5841386,"lon":2.7828833},
{"name":"Spar","brand":"Spar","city":"Boigny-sur-Bionne","address":"Rue de Verdun, 45760 Boigny-sur-Bionne","lat":47.9233719,"lon":2.0081159}
]