[
{"name":"Auchan","brand":"Auchan","city":"Pessac","address":"1 bis Avenue Gustave Eiffel, 33600 Pessac","lat":44.7844825,"lon":-0.639479},
{"name":"Auchan","brand":"Auchan","city":null,"address":null,"lat":43.4243443,"lon":6.7335281},
{"name":"Auchan","brand":"Auchan","city":"Jouy-en-Josas","address":"50 Avenue Jean Jaurès, 78350 Jouy-en-Josas","lat":48.7658322,"lon":2.162263},
{"name":"Auchan","brand":"Auchan","city":"Viuz-en-Sallaz","address":"182 Allée du Commerce, 74250 Viuz-en-Sallaz","lat":46.1415171,"lon":6.4030848},
{"name":"Auchan","brand":"Auchan","city":null,"address":null,"lat":48.56275,"lon":7.6956632},
{"name":"Auchan","brand":"Auchan","city":null,"address":null,"lat":48.5983591,"lon":7.7094898},
{"name":"Auchan","brand":"Auchan","city":null,"address":null,"lat":48.577281,"lon":7.7061222},
{"name":"Auchan Hypermarché Angoulême Champniers","brand":"Auchan","city":"Champniers","address":"Les Grandes Chaumes, 16430 Champniers","lat":45.6938188,"lon":0.1835626},
{"name":"Auchan","brand":"Auchan","city":null,"address":null,"lat":48.5626539,"lon":7.7655171},
{"name":"Auchan","brand":"Auchan","city":null,"address":null,"lat":48.6001746,"lon":7.792167},
{"name":"Auchan","brand":"Auchan","city":null,"address":null,"lat":48.5493246,"lon":7.7492841},
{"name":"Auchan","brand":"Auchan","city":null,"address":null,"lat":43.1338686,"lon":5.9823267},
{"name":"Auchan","brand":"Auchan","city":null,"address":"13 Zone Industrielle Secteur Zinsel, 67590","lat":48.8328844,"lon":7.7418034},
{"name":"Auchan","brand":"Auchan","city":null,"address":null,"lat":48.8187694,"lon":7.784879},
{"name":"Auchan","brand":"Auchan","city":null,"address":null,"lat":47.1280092,"lon":0.9963875},
{"name":"Auchan Supermarché","brand":"Auchan","city":null,"address":null,"lat":48.8026206,"lon":7.8106666},
{"name":"Auchan","brand":"Auchan","city":null,"address":null,"lat":48.549018,"lon":7.7102521},
{"name":"Auchan","brand":"Auchan","city":null,"address":null,"lat":42.5548323,"lon":8.7625255},
{"name":"Auchan","brand":"Auchan","city":null,"address":null,"lat":48.7415144,"lon":7.3759417},
{"name":"Auchan","brand":"Auchan","city":null,"address":null,"lat":47.0413346,"lon":0.8145431},
{"name":"Auchan","brand":"Auchan","city":null,"address":null,"lat":45.5102038,"lon":2.9349814},
{"name":"Auchan","brand":"Auchan","city":null,"address":"243 Boulevard Charles de Gaulle, 37540","lat":47.4260507,"lon":0.6578261},
{"name":"Auchan","brand":"Auchan","city":"Port-Jérôme-sur-Seine","address":"2 Rue du Président René Coty, 76330 Port-Jérôme-sur-Seine","lat":49.4883542,"lon":0.5700613},
{"name":"Auchan","brand":"Auchan","city":null,"address":"1006 Chemin des Gourettes","lat":43.6145171,"lon":6.976313},
{"name":"Auchan","brand":"Auchan","city":null,"address":null,"lat":50.2568236,"lon":3.938133},
{"name":"Auchan","brand":"Auchan","city":null,"address":null,"lat":43.5506734,"lon":6.9702902},
{"name":"Auchan","brand":"Auchan","city":null,"address":null,"lat":47.190333,"lon":-1.4935523},
{"name":"Auchan Grasse Sud","brand":"Auchan","city":null,"address":null,"lat":43.6350978,"lon":6.950631},
{"name":"Auchan","brand":"Auchan","city":null,"address":"70 Avenue Philippe Rochat","lat":43.5903312,"lon":7.1105303},
{"name":"Auchan","brand":"Auchan","city":null,"address":null,"lat":43.2073413,"lon":2.3093218},
{"name":"Auchan","brand":"Auchan","city":"Monnaie","address":"37380 Monnaie","lat":47.4976651,"lon":0.7826491},
{"name":"Auchan Drive","brand":"Auchan","city":null,"address":null,"lat":45.1932513,"lon":0.6561331},
{"name":"Auchan","brand":"Auchan","city":null,"address":"33C Avenue de la Gare","lat":48.5018136,"lon":7.4836242},
{"name":"Auchan","brand":"Auchan","city":null,"address":null,"lat":47.410987,"lon":0.8031396},
{"name":"Auchan","brand":"Auchan","city":null,"address":null,"lat":41.6723234,"lon":8.9171328},
{"name":"Auchan","brand":"Auchan","city":null,"address":null,"lat":47.5166361,"lon":-0.6076018},
{"name":"Auchan","brand":"Auchan","city":null,"address":null,"lat":48.8798958,"lon":2.4363405},
{"name":"Auchan","brand":"Auchan","city":null,"address":"Rue de La Fontaine","lat":50.2045581,"lon":3.8229166},
{"name":"Auchan","brand":"Auchan","city":null,"address":null,"lat":44.5562008,"lon":4.7375935},
{"name":"Auchan","brand":"Auchan","city":null,"address":null,"lat":47.3890018,"lon":0.7187297},
{"name":"Auchan","brand":"Auchan","city":null,"address":null,"lat":47.3411611,"lon":0.7368294},
{"name":"Auchan","brand":"Auchan","city":"Montpellier","address":"129 Avenue de Lodève, 34070 Montpellier","lat":43.6117924,"lon":3.8398927},
{"name":"Auchan","brand":"Auchan","city":null,"address":null,"lat":45.3976419,"lon":2.0341265},
{"name":"Auchan","brand":"Auchan","city":"Voiron","address":"Boulevard Edgar Kofler, 38500 Voiron","lat":45.3589145,"lon":5.5998148},
{"name":"Auchan","brand":"Auchan","city":null,"address":null,"lat":48.7928203,"lon":2.4621015},
{"name":"Auchan","brand":"Auchan","city":"Thomery","address":"Chemin des Prés, 77810 Thomery","lat":48.4082693,"lon":2.7904485},
{"name":"Auchan","brand":"Auchan","city":"Nogent-sur-Oise","address":"110 Avenue de l'Europe, 60180 Nogent-sur-Oise","lat":49.2716786,"lon":2.4828381},
{"name":"Auchan","brand":"Auchan","city":"Châtellerault","address":"Avenue Jean Moulin, 86100 Châtellerault","lat":46.7985209,"lon":0.5294927},
{"name":"Auchan","brand":"Auchan","city":null,"address":null,"lat":49.2045686,"lon":6.9545703},
{"name":"Auchan","brand":"Auchan","city":"Orchies","address":"5 ZAC de l'Europe, 59310 Orchies","lat":50.4751136,"lon":3.2337577},
{"name":"Auchan","brand":"Auchan","city":null,"address":"Route de Châtellerault, 86140","lat":46.8152855,"lon":0.3370044},
{"name":"Auchan","brand":"Auchan","city":null,"address":null,"lat":43.8501162,"lon":5.8242682},
{"name":"Auchan","brand":"Auchan","city":null,"address":null,"lat":49.1482328,"lon":6.8088908},
{"name":"Auchan","brand":"Auchan","city":null,"address":"91440","lat":48.6962823,"lon":2.1542538},
{"name":"Auchan","brand":"Auchan","city":null,"address":null,"lat":44.5432375,"lon":6.0661505},
{"name":"Auchan","brand":"Auchan","city":"Vinon-sur-Verdon","address":"495 Route des Gorges, 83560 Vinon-sur-Verdon","lat":43.7321608,"lon":5.8181702},
{"name":"Auchan","brand":"Auchan","city":null,"address":null,"lat":47.865932,"lon":2.1245295},
{"name":"Auchan","brand":"Auchan","city":"Narbonne","address":"Route de Perpignan, 11100 Narbonne","lat":43.1608575,"lon":2.9812325},
{"name":"Auchan","brand":"Auchan","city":null,"address":null,"lat":50.735144,"lon":1.67446},
{"name":"Auchan","brand":"Auchan","city":"Saint-Gaudens","address":"Rue Lavoisier, 31800 Saint-Gaudens","lat":43.108671,"lon":0.7163793},
{"name":"Auchan","brand":"Auchan","city":null,"address":null,"lat":43.4971139,"lon":4.9770398},
{"name":"Auchan","brand":"Auchan","city":null,"address":null,"lat":43.42336,"lon":5.0508352},
{"name":"Auchan","brand":"Auchan","city":null,"address":"Avenue de Provence","lat":44.9078158,"lon":4.8783918},
{"name":"Auchan","brand":"Auchan","city":"Épinal","address":"Avenue de Saint-Dié, 88000 Épinal","lat":48.1850022,"lon":6.4685417},
{"name":"Auchan Supermarché","brand":"Auchan","city":"Le Plessis-Trévise","address":"30 Avenue Chéret, 94420 Le Plessis-Trévise","lat":48.8055335,"lon":2.586062},
{"name":"Auchan","brand":"Auchan","city":"Arles","address":"13200 Arles","lat":43.6665597,"lon":4.6389917},
{"name":"Auchan","brand":"Auchan","city":null,"address":null,"lat":50.3420134,"lon":3.1000605},
{"name":"Auchan","brand":"Auchan","city":null,"address":null,"lat":43.1988442,"lon":5.8063236},
{"name":"Auchan","brand":"Auchan","city":null,"address":null,"lat":50.944493,"lon":1.8084901},
{"name":"Auchan","brand":"Auchan","city":null,"address":"Route d'Arras","lat":50.4263205,"lon":2.821352},
{"name":"Auchan","brand":"Auchan","city":null,"address":"Rue de Fécamp","lat":50.4430025,"lon":2.8309498},
{"name":"Auchan","brand":"Auchan","city":null,"address":null,"lat":45.7248,"lon":3.3390385},
{"name":"Auchan","brand":"Auchan","city":null,"address":null,"lat":48.584453,"lon":2.3030724},
{"name":"Auchan","brand":"Auchan","city":null,"address":null,"lat":43.3923105,"lon":4.803041},
{"name":"Auchan","brand":"Auchan","city":null,"address":"Avenue de Verdun","lat":50.3531587,"lon":3.5349186},
{"name":"Auchan","brand":"Auchan","city":null,"address":"Avenue du Général Horne","lat":50.3455045,"lon":3.5190205},
{"name":"Auchan","brand":"Auchan","city":null,"address":null,"lat":44.031424,"lon":1.369408},
{"name":"Auchan","brand":"Auchan","city":null,"address":null,"lat":45.0491905,"lon":3.91619},
{"name":"Auchan","brand":"Auchan","city":"Castellane","address":"93 Avenue du 19 Mars 1962, 04120 Castellane","lat":43.8526915,"lon":6.507655},
{"name":"Auchan","brand":"Auchan","city":null,"address":null,"lat":43.5316135,"lon":6.932569},
{"name":"Auchan","brand":"Auchan","city":null,"address":null,"lat":45.7578375,"lon":4.780843},
{"name":"Auchan","brand":"Auchan","city":null,"address":null,"lat":-21.2927938,"lon":55.4027298},
{"name":"Auchan","brand":"Auchan","city":null,"address":null,"lat":44.9120301,"lon":-0.6266782},
{"name":"Auchan","brand":"Auchan","city":null,"address":null,"lat":45.590992,"lon":2.757973},
{"name":"Auchan","brand":"Auchan","city":null,"address":null,"lat":48.685836,"lon":6.22155},
{"name":"Auchan","brand":"Auchan","city":null,"address":null,"lat":43.4101765,"lon":6.061755},
{"name":"Auchan","brand":"Auchan","city":"Bondues","address":"Rue Mirabeau, 59910 Bondues","lat":50.7100622,"lon":3.1239277},
{"name":"Auchan","brand":"Auchan","city":null,"address":null,"lat":46.559129,"lon":4.9157165},
{"name":"Auchan","brand":"Auchan","city":null,"address":"Rue du Chemin Ferré, 71240","lat":46.6317798,"lon":4.8761409},
{"name":"Auchan","brand":"Auchan","city":"Gueugnon","address":"Route de Digoin, 71130 Gueugnon","lat":46.5909082,"lon":4.067614},
{"name":"Auchan","brand":"Auchan","city":null,"address":"15 Rue de l'Étang de la Poche","lat":47.8214907,"lon":6.3880118},
{"name":"Auchan","brand":"Auchan","city":null,"address":null,"lat":43.450136,"lon":5.6854875},
{"name":"Auchan","brand":"Auchan","city":null,"address":null,"lat":43.5124284,"lon":2.3765551},
{"name":"Auchan","brand":"Auchan","city":null,"address":null,"lat":48.5492278,"lon":7.7494729},
{"name":"Auchan","brand":"Auchan","city":"Saint-Raphaël","address":"Boulevard Jean Moulin, 83700 Saint-Raphaël","lat":43.4269535,"lon":6.784693},
{"name":"Auchan","brand":"Auchan","city":"Sartrouville","address":"80 Avenue Maurice Berteaux, 78500 Sartrouville","lat":48.9407729,"lon":2.1649436},
{"name":"Auchan","brand":"Auchan","city":null,"address":null,"lat":48.9231363,"lon":2.2042455},
{"name":"Auchan","brand":"Auchan","city":"La Queue-lez-Yvelines","address":"Route Nationale, 78940 La Queue-lez-Yvelines","lat":48.8034876,"lon":1.779533},
{"name":"Auchan","brand":"Auchan","city":null,"address":null,"lat":43.3456295,"lon":3.242932},
{"name":"Auchan","brand":"Auchan","city":null,"address":"122 Rue Lieutenant André Argenton","lat":45.756952,"lon":5.683216},
{"name":"Auchan","brand":"Auchan","city":"Wintzenheim","address":"1 Faubourg des Vosges, 68920 Wintzenheim","lat":48.0708454,"lon":7.2985288},
{"name":"Auchan","brand":"Auchan","city":null,"address":null,"lat":43.4089065,"lon":3.6700275},
{"name":"Auchan","brand":"Auchan","city":null,"address":null,"lat":45.989963,"lon":4.7087515},
{"name":"Auchan","brand":"Auchan","city":null,"address":"Boulevard Gambetta, 60200","lat":49.4122005,"lon":2.8162185},
{"name":"Auchan","brand":"Auchan","city":"Villenave-d'Ornon","address":"Centre Commercial Bordeaux Sud, Avenue des Pyrénées, Route de Toulouse, 33140 Villenave-d'Ornon","lat":44.7763865,"lon":-0.5637505},
{"name":"Auchan","brand":"Auchan","city":null,"address":"ZAC du Mont Renaud","lat":49.5696894,"lon":2.975999},
{"name":"Auchan","brand":"Auchan","city":"Billy-Berclau","address":"Rue du Général de Gaulle, 62138 Billy-Berclau","lat":50.5110065,"lon":2.856069},
{"name":"Auchan","brand":"Auchan","city":"Wissembourg","address":"2 Rue des Quatre Vents, 67160 Wissembourg","lat":49.0353759,"lon":7.9530168},
{"name":"Auchan Supermarché","brand":"Auchan","city":null,"address":null,"lat":44.7411095,"lon":3.2899795},
{"name":"Auchan Golbey","brand":"Auchan","city":null,"address":"2","lat":48.1784486,"lon":6.4271136},
{"name":"Auchan","brand":"Auchan","city":null,"address":null,"lat":48.899804,"lon":2.5487439},
{"name":"Auchan","brand":"Auchan","city":null,"address":null,"lat":43.1266366,"lon":5.9049121},
{"name":"Auchan","brand":"Auchan","city":null,"address":null,"lat":48.6401007,"lon":2.2515371},
{"name":"Auchan","brand":"Auchan","city":null,"address":null,"lat":48.959942,"lon":2.5549492},
{"name":"Auchan","brand":"Auchan","city":null,"address":null,"lat":48.9919711,"lon":2.2916491},
{"name":"Auchan","brand":"Auchan","city":"Selongey","address":"21260 Selongey","lat":47.581125,"lon":5.1678385},
{"name":"Auchan","brand":"Auchan","city":null,"address":"17 Rue du 4 Septembre","lat":48.8841674,"lon":2.0715773},
{"name":"Auchan","brand":"Auchan","city":null,"address":null,"lat":45.869806,"lon":2.6730235},
{"name":"Auchan","brand":"Auchan","city":"Vélizy-Villacoublay","address":"2 Avenue de l'Europe, 78140 Vélizy-Villacoublay","lat":48.7796219,"lon":2.2194285},
{"name":"Auchan","brand":"Auchan","city":null,"address":"57 Rue de Chartres, 78610","lat":48.6844699,"lon":1.8465837},
{"name":"Auchan Supermarché","brand":"Auchan","city":"Megève","address":"283 Route de Sallanches, 74120 Megève","lat":45.8708909,"lon":6.6309129},
{"name":"Auchan","brand":"Auchan","city":"Bessoncourt","address":"1 route du Stratégique, 90160 Bessoncourt","lat":47.6402088,"lon":6.915477},
{"name":"Auchan","brand":"Auchan","city":null,"address":null,"lat":44.8171005,"lon":-0.5864908},
{"name":"Auchan","brand":"Auchan","city":null,"address":null,"lat":47.0641809,"lon":2.3973143},
{"name":"Auchan","brand":"Auchan","city":"Saint-André-de-Cubzac","address":"Avenue de l'Europe, 33240 Saint-André-de-Cubzac","lat":45.0109358,"lon":-0.4250066},
{"name":"Auchan","brand":"Auchan","city":null,"address":null,"lat":44.848293,"lon":-0.6584635},
{"name":"Auchan","brand":"Auchan","city":"Mérignac","address":"22 Avenue du Maréchal Gallieni, 33700 Mérignac","lat":44.8371591,"lon":-0.617764},
{"name":"Auchan","brand":"Auchan","city":"Longuenesse","address":"2 Avenue des Frais Fonds, 62219 Longuenesse","lat":50.7364628,"lon":2.2704775},
{"name":"Auchan","brand":"Auchan","city":null,"address":null,"lat":47.8171713,"lon":3.5712275},
{"name":"Auchan","brand":"Auchan","city":"Harnes","address":"Chemin de la Grosse Borne, 62440 Harnes","lat":50.453994,"lon":2.903891},
{"name":"Auchan Supermarché","brand":"Auchan","city":null,"address":"1833 Rue de Belledonne, 38920","lat":45.2709379,"lon":5.8933985},
{"name":"Auchan","brand":"Auchan","city":null,"address":null,"lat":47.4825411,"lon":4.3523618},
{"name":"Auchan","brand":"Auchan","city":null,"address":null,"lat":44.806151,"lon":-0.5912435},
{"name":"Auchan","brand":"Auchan","city":null,"address":null,"lat":48.7974349,"lon":2.4987695},
{"name":"Auchan","brand":"Auchan","city":null,"address":"route de Gémenos","lat":43.2939275,"lon":5.592033},
{"name":"Auchan","brand":"Auchan","city":null,"address":"20250","lat":42.30077,"lon":9.158426},
{"name":"Auchan Supermarché","brand":"Auchan","city":null,"address":null,"lat":47.9893655,"lon":2.4546564},
{"name":"Auchan","brand":"Auchan","city":null,"address":null,"lat":44.8571131,"lon":-0.574224},
{"name":"Auchan","brand":"Auchan","city":null,"address":null,"lat":45.371689,"lon":4.208991},
{"name":"Auchan Drive","brand":"Auchan","city":null,"address":null,"lat":47.4273299,"lon":0.6591383},
{"name":"Auchan","brand":"Auchan","city":null,"address":null,"lat":47.3440226,"lon":0.6150001},
{"name":"Auchan","brand":"Auchan","city":null,"address":"Rue Jean Jaurès","lat":50.368357,"lon":3.5524585},
{"name":"Auchan","brand":"Auchan","city":null,"address":null,"lat":47.6889475,"lon":2.6188859},
{"name":"Auchan","brand":"Auchan","city":null,"address":null,"lat":48.705943,"lon":2.2531131},
{"name":"Auchan","brand":"Auchan","city":null,"address":null,"lat":47.877463,"lon":7.0194405},
{"name":"Auchan","brand":"Auchan","city":null,"address":null,"lat":43.107408,"lon":6.127552},
{"name":"Auchan","brand":"Auchan","city":"Orgerus","address":"Route de Béhoust, 78910 Orgerus","lat":48.834675,"lon":1.7104807},
{"name":"Auchan","brand":"Auchan","city":null,"address":null,"lat":44.9377846,"lon":4.8654331},
{"name":"Auchan","brand":"Auchan","city":null,"address":"Route Nationale 43","lat":50.85174,"lon":1.9862685},
{"name":"Auchan","brand":"Auchan","city":"Cherbourg-en-Cotentin","address":"50470 Cherbourg-en-Cotentin","lat":49.6030074,"lon":-1.6003003},
{"name":"Auchan Drive","brand":"Auchan","city":null,"address":null,"lat":49.604285,"lon":-1.5994855},
{"name":"Auchan","brand":"Auchan","city":null,"address":null,"lat":50.4824153,"lon":2.726702},
{"name":"Auchan","brand":"Auchan","city":"Breuil-le-Vert","address":"112 Rue de Paris, 60600 Breuil-le-Vert","lat":49.3659181,"lon":2.4177814},
{"name":"Auchan","brand":"Auchan","city":"Montceaux","address":"1 Route de Francheleins, 01090 Montceaux","lat":46.0965314,"lon":4.7741275},
{"name":"Auchan","brand":"Auchan","city":null,"address":null,"lat":49.8321909,"lon":0.917543},
{"name":"Auchan","brand":"Auchan","city":null,"address":null,"lat":48.4333403,"lon":2.7533349},
{"name":"Auchan","brand":"Auchan","city":null,"address":null,"lat":45.1928416,"lon":0.6582813},
{"name":"Auchan Drive","brand":"Auchan","city":"Grasse","address":"Route de Cannes, 06130 Grasse","lat":43.6362794,"lon":6.9519997},
{"name":"Auchan","brand":"Auchan","city":null,"address":"Lot Vignes De La Justice","lat":44.5254021,"lon":0.7587897},
{"name":"Auchan","brand":"Auchan","city":"Noisy-le-Grand","address":"1 Place des Opérettes, 93160 Noisy-le-Grand","lat":48.8476756,"lon":2.5487414},
{"name":"Auchan","brand":"Auchan","city":null,"address":"Route d'ouveillan, 11590","lat":43.2656925,"lon":2.9503476},
{"name":"Auchan Drive","brand":"Auchan","city":null,"address":null,"lat":43.588743,"lon":2.188575},
{"name":"Auchan","brand":"Auchan","city":null,"address":null,"lat":49.912792,"lon":4.0907885},
{"name":"Auchan","brand":"Auchan","city":null,"address":"2 Rue des Conviviales","lat":44.8273282,"lon":-0.6206038},
{"name":"Auchan","brand":"Auchan","city":null,"address":"92130","lat":48.8207696,"lon":2.2512358},
{"name":"Auchan","brand":"Auchan","city":"Gradignan","address":"14 Allée des Pins, 33170 Gradignan","lat":44.7727802,"lon":-0.6099189},
{"name":"Auchan","brand":"Auchan","city":null,"address":null,"lat":14.4693189,"lon":-60.8634175},
{"name":"Auchan","brand":"Auchan","city":null,"address":null,"lat":48.8653489,"lon":2.4156657},
{"name":"Auchan Supermarché","brand":"Auchan","city":null,"address":null,"lat":45.1529119,"lon":1.5035844},
{"name":"Auchan","brand":"Auchan","city":null,"address":"66","lat":49.1336484,"lon":6.161279},
{"name":"Auchan","brand":"Auchan","city":null,"address":"95000","lat":49.0380376,"lon":2.0815003},
{"name":"Auchan","brand":"Auchan","city":null,"address":"108 Rue du Vélodrome","lat":44.8588088,"lon":-0.607465},
{"name":"Auchan","brand":"Auchan","city":"Bordeaux","address":"57 Rue du Château d'Eau, 33000 Bordeaux","lat":44.8385716,"lon":-0.5856543},
{"name":"Auchan","brand":"Auchan","city":"Cormeilles-en-Parisis","address":"22 Avenue Foch, 95240 Cormeilles-en-Parisis","lat":48.9705043,"lon":2.1960766},
{"name":"Auchan","brand":"Auchan","city":null,"address":null,"lat":43.5687674,"lon":7.1126589},
{"name":"Auchan","brand":"Auchan","city":null,"address":"8 Place Léon Blum, 75011","lat":48.8584763,"lon":2.3805487},
{"name":"Auchan","brand":"Auchan","city":null,"address":null,"lat":49.0775989,"lon":2.0787078},
{"name":"Auchan","brand":"Auchan","city":"Pérols","address":"Avenue Georges Frêche, 34470 Pérols","lat":43.5726945,"lon":3.940956},
{"name":"Auchan","brand":"Auchan","city":null,"address":null,"lat":48.266981,"lon":2.7128},
{"name":"Auchan","brand":"Auchan","city":"Gannat","address":"1 Avenue de la Gare, 03800 Gannat","lat":46.0993732,"lon":3.2039995},
{"name":"Auchan","brand":"Auchan","city":null,"address":null,"lat":45.6670884,"lon":5.4717109},
{"name":"Auchan","brand":"Auchan","city":null,"address":null,"lat":48.8912328,"lon":2.2352089},
{"name":"Auchan","brand":"Auchan","city":"Château-Arnoux-Saint-Auban","address":"1214 Avenue des Blâches Gombert, 04160 Château-Arnoux-Saint-Auban","lat":44.0808645,"lon":6.0019295},
{"name":"Auchan","brand":"Auchan","city":null,"address":null,"lat":49.2179121,"lon":2.1406915},
{"name":"Auchan","brand":"Auchan","city":null,"address":null,"lat":48.8109713,"lon":2.3145574},
{"name":"Auchan","brand":"Auchan","city":null,"address":null,"lat":49.6430026,"lon":3.2586727},
{"name":"Chronodrive","brand":"Auchan","city":null,"address":null,"lat":48.7573364,"lon":2.4845356},
{"name":"Auchan","brand":"Auchan","city":null,"address":"Allée Perrucade, 33650","lat":44.686004,"lon":-0.5175824},
{"name":"Auchan Drive","brand":"Auchan","city":"Vaux-le-Pénil","address":"Vaux-le-Pénil","lat":48.5411757,"lon":2.683097},
{"name":"Auchan","brand":"Auchan","city":null,"address":"8 Rue de Leicester","lat":48.5781039,"lon":7.7714359},
{"name":"Auchan","brand":"Auchan","city":null,"address":"262 Avenue Napoléon Bonaparte, 92500","lat":48.8760599,"lon":2.1697186},
{"name":"Auchan","brand":"Auchan","city":null,"address":"Rue Pierre Brizon","lat":50.5945212,"lon":3.1220464},
{"name":"Auchan","brand":"Auchan","city":null,"address":null,"lat":46.6653556,"lon":0.3696674},
{"name":"Auchan Supermarché","brand":"Auchan","city":null,"address":null,"lat":48.8259414,"lon":2.3467822},
{"name":"Auchan","brand":"Auchan","city":null,"address":null,"lat":45.0175735,"lon":0.1638179},
{"name":"Auchan","brand":"Auchan","city":"Obernai","address":"14 Rue du Général Leclerc, 67210 Obernai","lat":48.4646548,"lon":7.4899364},
{"name":"Auchan","brand":"Auchan","city":null,"address":null,"lat":48.7698641,"lon":2.3162325},
{"name":"Auchan","brand":"Auchan","city":null,"address":null,"lat":48.8313155,"lon":2.3153662},
{"name":"Auchan","brand":"Auchan","city":"Montivilliers","address":"76290 Montivilliers","lat":49.5275582,"lon":0.1907709},
{"name":"Auchan","brand":"Auchan","city":null,"address":null,"lat":44.8676759,"lon":-0.4965493},
{"name":"Auchan","brand":"Auchan","city":null,"address":null,"lat":43.6585993,"lon":1.4556743},
{"name":"Auchan Supermarché","brand":"Auchan","city":null,"address":null,"lat":44.549375,"lon":-1.1581591},
{"name":"Auchan","brand":"Auchan","city":null,"address":"94120","lat":48.8532361,"lon":2.4827546},
{"name":"Auchan","brand":"Auchan","city":"Sorigny","address":"6 Rue Nationale, 37250 Sorigny","lat":47.2438874,"lon":0.6956608},
{"name":"Auchan","brand":"Auchan","city":"Colleville-Montgomery","address":"Rue de la Mer, 14880 Colleville-Montgomery","lat":49.290457,"lon":-0.28537},
{"name":"Auchan","brand":"Auchan","city":null,"address":"Boulevard d'Halluin","lat":50.7378193,"lon":3.1357249},
{"name":"My Auchan","brand":"Auchan","city":null,"address":null,"lat":48.8523709,"lon":2.2902718},
{"name":"My Auchan","brand":"Auchan","city":null,"address":null,"lat":48.8663061,"lon":2.3318256},
{"name":"Auchan","brand":"Auchan","city":null,"address":null,"lat":46.326174,"lon":4.83902},
{"name":"Auchan","brand":"Auchan","city":null,"address":null,"lat":48.8783342,"lon":2.3857466},
{"name":"Auchan","brand":"Auchan","city":null,"address":null,"lat":48.6219239,"lon":2.2697876},
{"name":"Auchan","brand":"Auchan","city":null,"address":null,"lat":45.8190256,"lon":4.7675313},
{"name":"Auchan","brand":"Auchan","city":null,"address":"20220","lat":42.6325212,"lon":8.9379628},
{"name":"Auchan","brand":"Auchan","city":"Faches-Thumesnil","address":"1 Route de Vendeville, 59155 Faches-Thumesnil","lat":50.5822146,"lon":3.080411},
{"name":"Auchan","brand":"Auchan","city":null,"address":null,"lat":47.5732615,"lon":1.3753778},
{"name":"Auchan","brand":"Auchan","city":null,"address":null,"lat":43.6320623,"lon":1.4842815},
{"name":"Auchan","brand":"Auchan","city":null,"address":null,"lat":-22.163739,"lon":166.3871021},
{"name":"Auchan Supermarché","brand":"Auchan","city":null,"address":null,"lat":45.1793708,"lon":5.7266687},
{"name":"Auchan","brand":"Auchan","city":"Noyelles-Godault","address":"62950 Noyelles-Godault","lat":50.4127759,"lon":2.9767852},
{"name":"Auchan","brand":"Auchan","city":"Saint-Jean-de-Maurienne","address":"C C Saint Jean De Maurienne, 73300 Saint-Jean-de-Maurienne","lat":45.2786269,"lon":6.3466563},
{"name":"Auchan","brand":"Auchan","city":null,"address":null,"lat":48.8555382,"lon":2.7778936},
{"name":"Auchan","brand":"Auchan","city":"Nîmes","address":"400 Avenue Claude Baillet, 30900 Nîmes","lat":43.8128823,"lon":4.3611604},
{"name":"Auchan","brand":"Auchan","city":null,"address":"73 Boulevard Brune, 75014","lat":48.8264267,"lon":2.3119759},
{"name":"Auchan - Les Halles","brand":"Auchan","city":null,"address":null,"lat":48.5871223,"lon":7.7402925},
{"name":"Auchan","brand":"Auchan","city":null,"address":null,"lat":45.4409384,"lon":4.4207988},
{"name":"Auchan","brand":"Auchan","city":null,"address":null,"lat":49.1175836,"lon":6.1775283},
{"name":"Auchan","brand":"Auchan","city":"Le Havre","address":"110 Avenue du Grand Hameau, 76620 Le Havre","lat":49.5220631,"lon":0.1114935},
{"name":"Auchan","brand":"Auchan","city":"Bordeaux","address":"Avenue des 40 Journaux, 33300 Bordeaux","lat":44.880685,"lon":-0.5664099},
{"name":"Auchan","brand":"Auchan","city":null,"address":null,"lat":43.9824762,"lon":4.8805147},
{"name":"Auchan","brand":"Auchan","city":null,"address":null,"lat":45.9375362,"lon":6.0753622},
{"name":"Auchan","brand":"Auchan","city":null,"address":null,"lat":50.3763032,"lon":3.4789271},
{"name":"Auchan","brand":"Auchan","city":null,"address":null,"lat":48.5920211,"lon":7.695479},
{"name":"Auchan","brand":"Auchan","city":null,"address":null,"lat":43.5719379,"lon":7.1036427},
{"name":"Auchan","brand":"Auchan","city":null,"address":null,"lat":45.803427,"lon":4.8573335},
{"name":"Auchan","brand":"Auchan","city":null,"address":null,"lat":48.5826394,"lon":7.7474355},
{"name":"Auchan","brand":"Auchan","city":null,"address":null,"lat":14.6080953,"lon":-61.0675358},
{"name":"Auchan","brand":"Auchan","city":null,"address":null,"lat":47.302951,"lon":-2.2089584},
{"name":"Auchan","brand":"Auchan","city":"Poitiers","address":"86000 Poitiers","lat":46.5519329,"lon":0.2994589},
{"name":"Auchan","brand":"Auchan","city":null,"address":null,"lat":44.6387613,"lon":-0.9604767},
{"name":"Auchan","brand":"Auchan","city":"Fontaine","address":"120 Boulevard Paul Langevin, 38600 Fontaine","lat":45.1988671,"lon":5.6724713},
{"name":"Auchan","brand":"Auchan","city":null,"address":"Rue de Démuin","lat":49.8578623,"lon":2.5258203},
{"name":"Auchan","brand":"Auchan","city":null,"address":null,"lat":43.3052345,"lon":-0.3337664},
{"name":"Auchan","brand":"Auchan","city":"Saint-Nazaire","address":"332 Route de la Côte d'Amour, 44600 Saint-Nazaire","lat":47.2575726,"lon":-2.2652168},
{"name":"Auchan","brand":"Auchan","city":null,"address":"11 Boulevard Baptistin Ardisson","lat":43.5685968,"lon":7.115785},
{"name":"Auchan","brand":"Auchan","city":"Toulouse","address":"2 Rue Anna Politkovskaia, 31200 Toulouse","lat":43.6129596,"lon":1.4201506},
{"name":"Auchan","brand":"Auchan","city":"Escaudœuvres","address":"2 Rue Jean Jaurès, 59161 Escaudœuvres","lat":50.1844133,"lon":3.2561526},
{"name":"Auchan","brand":"Auchan","city":null,"address":"66200","lat":42.6098672,"lon":2.9995928},
{"name":"Auchan","brand":"Auchan","city":"La-Londe-les-Maures","address":"64 Rue Eugène Baboulène, 83250 La-Londe-les-Maures","lat":43.1383981,"lon":6.2383687},
{"name":"Auchan","brand":"Auchan","city":null,"address":null,"lat":45.7544182,"lon":4.866506},
{"name":"Auchan","brand":"Auchan","city":null,"address":null,"lat":44.8169949,"lon":-0.5260855},
{"name":"Auchan Supermarché Vitry-sur-Seine","brand":"Auchan","city":null,"address":null,"lat":48.7851368,"lon":2.3910159},
{"name":"Auchan","brand":"Auchan","city":null,"address":null,"lat":48.883216,"lon":2.288096},
{"name":"Auchan","brand":"Auchan","city":null,"address":null,"lat":48.911542,"lon":2.1799506},
{"name":"Auchan","brand":"Auchan","city":null,"address":null,"lat":48.7151806,"lon":2.4376384},
{"name":"Auchan","brand":"Auchan","city":null,"address":null,"lat":48.8622321,"lon":2.2761349},
{"name":"Auchan Supermaché Charenton","brand":"Auchan","city":null,"address":null,"lat":48.826016,"lon":2.4054078},
{"name":"Auchan","brand":"Auchan","city":null,"address":null,"lat":47.2984578,"lon":0.802421},
{"name":"Auchan","brand":"Auchan","city":null,"address":"Place de la Victoire","lat":50.7370974,"lon":3.0787816},
{"name":"Auchan","brand":"Auchan","city":null,"address":"Route d'Amiens","lat":49.8624943,"lon":2.2808869},
{"name":"Auchan MyPlace","brand":"Auchan","city":null,"address":null,"lat":48.9859881,"lon":2.3741179},
{"name":"Auchan","brand":"Auchan","city":"Dieppe","address":"125 Avenue des Canadiens, 76200 Dieppe","lat":49.909425,"lon":1.0798483},
{"name":"Auchan","brand":"Auchan","city":null,"address":null,"lat":45.7683373,"lon":3.0901597},
{"name":"Auchan","brand":"Auchan","city":null,"address":null,"lat":43.3037623,"lon":1.2205414},
{"name":"Auchan Villars","brand":"Auchan","city":null,"address":null,"lat":45.4739178,"lon":4.3433239},
{"name":"Auchan","brand":"Auchan","city":"Béziers","address":"Route de pézenas, 34500 Béziers","lat":43.3545974,"lon":3.2384456},
{"name":"Auchan Supermarché Garibaldi Lyon","brand":"Auchan","city":null,"address":null,"lat":45.7710946,"lon":4.8497612},
{"name":"Auchan","brand":"Auchan","city":null,"address":null,"lat":45.4230275,"lon":4.3951624},
{"name":"Auchan","brand":"Auchan","city":null,"address":"Boulevard Maurice Thorez","lat":50.4006158,"lon":2.8317421},
{"name":"Auchan","brand":"Auchan","city":null,"address":null,"lat":49.0138191,"lon":2.2217192},
{"name":"Auchan","brand":"Auchan","city":null,"address":null,"lat":48.9529011,"lon":2.9138137},
{"name":"Auchan","brand":"Auchan","city":"Leers","address":"Avenue de l'Europe, 59115 Leers","lat":50.6807742,"lon":3.2193317},
{"name":"Auchan Drive","brand":"Auchan","city":null,"address":null,"lat":45.0502125,"lon":3.9177084},
{"name":"Auchan","brand":"Auchan","city":"Aix-en-Provence","address":"210 Avenue de Bredasque, 13090 Aix-en-Provence","lat":43.5337343,"lon":5.41969},
{"name":"Auchan","brand":"Auchan","city":"Saint-Germain-en-Laye","address":"80 Rue du Maréchal Lyautey, 78100 Saint-Germain-en-Laye","lat":48.894762,"lon":2.0962304},
{"name":"Auchan","brand":"Auchan","city":null,"address":null,"lat":48.8120555,"lon":2.3623317},
{"name":"Auchan","brand":"Auchan","city":"Chambray-lès-Tours","address":"37170 Chambray-lès-Tours","lat":47.339498,"lon":0.6989669},
{"name":"Auchan","brand":"Auchan","city":null,"address":"75008","lat":48.8830525,"lon":2.326204},
{"name":"Nom inconnu","brand":"Auchan","city":null,"address":null,"lat":45.585805,"lon":4.312458},
{"name":"Auchan","brand":"Auchan","city":null,"address":null,"lat":48.5444944,"lon":7.741301},
{"name":"Auchan Supermarché","brand":"Auchan","city":null,"address":null,"lat":48.8942003,"lon":2.4582537},
{"name":"Auchan","brand":"Auchan","city":null,"address":"Rue de la Porte de Bécray","lat":50.2704616,"lon":1.6696762},
{"name":"Auchan","brand":"Auchan","city":"Talence","address":"33400 Talence","lat":44.8222333,"lon":-0.5930049},
{"name":"Auchan","brand":"Auchan","city":"Clermont-Ferrand","address":"19 Rue des Chanelles, 63000 Clermont-Ferrand","lat":45.7880454,"lon":3.0823534},
{"name":"Auchan supermarché","brand":"Auchan","city":null,"address":null,"lat":43.9514871,"lon":4.8596357},
{"name":"Auchan","brand":"Auchan","city":null,"address":null,"lat":47.2468295,"lon":-1.6070326},
{"name":"Auchan","brand":"Auchan","city":null,"address":null,"lat":50.6179886,"lon":3.1310823},
{"name":"Auchan Supermarché","brand":"Auchan","city":null,"address":null,"lat":48.9460182,"lon":2.2336115},
{"name":"Auchan Supermarché","brand":"Auchan","city":null,"address":null,"lat":48.7849807,"lon":2.3028236},
{"name":"Auchan","brand":"Auchan","city":null,"address":null,"lat":47.4278938,"lon":0.6994084},
{"name":"Auchan","brand":"Auchan","city":"Saint-Fargeau-Ponthierry","address":"46 Avenue de Fontainebleau, 77310 Saint-Fargeau-Ponthierry","lat":48.530008,"lon":2.5448963},
{"name":"Auchan","brand":"Auchan","city":null,"address":null,"lat":47.4673038,"lon":-0.5226196},
{"name":"Auchan","brand":"Auchan","city":null,"address":null,"lat":49.5443786,"lon":5.7971069},
{"name":"Auchan","brand":"Auchan","city":null,"address":"19 Route d'Haucourt, 60220","lat":49.6498064,"lon":1.7192787},
{"name":"Auchan","brand":"Auchan","city":"Saint-Jean-de-la-Ruelle","address":"Avenue Pierre Mendès France, 45140 Saint-Jean-de-la-Ruelle","lat":47.9039779,"lon":1.8608981},
{"name":"Auchan","brand":"Auchan","city":null,"address":null,"lat":43.122285,"lon":5.8198164},
{"name":"Auchan Supermarché","brand":"Auchan","city":null,"address":"Route de Moriani, 20230","lat":42.3736199,"lon":9.5292352},
{"name":"Auchan","brand":"Auchan","city":null,"address":null,"lat":47.4217931,"lon":-0.6107699},
{"name":"Auchan","brand":"Auchan","city":null,"address":null,"lat":49.7632008,"lon":2.9232598},
{"name":"Auchan","brand":"Auchan","city":"Lège-Cap-Ferret","address":"26 Rue des Goélands, 33970 Lège-Cap-Ferret","lat":44.6477868,"lon":-1.2496367},
{"name":"Auchan","brand":"Auchan","city":null,"address":"Rue des Buissons","lat":48.992054,"lon":2.5226405},
{"name":"My Auchan","brand":"Auchan","city":"Fontenay-aux-Roses","address":"117 Rue Boucicaut, 92260 Fontenay-aux-Roses","lat":48.7941533,"lon":2.2843165},
{"name":"Auchan","brand":"Auchan","city":"Juvisy-sur-Orge","address":"27 Rue Victor Hugo, 91260 Juvisy-sur-Orge","lat":48.6909358,"lon":2.3770767},
{"name":"Auchan","brand":"Auchan","city":null,"address":null,"lat":49.1115476,"lon":2.2169851},
{"name":"Magasin Auchan","brand":"Auchan","city":null,"address":null,"lat":48.5839219,"lon":7.774409},
{"name":"Auchan","brand":"Auchan","city":"Savonnières-devant-Bar","address":"Rue Ernest Bradfer, 55000 Savonnières-devant-Bar","lat":48.7594472,"lon":5.1829583},
{"name":"Nom inconnu","brand":"Auchan","city":null,"address":"9-7","lat":49.0492668,"lon":2.0096656},
{"name":"Auchan","brand":"Auchan","city":null,"address":"82 Avenue Jean Jaurès","lat":44.1068868,"lon":3.0814976},
{"name":"Auchan","brand":"Auchan","city":null,"address":null,"lat":48.3328527,"lon":4.0251617},
{"name":"Auchan","brand":"Auchan","city":"Paris","address":"4 Rue Dupleix, 75015 Paris","lat":48.8519468,"lon":2.2983523},
{"name":"Auchan","brand":"Auchan","city":"Saint-Germain-lès-Corbeil","address":"0 Place Victor Hugo, 91250 Saint-Germain-lès-Corbeil","lat":48.6207775,"lon":2.4922691},
{"name":"Auchan","brand":"Auchan","city":null,"address":"Rue des Marlettes","lat":49.8605262,"lon":3.2524043},
{"name":"Auchan","brand":"Auchan","city":null,"address":"3 Marius Jauffret","lat":43.2798837,"lon":5.3846752},
{"name":"Auchan","brand":"Auchan","city":null,"address":null,"lat":47.3884423,"lon":0.6879059},
{"name":"Auchan","brand":"Auchan","city":"Aubagne","address":"4 42 18 65 90 Avenue Gabriel Péri, 13400 Aubagne","lat":43.2946769,"lon":5.5703081},
{"name":"Auchan","brand":"Auchan","city":"Cesson","address":"77240 Cesson","lat":48.5883583,"lon":2.6001795},
{"name":"Auchan","brand":"Auchan","city":null,"address":"1 Avenue Descartes","lat":49.4100435,"lon":2.1158319},
{"name":"My Auchan","brand":"Auchan","city":null,"address":null,"lat":48.8465839,"lon":2.2806525},
{"name":"Auchan","brand":"Auchan","city":"Neuilly-sur-Marne","address":"9 Boulevard du Maréchal Foch, 93330 Neuilly-sur-Marne","lat":48.8550359,"lon":2.5170119},
{"name":"Auchan","brand":"Auchan","city":null,"address":"102 Rue de Lagny, 75020","lat":48.8489113,"lon":2.4104887},
{"name":"Auchan Supermarché","brand":"Auchan","city":null,"address":null,"lat":43.7417717,"lon":5.0863999},
{"name":"Auchan","brand":"Auchan","city":null,"address":null,"lat":48.5273226,"lon":7.7088255},
{"name":"Auchan","brand":"Auchan","city":null,"address":"Rue Jean Jaurès","lat":50.0178453,"lon":4.0516354},
{"name":"Auchan","brand":"Auchan","city":null,"address":null,"lat":45.7228939,"lon":4.926458},
{"name":"Auchan Supermarché","brand":"Auchan","city":null,"address":"35 Rue Paul Hochart","lat":48.7759545,"lon":2.3569987},
{"name":"Auchan Supermarché Villefontaine","brand":"Auchan","city":null,"address":null,"lat":45.6123367,"lon":5.1547699},
{"name":"Auchan","brand":"Auchan","city":"Fort-de-France","address":"Avenue Maurice Bishop, 97200 Fort-de-France","lat":14.6129445,"lon":-61.0518408},
{"name":"Auchan","brand":"Auchan","city":"Fenouillet","address":"Rue des Usines, 31150 Fenouillet","lat":43.6881452,"lon":1.4013709},
{"name":"Auchan","brand":"Auchan","city":null,"address":"Rue de Menin","lat":50.6821734,"lon":3.0828141},
{"name":"Auchan Drive","brand":"Auchan","city":null,"address":null,"lat":50.9526818,"lon":2.430829},
{"name":"Auchan","brand":"Auchan","city":null,"address":null,"lat":45.6813673,"lon":4.7925229},
{"name":"Auchan","brand":"Auchan","city":null,"address":null,"lat":48.5356905,"lon":7.4470165},
{"name":"Auchan","brand":"Auchan","city":null,"address":null,"lat":45.7653965,"lon":4.8364032},
{"name":"Auchan","brand":"Auchan","city":null,"address":null,"lat":45.775109,"lon":3.0625255},
{"name":"Auchan Drive","brand":"Auchan","city":null,"address":"9 Rue Bleue","lat":45.8427453,"lon":3.119821},
{"name":"Auchan Drive","brand":"Auchan","city":null,"address":null,"lat":43.3476017,"lon":3.2486166},
{"name":"Auchan","brand":"Auchan","city":null,"address":null,"lat":48.8896196,"lon":2.3838833},
{"name":"Auchan Prunelli","brand":"Auchan","city":null,"address":null,"lat":42.0019057,"lon":9.401225},
{"name":"Auchan","brand":"Auchan","city":null,"address":null,"lat":47.5000609,"lon":7.3081214},
{"name":"Auchan","brand":"Auchan","city":null,"address":null,"lat":47.8531878,"lon":3.9863768},
{"name":"Auchan Drive","brand":"Auchan","city":null,"address":null,"lat":48.7684201,"lon":1.9794829},
{"name":"Auchan","brand":"Auchan","city":null,"address":null,"lat":49.1946182,"lon":6.1465251},
{"name":"Auchan","brand":"Auchan","city":null,"address":null,"lat":43.3091208,"lon":5.372407},
{"name":"Auchan","brand":"Auchan","city":null,"address":null,"lat":49.1133493,"lon":6.8531835},
{"name":"Auchan","brand":"Auchan","city":"Fonbeauzard","address":"102 Route de Fronton, 31140 Fonbeauzard","lat":43.6768356,"lon":1.4248136},
{"name":"Auchan","brand":"Auchan","city":null,"address":null,"lat":47.1903541,"lon":3.013381},
{"name":"Auchan","brand":"Auchan","city":null,"address":null,"lat":47.8670968,"lon":1.9109224},
{"name":"Auchan","brand":"Auchan","city":null,"address":null,"lat":47.7166211,"lon":1.9402898},
{"name":"Auchan","brand":"Auchan","city":null,"address":null,"lat":43.5830081,"lon":1.3431735},
{"name":"Auchan","brand":"Auchan","city":null,"address":null,"lat":48.7879407,"lon":1.9746476},
{"name":"Auchan","brand":"Auchan","city":null,"address":null,"lat":48.6921649,"lon":6.125462},
{"name":"Auchan","brand":"Auchan","city":null,"address":null,"lat":48.6806864,"lon":6.1988077},
{"name":"Auchan","brand":"Auchan","city":null,"address":null,"lat":43.5942196,"lon":1.433811},
{"name":"Auchan","brand":"Auchan","city":null,"address":null,"lat":48.9579431,"lon":2.859908},
{"name":"Auchan","brand":"Auchan","city":null,"address":null,"lat":50.0624609,"lon":1.4083577},
{"name":"Auchan","brand":"Auchan","city":null,"address":null,"lat":48.9800715,"lon":2.0029768},
{"name":"Auchan","brand":"Auchan","city":"Marseille","address":"Marseille","lat":43.3091022,"lon":5.3789245},
{"name":"Auchan","brand":"Auchan","city":"Montfavet","address":"1741 Route de Marseille, 84140 Montfavet","lat":43.922066,"lon":4.8638105},
{"name":"Auchan","brand":"Auchan","city":"Gassin","address":"120 Rond-Point de la Foux, 83580 Gassin","lat":43.2621425,"lon":6.5801573},
{"name":"Auchan","brand":"Auchan","city":null,"address":null,"lat":44.8432588,"lon":-0.5424878},
{"name":"Auchan","brand":"Auchan","city":null,"address":"Rue Delaroche","lat":50.9460969,"lon":1.8676394},
{"name":"My Auchan","brand":"Auchan","city":null,"address":null,"lat":45.4378346,"lon":4.3918996},
{"name":"Auchan","brand":"Auchan","city":"Aubervilliers","address":"55 Rue De La Commune De Paris, 93300 Aubervilliers","lat":48.9097339,"lon":2.379941},
{"name":"My Auchan","brand":"Auchan","city":"Juvisy-sur-Orge","address":"Rue des Gaulois, 91260 Juvisy-sur-Orge","lat":48.691121,"lon":2.3821311},
{"name":"Auchan","brand":"Auchan","city":"Athis-Mons","address":"20 Rue des Froides Bouillies, 91200 Athis-Mons","lat":48.7054735,"lon":2.3628935},
{"name":"Auchan","brand":"Auchan","city":null,"address":null,"lat":48.8286301,"lon":2.3262463},
{"name":"Auchan","brand":"Auchan","city":null,"address":"30 Rue Pierre Nicole","lat":48.8406175,"lon":2.3391607},
{"name":"Auchan","brand":"Auchan","city":null,"address":null,"lat":44.8598637,"lon":-0.5817278},
{"name":"Auchan Cavaillon","brand":"Auchan","city":null,"address":"28 Avenue des Taillades","lat":43.8361036,"lon":5.0527588},
{"name":"Auchan","brand":"Auchan","city":"Longueil-Sainte-Marie","address":"202 Rue de Picardie, 60126 Longueil-Sainte-Marie","lat":49.3590554,"lon":2.7186106},
{"name":"Auchan","brand":"Auchan","city":null,"address":null,"lat":44.7901294,"lon":-0.5650422},
{"name":"Auchan Supermarché Cachan","brand":"Auchan","city":null,"address":"24 Rue Cousté","lat":48.7945197,"lon":2.3366568},
{"name":"Auchan","brand":"Auchan","city":null,"address":null,"lat":43.2792939,"lon":5.4249759},
{"name":"Auchan","brand":"Auchan","city":null,"address":null,"lat":45.7779157,"lon":4.9159193},
{"name":"Nom inconnu","brand":"Auchan","city":null,"address":null,"lat":48.7669441,"lon":2.5331654},
{"name":"Auchan","brand":"Auchan","city":null,"address":null,"lat":46.7910829,"lon":1.735183},
{"name":"Auchan","brand":"Auchan","city":"La Trinité","address":"06340 La Trinité","lat":43.7423432,"lon":7.3185691},
{"name":"Auchan Hypermarché Angoulême","brand":"Auchan","city":null,"address":null,"lat":45.6175711,"lon":0.10299},
{"name":"Auchan","brand":"Auchan","city":"Arras","address":"Avenue Winston Churchill, 62000 Arras","lat":50.2999508,"lon":2.7307825},
{"name":"Auchan","brand":"Auchan","city":null,"address":null,"lat":43.5901151,"lon":2.1870077},
{"name":"Auchan","brand":"Auchan","city":null,"address":null,"lat":45.6832044,"lon":-0.3057155},
{"name":"Auchan","brand":"Auchan","city":null,"address":null,"lat":43.1110112,"lon":5.858211},
{"name":"Auchan","brand":"Auchan","city":null,"address":null,"lat":50.6323113,"lon":2.9687188},
{"name":"Auchan","brand":"Auchan","city":"Saclay","address":"40 Rue Arthur Rimbaud, 91400 Saclay","lat":48.7559929,"lon":2.1726948},
{"name":"Auchan","brand":"Auchan","city":null,"address":"78200","lat":48.9812128,"lon":1.6845109},
{"name":"Auchan","brand":"Auchan","city":"Conflans-Sainte-Honorine","address":"Rue de l'Ambassadeur, 78700 Conflans-Sainte-Honorine","lat":49.0092647,"lon":2.1041765},
{"name":"Auchan","brand":"Auchan","city":null,"address":null,"lat":48.6906837,"lon":2.3774936},
{"name":"Auchan","brand":"Auchan","city":"Chantilly","address":"5 Place Omer Vallon, 60500 Chantilly","lat":49.193947,"lon":2.4664299},
{"name":"Auchan","brand":"Auchan","city":null,"address":null,"lat":48.8969116,"lon":2.3069244},
{"name":"Auchan","brand":"Auchan","city":null,"address":null,"lat":45.1299689,"lon":1.3262211},
{"name":"Auchan","brand":"Auchan","city":null,"address":null,"lat":49.2968977,"lon":0.9098228},
{"name":"Auchan","brand":"Auchan","city":null,"address":null,"lat":48.6170642,"lon":7.5045581},
{"name":"Auchan","brand":"Auchan","city":null,"address":null,"lat":43.3028433,"lon":5.3988359},
{"name":"Auchan","brand":"Auchan","city":null,"address":"109 Boulevard Bazeilles","lat":43.112511,"lon":5.939075},
{"name":"Auchan","brand":"Auchan","city":null,"address":"Centre Commercial Port Toga","lat":42.7084356,"lon":9.4533156},
{"name":"Auchan","brand":"Auchan","city":"Strasbourg","address":"4 Petite Rue de la Course, 67000 Strasbourg","lat":48.5828898,"lon":7.7358069},
{"name":"Auchan","brand":"Auchan","city":null,"address":null,"lat":47.3888156,"lon":0.7190704},
{"name":"Auchan","brand":"Auchan","city":null,"address":"Route Nationale 40","lat":51.0056625,"lon":2.2774395},
{"name":"Auchan","brand":"Auchan","city":null,"address":null,"lat":48.0441552,"lon":0.1741348},
{"name":"Auchan","brand":"Auchan","city":"Tourcoing","address":"123 Rue Fidèle Lehoucq, 59200 Tourcoing","lat":50.7204831,"lon":3.1602031},
{"name":"Auchan","brand":"Auchan","city":null,"address":"Rue Auguste Gindre","lat":49.9078489,"lon":2.5105259},
{"name":"Auchan","brand":"Auchan","city":null,"address":null,"lat":16.2606432,"lon":-61.6269362},
{"name":"Auchan","brand":"Auchan","city":null,"address":"100 Rue Michel Ange","lat":43.6271576,"lon":1.4466945},
{"name":"Auchan","brand":"Auchan","city":"Schiltigheim","address":"13 Allée Robert Théophile Debus, 67300 Schiltigheim","lat":48.6094582,"lon":7.7498109},
{"name":"Auchan","brand":"Auchan","city":"Saint-Jean-de-Braye","address":"15 Avenue Charles Péguy, 45800 Saint-Jean-de-Braye","lat":47.9053552,"lon":1.9440237},
{"name":"Auchan","brand":"Auchan","city":"Seynod","address":"Avenue d'Aix les Bains, 74600 Seynod","lat":45.8753664,"lon":6.0879309},
{"name":"Auchan","brand":"Auchan","city":null,"address":null,"lat":43.3277925,"lon":-0.3816453},
{"name":"Auchan","brand":"Auchan","city":null,"address":null,"lat":48.8286921,"lon":1.9616567},
{"name":"Auchan","brand":"Auchan","city":null,"address":null,"lat":41.9534588,"lon":8.793373},
{"name":"My Auchan","brand":"Auchan","city":null,"address":null,"lat":48.8847976,"lon":2.3036262},
{"name":"Auchan","brand":"Auchan","city":null,"address":null,"lat":50.5225871,"lon":2.6302191},
{"name":"Auchan","brand":"Auchan","city":null,"address":null,"lat":48.5884632,"lon":7.7455493},
{"name":"Auchan","brand":"Auchan","city":null,"address":null,"lat":48.6713421,"lon":2.3783661},
{"name":"Auchan Supermarché","brand":"Auchan","city":"Plaisance-du-Touch","address":"1 bis Avenue Marcel Pagnol, 31830 Plaisance-du-Touch","lat":43.5626974,"lon":1.304492},
{"name":"Auchan","brand":"Auchan","city":"Orléans","address":"74, 45100 Orléans","lat":47.8824187,"lon":1.9027429},
{"name":"Auchan","brand":"Auchan","city":null,"address":null,"lat":42.6687683,"lon":2.8812943},
{"name":"Auchan","brand":"Auchan","city":null,"address":null,"lat":45.1664058,"lon":5.7281739},
{"name":"Auchan","brand":"Auchan","city":null,"address":null,"lat":45.1707197,"lon":5.7393251},
{"name":"Auchan","brand":"Auchan","city":null,"address":null,"lat":45.2785456,"lon":6.3465582},
{"name":"Auchan Furiani","brand":"Auchan","city":null,"address":null,"lat":42.6566632,"lon":9.4390583},
{"name":"Auchan","brand":"Auchan","city":null,"address":"74 Avenue Robert Schuman","lat":49.8608839,"lon":3.3000908}
]