[
{"name":"Satoriz Saint-Martin-d'Hères","brand":"Satoriz","city":"Saint-Martin-d'Hères","address":"2 Avenue Gabriel Péri, 38400 Saint-Martin-d'Hères","lat":45.1876652,"lon":5.7484347},
{"name":"Satoriz","brand":"Satoriz","city":"Saint-Étienne","address":"5 Rue Marc Charras, 42100 Saint-Étienne","lat":45.4431581,"lon":4.4241787},
{"name":"Satoriz","brand":"Satoriz","city":null,"address":"2136 Route de Gémenos, 13400","lat":43.2978455,"lon":5.5986145},
{"name":"Satoriz","brand":"Satoriz","city":"Vitrolles","address":"Avenue Denis Padovani, 13127 Vitrolles","lat":43.434264,"lon":5.2628082},
{"name":"Satoriz","brand":"Satoriz","city":"Mauguio","address":"801 Rue Hélène Boucher, 34130 Mauguio","lat":43.5861326,"lon":3.9399629},
{"name":"Satoriz","brand":"Satoriz","city":null,"address":"06210","lat":43.5544442,"lon":6.9522825},
{"name":"Satoriz Vienne","brand":"Satoriz","city":null,"address":null,"lat":45.554244,"lon":4.8280135},
{"name":"Satoriz Mâcon, Bio pour tous","brand":"Satoriz","city":null,"address":"22 Rue du 19 Mars 1962, 71000","lat":46.3332265,"lon":4.844592},
{"name":"Satoriz","brand":"Satoriz","city":null,"address":"2 Rue René Cassin, 74240","lat":46.179569,"lon":6.213603},
{"name":"Satoriz","brand":"Satoriz","city":null,"address":"115 Boulevard des Français Libres, 30900","lat":43.8243604,"lon":4.3266275},
{"name":"Satoriz","brand":"Satoriz","city":"Anthy-sur-Léman","address":"14 Avenue du Pré Robert Nord, 74200 Anthy-sur-Léman","lat":46.3517876,"lon":6.434961},
{"name":"Satoriz","brand":"Satoriz","city":null,"address":null,"lat":47.5928241,"lon":7.5034308},
{"name":"Satoriz","brand":"Satoriz","city":"Le Pontet","address":"Ruelle du Périgord, 84135 Le Pontet","lat":43.9720728,"lon":4.8673478},
{"name":"Satoriz","brand":"Satoriz","city":null,"address":"441 Rue Charles de Gaulle, 38920","lat":45.2764529,"lon":5.88859},
{"name":"Satoriz Chambéry","brand":"Satoriz","city":"Chambéry","address":"715 Rue de Belle-Eau, 73000 Chambéry","lat":45.608412,"lon":5.8886564},
{"name":"Satoriz","brand":"Satoriz","city":null,"address":"100 Avenue Général Leclerc, 69300","lat":45.8066489,"lon":4.8684054},
{"name":"Satoriz","brand":"Satoriz","city":null,"address":"Avenue de Gross Umstadt","lat":44.944816,"lon":4.8543775},
{"name":"Satoriz","brand":"Satoriz","city":"Champagne-au-Mont-d'Or","address":"11 Rue des Rosiéristes, 69410 Champagne-au-Mont-d'Or","lat":45.8046364,"lon":4.7811614},
{"name":"Satoriz","brand":"Satoriz","city":null,"address":"6 bis Rue des Sayes, 38080","lat":45.6160118,"lon":5.2337058},
{"name":"Satoriz","brand":"Satoriz","city":null,"address":null,"lat":45.9530515,"lon":6.6305808},
{"name":"Satoriz","brand":"Satoriz","city":"Les Angles","address":"Rue de la Tramontane, 30133 Les Angles","lat":43.9601311,"lon":4.7515946},
{"name":"Satoriz","brand":"Satoriz","city":"Geispolsheim","address":"3 Route de Lyon, 67118 Geispolsheim","lat":48.5182139,"lon":7.7032444},
{"name":"Satoriz Vaulx-en-Velin","brand":"Satoriz","city":null,"address":null,"lat":45.7496483,"lon":4.9296348},
{"name":"Satoriz","brand":"Satoriz","city":"Cormontreuil","address":"Rue des Laps, 51350 Cormontreuil","lat":49.2131457,"lon":4.0464174},
{"name":"Satoriz","brand":"Satoriz","city":"Puget-sur-Argens","address":"Quartier La Tuillère, Route Nationale 7, 83480 Puget-sur-Argens","lat":43.4421148,"lon":6.7011469},
{"name":"Satoriz","brand":"Satoriz","city":null,"address":"68260","lat":47.7920274,"lon":7.3138953},
{"name":"Satoriz","brand":"Satoriz","city":"Nice","address":"37 Avenue Auguste Vérola, 06200 Nice","lat":43.710419,"lon":7.1914589},
{"name":"Satoriz Vinzelles","brand":"Satoriz","city":"Vinzelles","address":"71680 Vinzelles","lat":46.2637419,"lon":4.7932937}
]