[
{"name":"Lidl","brand":"Lidl","city":null,"address":null,"lat":44.4620349,"lon":1.4230387},
{"name":"Lidl","brand":"Lidl","city":null,"address":null,"lat":45.0509719,"lon":5.0824654},
{"name":"Lidl","brand":"Lidl","city":null,"address":null,"lat":47.6933501,"lon":-0.8694877},
{"name":"Lidl","brand":"Lidl","city":null,"address":null,"lat":46.5307789,"lon":0.2819209},
{"name":"Lidl","brand":"Lidl","city":null,"address":"128 Boulevard Jules Verne","lat":47.2425096,"lon":-1.5272965},
{"name":"Lidl","brand":"Lidl","city":null,"address":null,"lat":43.1078568,"lon":5.8535823},
{"name":"Lidl","brand":"Lidl","city":"Nogent-sur-Oise","address":"51 Rue Gambetta, 60180 Nogent-sur-Oise","lat":49.2710869,"lon":2.4703804},
{"name":"Lidl","brand":"Lidl","city":null,"address":null,"lat":43.6159728,"lon":6.9733519},
{"name":"Lidl","brand":"Lidl","city":null,"address":null,"lat":48.4029798,"lon":-4.4680386},
{"name":"Lidl","brand":"Lidl","city":null,"address":null,"lat":48.6217847,"lon":-2.4408221},
{"name":"Lidl","brand":"Lidl","city":null,"address":"22 Rue de la Corderie","lat":48.4083825,"lon":-2.9170862},
{"name":"Lidl","brand":"Lidl","city":null,"address":null,"lat":46.9122888,"lon":6.3228304},
{"name":"Lidl","brand":"Lidl","city":null,"address":null,"lat":45.6205154,"lon":5.2203178},
{"name":"Lidl","brand":"Lidl","city":"Saint-Pierre-du-Perray","address":"Rue du Trou Grillon, 91280 Saint-Pierre-du-Perray","lat":48.6162895,"lon":2.5061466},
{"name":"Lidl","brand":"Lidl","city":null,"address":null,"lat":43.8383843,"lon":4.3798266},
{"name":"Lidl","brand":"Lidl","city":null,"address":null,"lat":43.8165863,"lon":4.3471366},
{"name":"Lidl","brand":"Lidl","city":null,"address":null,"lat":45.816468,"lon":4.8896884},
{"name":"Lidl","brand":"Lidl","city":"Brest","address":"142 Rue Général Paulet, 29200 Brest","lat":48.4147897,"lon":-4.4768101},
{"name":"Lidl","brand":"Lidl","city":null,"address":null,"lat":48.4146867,"lon":-4.4426489},
{"name":"Lidl","brand":"Lidl","city":null,"address":"70 Rue de Gisors","lat":49.0545542,"lon":2.094193},
{"name":"Lidl","brand":"Lidl","city":null,"address":null,"lat":48.2773895,"lon":6.9617356},
{"name":"Lidl","brand":"Lidl","city":null,"address":null,"lat":47.269947,"lon":0.4757094},
{"name":"Lidl","brand":"Lidl","city":null,"address":null,"lat":47.1976459,"lon":-1.5925307},
{"name":"Lidl","brand":"Lidl","city":null,"address":null,"lat":47.4744525,"lon":-1.7639069},
{"name":"Lidl","brand":"Lidl","city":null,"address":null,"lat":48.2121004,"lon":-1.6995037},
{"name":"Lidl","brand":"Lidl","city":null,"address":null,"lat":48.6971834,"lon":2.1294121},
{"name":"Lidl","brand":"Lidl","city":null,"address":null,"lat":49.1964683,"lon":6.93273},
{"name":"Lidl","brand":"Lidl","city":null,"address":"15 rue de Saint Nazaire, 44800","lat":47.2109067,"lon":-1.6158826},
{"name":"Lidl","brand":"Lidl","city":null,"address":null,"lat":48.6175245,"lon":7.5010512},
{"name":"Lidl","brand":"Lidl","city":null,"address":null,"lat":45.7850796,"lon":4.8280152},
{"name":"Lidl","brand":"Lidl","city":null,"address":"Rue Jean-Baptiste Lebas","lat":50.6301609,"lon":3.2363289},
{"name":"Lidl","brand":"Lidl","city":null,"address":"2 Route de Bitche","lat":48.8200083,"lon":7.7800256},
{"name":"Lidl","brand":"Lidl","city":null,"address":null,"lat":46.2083521,"lon":5.2378504},
{"name":"Lidl","brand":"Lidl","city":null,"address":null,"lat":43.9014325,"lon":3.9939357},
{"name":"Lidl","brand":"Lidl","city":null,"address":null,"lat":48.5374865,"lon":-4.6683731},
{"name":"Lidl","brand":"Lidl","city":null,"address":null,"lat":47.1258689,"lon":-2.1186327},
{"name":"Lidl","brand":"Lidl","city":null,"address":"Rue du Canal","lat":50.7054561,"lon":3.1578589},
{"name":"Lidl","brand":"Lidl","city":"Tourcoing","address":"Rue du Levant, Tourcoing","lat":50.7208589,"lon":3.1817253},
{"name":"Lidl","brand":"Lidl","city":"Charmeil","address":"12 Route de Saint-Pourçain, 03110 Charmeil","lat":46.1561153,"lon":3.3916386},
{"name":"Lidl","brand":"Lidl","city":null,"address":null,"lat":43.6104203,"lon":3.7836828},
{"name":"Lidl","brand":"Lidl","city":null,"address":null,"lat":45.05482,"lon":5.042767},
{"name":"Lidl","brand":"Lidl","city":null,"address":null,"lat":42.7153864,"lon":2.8520708},
{"name":"Lidl","brand":"Lidl","city":null,"address":null,"lat":46.6126488,"lon":0.3658234},
{"name":"Lidl","brand":"Lidl","city":null,"address":"Avenue de la Pointe Ringale","lat":48.6303775,"lon":2.4932169},
{"name":"Lidl","brand":"Lidl","city":null,"address":null,"lat":42.4990162,"lon":2.0132033},
{"name":"Lidl","brand":"Lidl","city":"Annecy","address":"2 Rue de Sansy, 74000 Annecy","lat":45.8887094,"lon":6.1147596},
{"name":"Lidl","brand":"Lidl","city":null,"address":null,"lat":47.8119387,"lon":3.5840957},
{"name":"Lidl","brand":"Lidl","city":"Lunel","address":"391 Boulevard Sainte-Claire, 34400 Lunel","lat":43.6721111,"lon":4.1420517},
{"name":"Lidl","brand":"Lidl","city":"Jarnac","address":"28 Avenue de l'Europe, 16200 Jarnac","lat":45.685136,"lon":-0.1654824},
{"name":"Lidl","brand":"Lidl","city":"Andelnans","address":"15A Route de Montbéliard, 90400 Andelnans","lat":47.6003788,"lon":6.863435},
{"name":"Lidl","brand":"Lidl","city":null,"address":null,"lat":43.3119209,"lon":-0.356759},
{"name":"Lidl","brand":"Lidl","city":null,"address":null,"lat":47.9787933,"lon":3.3811199},
{"name":"Lidl","brand":"Lidl","city":null,"address":null,"lat":43.522105,"lon":1.514656},
{"name":"Lidl","brand":"Lidl","city":null,"address":null,"lat":46.5554908,"lon":0.6237736},
{"name":"Lidl","brand":"Lidl","city":null,"address":null,"lat":43.31457,"lon":-0.4179014},
{"name":"Lidl","brand":"Lidl","city":null,"address":null,"lat":48.7740821,"lon":2.4984668},
{"name":"Lidl","brand":"Lidl","city":null,"address":null,"lat":43.2243082,"lon":-0.8840058},
{"name":"Lidl","brand":"Lidl","city":"Domloup","address":"35410 Domloup","lat":48.0541592,"lon":-1.5147129},
{"name":"Lidl","brand":"Lidl","city":null,"address":null,"lat":47.2598957,"lon":-1.65405},
{"name":"Lidl","brand":"Lidl","city":null,"address":null,"lat":48.6350274,"lon":2.4356777},
{"name":"Lidl","brand":"Lidl","city":null,"address":"91 Rue Lévy-Alphandéry","lat":48.1000072,"lon":5.135486},
{"name":"Lidl","brand":"Lidl","city":null,"address":null,"lat":43.6656665,"lon":7.1435675},
{"name":"Lidl","brand":"Lidl","city":"Toulouse","address":"84 Rue du Feretra, 31400 Toulouse","lat":43.5793492,"lon":1.4437954},
{"name":"Lidl","brand":"Lidl","city":null,"address":null,"lat":49.5527035,"lon":0.4900674},
{"name":"Lidl","brand":"Lidl","city":null,"address":null,"lat":46.9961349,"lon":-0.2056889},
{"name":"Lidl","brand":"Lidl","city":null,"address":null,"lat":42.5234059,"lon":3.1012464},
{"name":"Lidl","brand":"Lidl","city":"Parthenay","address":"199 Avenue Aristide Briand, 79200 Parthenay","lat":46.6476105,"lon":-0.217146},
{"name":"Lidl","brand":"Lidl","city":null,"address":null,"lat":43.6478079,"lon":1.3825548},
{"name":"Lidl","brand":"Lidl","city":null,"address":null,"lat":46.1407608,"lon":0.3046196},
{"name":"Lidl","brand":"Lidl","city":null,"address":null,"lat":45.64423,"lon":0.1363844},
{"name":"Lidl","brand":"Lidl","city":null,"address":null,"lat":48.6487163,"lon":4.9566559},
{"name":"Lidl","brand":"Lidl","city":null,"address":null,"lat":45.4345979,"lon":6.0115861},
{"name":"Lidl","brand":"Lidl","city":null,"address":null,"lat":48.4434864,"lon":5.1469876},
{"name":"Lidl","brand":"Lidl","city":null,"address":null,"lat":47.9548339,"lon":5.7278803},
{"name":"Lidl","brand":"Lidl","city":"Bois-Guillaume","address":"76230 Bois-Guillaume","lat":49.476909,"lon":1.1073656},
{"name":"Lidl","brand":"Lidl","city":null,"address":"16","lat":49.4348919,"lon":1.0843739},
{"name":"Lidl","brand":"Lidl","city":null,"address":"Boulevard Victor Hugo","lat":50.6222302,"lon":3.060589},
{"name":"Lidl","brand":"Lidl","city":null,"address":null,"lat":47.2033395,"lon":-1.4914871},
{"name":"Lidl","brand":"Lidl","city":null,"address":null,"lat":45.0371112,"lon":5.056289},
{"name":"Lidl","brand":"Lidl","city":null,"address":null,"lat":44.4042173,"lon":0.6798989},
{"name":"Lidl","brand":"Lidl","city":"Limoux","address":"Limoux","lat":43.0436952,"lon":2.2322608},
{"name":"Lidl","brand":"Lidl","city":null,"address":"32 Rue Motta di Livenza","lat":43.6051955,"lon":1.1003065},
{"name":"Lidl","brand":"Lidl","city":null,"address":null,"lat":47.1229648,"lon":0.4323894},
{"name":"Lidl","brand":"Lidl","city":null,"address":null,"lat":48.7760906,"lon":2.4162059},
{"name":"Lidl","brand":"Lidl","city":"Quiberon","address":"Avenue du Général de Gaulle, 56170 Quiberon","lat":47.4899895,"lon":-3.1218598},
{"name":"Lidl","brand":"Lidl","city":null,"address":null,"lat":46.8381021,"lon":-0.4848168},
{"name":"Lidl","brand":"Lidl","city":"Le Grau-du-Roi","address":"49 Rue des Lamparos, 30240 Le Grau-du-Roi","lat":43.5407962,"lon":4.1392432},
{"name":"Lidl","brand":"Lidl","city":"La Grande-Motte","address":"578 Avenue Robert Fages, 34280 La Grande-Motte","lat":43.5602769,"lon":4.0772405},
{"name":"Lidl","brand":"Lidl","city":null,"address":null,"lat":43.5611231,"lon":6.9660562},
{"name":"Lidl","brand":"Lidl","city":null,"address":null,"lat":47.9766367,"lon":0.1660474},
{"name":"Lidl","brand":"Lidl","city":null,"address":null,"lat":45.2795982,"lon":4.8204033},
{"name":"Lidl","brand":"Lidl","city":null,"address":null,"lat":47.5964631,"lon":0.9116353},
{"name":"Lidl","brand":"Lidl","city":null,"address":null,"lat":44.716718,"lon":4.6110374},
{"name":"Lidl","brand":"Lidl","city":null,"address":null,"lat":46.2321416,"lon":1.4848214},
{"name":"Lidl","brand":"Lidl","city":null,"address":null,"lat":45.2418622,"lon":0.3322153},
{"name":"Lidl","brand":"Lidl","city":null,"address":"46100","lat":44.6035529,"lon":2.0125103},
{"name":"Lidl","brand":"Lidl","city":"Bourgueil","address":"Rue Jean Causeret, 37140 Bourgueil","lat":47.2790138,"lon":0.1674734},
{"name":"Lidl","brand":"Lidl","city":null,"address":null,"lat":44.1122122,"lon":3.0812055},
{"name":"Lidl","brand":"Lidl","city":null,"address":"131 Avenue du Grand Sud","lat":47.3365604,"lon":0.7066629},
{"name":"Lidl","brand":"Lidl","city":null,"address":null,"lat":45.6436358,"lon":0.1865106},
{"name":"Lidl","brand":"Lidl","city":null,"address":null,"lat":45.2742412,"lon":5.8842673},
{"name":"Lidl","brand":"Lidl","city":null,"address":null,"lat":45.1992139,"lon":0.6628609},
{"name":"Lidl","brand":"Lidl","city":null,"address":null,"lat":43.2369544,"lon":0.0920119},
{"name":"Lidl","brand":"Lidl","city":null,"address":null,"lat":48.9585678,"lon":2.2886448},
{"name":"Lidl","brand":"Lidl","city":null,"address":null,"lat":45.8847908,"lon":1.2892747},
{"name":"Lidl","brand":"Lidl","city":null,"address":null,"lat":48.7077856,"lon":2.3723189},
{"name":"Lidl","brand":"Lidl","city":null,"address":"Boulevard du Général Leclerc","lat":48.9411949,"lon":2.2297056},
{"name":"Lidl","brand":"Lidl","city":"Saint-Étienne-du-Rouvray","address":"53 Avenue des Canadiens, 76800 Saint-Étienne-du-Rouvray","lat":49.3959394,"lon":1.0614994},
{"name":"Lidl","brand":"Lidl","city":"Saint-Étienne-du-Rouvray","address":"Avenue Saint-Yon, 76800 Saint-Étienne-du-Rouvray","lat":49.3975612,"lon":1.1025746},
{"name":"Lidl","brand":"Lidl","city":null,"address":null,"lat":43.5577892,"lon":1.3648353},
{"name":"Lidl","brand":"Lidl","city":null,"address":null,"lat":47.8534763,"lon":3.983906},
{"name":"Lidl","brand":"Lidl","city":null,"address":null,"lat":47.3881587,"lon":0.6591554},
{"name":"Lidl","brand":"Lidl","city":"Condat-sur-Vienne","address":"18 Rue Adrien Dugény, 87920 Condat-sur-Vienne","lat":45.7912509,"lon":1.2361332},
{"name":"Lidl","brand":"Lidl","city":null,"address":null,"lat":47.7997813,"lon":-3.2614981},
{"name":"Lidl","brand":"Lidl","city":"Uhart-Cize","address":"Route de Bayonne, 64220 Uhart-Cize","lat":43.1648435,"lon":-1.2425273},
{"name":"Lidl","brand":"Lidl","city":null,"address":"Rue de Louvroil","lat":50.2567841,"lon":3.9326524},
{"name":"Lidl","brand":"Lidl","city":null,"address":null,"lat":46.9846195,"lon":-1.8129248},
{"name":"Lidl","brand":"Lidl","city":null,"address":null,"lat":46.105238,"lon":-1.0988204},
{"name":"Lidl","brand":"Lidl","city":"Agde","address":"Boulevard René Cassin, 34300 Agde","lat":43.3059292,"lon":3.491931},
{"name":"Lidl","brand":"Lidl","city":null,"address":null,"lat":43.4944743,"lon":-1.4575205},
{"name":"Lidl","brand":"Lidl","city":null,"address":null,"lat":44.8640981,"lon":6.5950991},
{"name":"Lidl","brand":"Lidl","city":null,"address":"12 Boulevard Georges Pompidou, 10000","lat":48.2869896,"lon":4.0807067},
{"name":"Lidl","brand":"Lidl","city":null,"address":"Boulevard des Couteaux","lat":50.7113809,"lon":3.1771401},
{"name":"Lidl","brand":"Lidl","city":null,"address":"Boulevard Pierre Mendès-France","lat":50.6953458,"lon":3.2112023},
{"name":"Lidl","brand":"Lidl","city":null,"address":"Rue de Maubeuge","lat":50.2068639,"lon":3.8525162},
{"name":"Lidl","brand":"Lidl","city":null,"address":null,"lat":48.2919247,"lon":4.0323516},
{"name":"Lidl","brand":"Lidl","city":null,"address":"5 Avenue du Mirail","lat":43.5667786,"lon":1.3916802},
{"name":"Lidl","brand":"Lidl","city":null,"address":"50 Route de Labège","lat":43.5598513,"lon":1.5038343},
{"name":"Lidl","brand":"Lidl","city":null,"address":null,"lat":47.3661148,"lon":0.7193707},
{"name":"Lidl","brand":"Lidl","city":null,"address":null,"lat":44.3468312,"lon":4.7556317},
{"name":"Lidl","brand":"Lidl","city":null,"address":null,"lat":43.6109666,"lon":3.8279698},
{"name":"Lidl","brand":"Lidl","city":null,"address":null,"lat":45.3932283,"lon":5.4230873},
{"name":"Lidl","brand":"Lidl","city":"Toulouse","address":"105 Avenue des Minimes, 31200 Toulouse","lat":43.6227954,"lon":1.4335267},
{"name":"Lidl","brand":"Lidl","city":null,"address":null,"lat":46.8737929,"lon":-1.0249409},
{"name":"Lidl","brand":"Lidl","city":null,"address":null,"lat":47.3829804,"lon":6.7729858},
{"name":"Lidl","brand":"Lidl","city":null,"address":"Rue de Gand","lat":50.7370806,"lon":3.1607178},
{"name":"Lidl","brand":"Lidl","city":null,"address":"Rue du Pont Rompu","lat":50.7401582,"lon":3.1468757},
{"name":"Lidl","brand":"Lidl","city":null,"address":null,"lat":48.9212762,"lon":2.2295891},
{"name":"Lidl","brand":"Lidl","city":null,"address":null,"lat":46.3319918,"lon":2.6001179},
{"name":"Lidl","brand":"Lidl","city":null,"address":"243 Rue de l'Ambassadeur","lat":49.0121307,"lon":2.0899662},
{"name":"Lidl","brand":"Lidl","city":null,"address":null,"lat":48.5127689,"lon":-2.7384476},
{"name":"Lidl","brand":"Lidl","city":null,"address":null,"lat":45.3970217,"lon":2.0334071},
{"name":"Lidl","brand":"Lidl","city":null,"address":null,"lat":48.4284403,"lon":7.660425},
{"name":"Lidl","brand":"Lidl","city":null,"address":null,"lat":44.7836411,"lon":-0.5067952},
{"name":"Lidl","brand":"Lidl","city":null,"address":null,"lat":44.1427324,"lon":4.8117211},
{"name":"Lidl","brand":"Lidl","city":null,"address":null,"lat":47.6454685,"lon":6.8545847},
{"name":"Lidl","brand":"Lidl","city":null,"address":null,"lat":47.5156991,"lon":7.0027448},
{"name":"Lidl","brand":"Lidl","city":null,"address":null,"lat":45.7104516,"lon":4.853823},
{"name":"Lidl","brand":"Lidl","city":null,"address":null,"lat":47.0964942,"lon":-1.2830601},
{"name":"Lidl","brand":"Lidl","city":null,"address":null,"lat":48.1385008,"lon":-1.9397873},
{"name":"Lidl","brand":"Lidl","city":"Étrembières","address":"99 Chemin de la Digue, 74100 Étrembières","lat":46.1821223,"lon":6.2290792},
{"name":"Lidl","brand":"Lidl","city":"Villeneuve-d'Ascq","address":"73 Rue Marcel Bouderiez, 59650 Villeneuve-d'Ascq","lat":50.6193207,"lon":3.1500883},
{"name":"Lidl","brand":"Lidl","city":null,"address":null,"lat":45.3559382,"lon":5.5939031},
{"name":"Lidl","brand":"Lidl","city":"Roubaix","address":"43-45 Rue Jules Guesde, 59100 Roubaix","lat":50.6823192,"lon":3.179775},
{"name":"Lidl","brand":"Lidl","city":null,"address":null,"lat":48.0100361,"lon":7.5400013},
{"name":"Lidl","brand":"Lidl","city":"Vallet","address":"Vallet","lat":47.157437,"lon":-1.271048},
{"name":"Lidl","brand":"Lidl","city":null,"address":null,"lat":48.1299134,"lon":-1.6846299},
{"name":"Lidl","brand":"Lidl","city":"La Gorgue","address":"Rue de la Coquenesse, 59253 La Gorgue","lat":50.6347737,"lon":2.7349958},
{"name":"Lidl","brand":"Lidl","city":"Villefranche-de-Rouergue","address":"670 Route de Montauban, 12200 Villefranche-de-Rouergue","lat":44.3613123,"lon":2.0023387},
{"name":"Lidl","brand":"Lidl","city":null,"address":null,"lat":48.0891777,"lon":-1.6718461},
{"name":"Lidl","brand":"Lidl","city":null,"address":null,"lat":48.1042145,"lon":-1.7355775},
{"name":"Lidl","brand":"Lidl","city":null,"address":null,"lat":45.1576686,"lon":5.7079056},
{"name":"Lidl","brand":"Lidl","city":null,"address":null,"lat":45.5630885,"lon":2.3249125},
{"name":"Lidl","brand":"Lidl","city":null,"address":"Avenue des Nations Unies","lat":50.7283297,"lon":2.735544},
{"name":"Lidl","brand":"Lidl","city":null,"address":null,"lat":48.2417195,"lon":-3.3009612},
{"name":"Lidl","brand":"Lidl","city":null,"address":null,"lat":43.468612,"lon":1.3303663},
{"name":"Lidl","brand":"Lidl","city":null,"address":null,"lat":42.6976876,"lon":2.8772624},
{"name":"Lidl","brand":"Lidl","city":"Cesson-Sévigné","address":"1 Rue Nationale, 35510 Cesson-Sévigné","lat":48.1548618,"lon":-1.5931716},
{"name":"Lidl","brand":"Lidl","city":null,"address":"81 Route d'Orléans, 27000","lat":49.0019121,"lon":1.1540767},
{"name":"Lidl","brand":"Lidl","city":null,"address":null,"lat":47.9641907,"lon":-3.8532412},
{"name":"Lidl","brand":"Lidl","city":null,"address":null,"lat":47.8561404,"lon":-3.8585355},
{"name":"Lidl","brand":"Lidl","city":null,"address":null,"lat":47.2591836,"lon":-1.5100163},
{"name":"Lidl","brand":"Lidl","city":null,"address":null,"lat":47.2407914,"lon":2.0912556},
{"name":"Lidl","brand":"Lidl","city":"Janzé","address":"1715 Rue Louis Blériot, 35150 Janzé","lat":47.956643,"lon":-1.4903064},
{"name":"Lidl","brand":"Lidl","city":"Laroque","address":"856 Avenue de l'Europe, 34190 Laroque","lat":43.9297627,"lon":3.7134366},
{"name":"Lidl","brand":"Lidl","city":null,"address":null,"lat":48.749408,"lon":-0.0133036},
{"name":"Lidl","brand":"Lidl","city":null,"address":null,"lat":43.9524488,"lon":4.8313567},
{"name":"Lidl","brand":"Lidl","city":null,"address":null,"lat":43.9391901,"lon":4.831537},
{"name":"Lidl","brand":"Lidl","city":null,"address":null,"lat":43.9232381,"lon":4.8576025},
{"name":"Lidl","brand":"Lidl","city":null,"address":null,"lat":48.6149862,"lon":-2.056672},
{"name":"Lidl","brand":"Lidl","city":null,"address":null,"lat":48.926846,"lon":2.4727993},
{"name":"Lidl","brand":"Lidl","city":null,"address":"13 Rue Lavoisier, 59155","lat":50.6029155,"lon":3.0753108},
{"name":"Lidl","brand":"Lidl","city":"Annemasse","address":"18 Route des Vallées, 74100 Annemasse","lat":46.1930798,"lon":6.2424534},
{"name":"Lidl","brand":"Lidl","city":null,"address":null,"lat":45.8191343,"lon":3.1107862},
{"name":"Lidl","brand":"Lidl","city":null,"address":null,"lat":44.9089943,"lon":0.9234264},
{"name":"Lidl","brand":"Lidl","city":null,"address":null,"lat":45.2002188,"lon":5.6687041},
{"name":"Lidl","brand":"Lidl","city":null,"address":"Rue Roger Salengro","lat":50.6250489,"lon":3.1196975},
{"name":"Lidl","brand":"Lidl","city":null,"address":null,"lat":49.1906224,"lon":6.9061022},
{"name":"Lidl","brand":"Lidl","city":null,"address":"7 Rue René Coty","lat":49.0021236,"lon":2.1866555},
{"name":"Lidl","brand":"Lidl","city":null,"address":"Avenue Robert Descamps","lat":50.7314611,"lon":3.09227},
{"name":"Lidl","brand":"Lidl","city":"Gray","address":"10 Rue de la Plage, 70100 Gray","lat":47.4483,"lon":5.5975122},
{"name":"Lidl","brand":"Lidl","city":null,"address":null,"lat":46.4040856,"lon":0.7156969},
{"name":"Lidl","brand":"Lidl","city":null,"address":null,"lat":48.9047063,"lon":2.0517772},
{"name":"Lidl","brand":"Lidl","city":null,"address":null,"lat":43.5445594,"lon":5.0398123},
{"name":"Lidl","brand":"Lidl","city":null,"address":null,"lat":43.7666063,"lon":7.1991018},
{"name":"Lidl","brand":"Lidl","city":null,"address":"135 Route de Valenciennes","lat":50.2622007,"lon":3.6320473},
{"name":"Lidl","brand":"Lidl","city":null,"address":null,"lat":43.5085313,"lon":5.5019107},
{"name":"Lidl","brand":"Lidl","city":null,"address":null,"lat":46.7929111,"lon":-2.0533294},
{"name":"Lidl","brand":"Lidl","city":null,"address":null,"lat":46.5999955,"lon":0.3239095},
{"name":"Lidl","brand":"Lidl","city":null,"address":null,"lat":43.577622,"lon":7.0582085},
{"name":"Lidl","brand":"Lidl","city":null,"address":null,"lat":46.5853345,"lon":0.3678537},
{"name":"Lidl","brand":"Lidl","city":null,"address":null,"lat":44.243648,"lon":5.0793665},
{"name":"Lidl","brand":"Lidl","city":null,"address":"37","lat":49.3466739,"lon":6.1827867},
{"name":"Lidl","brand":"Lidl","city":null,"address":null,"lat":48.6419864,"lon":7.5997394},
{"name":"Lidl","brand":"Lidl","city":null,"address":null,"lat":46.6952794,"lon":-1.9124598},
{"name":"Lidl","brand":"Lidl","city":null,"address":null,"lat":45.3929995,"lon":4.2703045},
{"name":"Lidl","brand":"Lidl","city":null,"address":null,"lat":48.6719894,"lon":6.1785959},
{"name":"Lidl","brand":"Lidl","city":"Châtenay-Malabry","address":"149 Rue Auguste Renoir, 92290 Châtenay-Malabry","lat":48.7653944,"lon":2.2644192},
{"name":"Lidl","brand":"Lidl","city":"Freyming-Merlebach","address":"2 Rue de Metz, 57800 Freyming-Merlebach","lat":49.1424602,"lon":6.8103921},
{"name":"Lidl","brand":"Lidl","city":null,"address":null,"lat":48.834238,"lon":2.5482651},
{"name":"Lidl","brand":"Lidl","city":"Bitche","address":"Place de la Gare, 57230 Bitche","lat":49.0490856,"lon":7.4314826},
{"name":"Lidl","brand":"Lidl","city":"Morteau","address":"38 Rue Victor Hugo, 25500 Morteau","lat":47.0562265,"lon":6.6173885},
{"name":"Lidl","brand":"Lidl","city":"Villers-le-Lac","address":"1 Place Saint-Jean, 25130 Villers-le-Lac","lat":47.059533,"lon":6.6685895},
{"name":"Lidl","brand":"Lidl","city":null,"address":null,"lat":45.9456915,"lon":-0.9858547},
{"name":"Lidl","brand":"Lidl","city":null,"address":"17 Avenue du Colonel Fuller","lat":45.9498507,"lon":-0.9414474},
{"name":"Lidl","brand":"Lidl","city":"Gerzat","address":"2 Rue Robert Estienne, 63360 Gerzat","lat":45.8151096,"lon":3.1524675},
{"name":"Lidl","brand":"Lidl","city":"Sedan","address":"2 Rue des Forges, 08200 Sedan","lat":49.6987986,"lon":4.9212654},
{"name":"Lidl","brand":"Lidl","city":null,"address":null,"lat":43.0772485,"lon":0.1410055},
{"name":"Lidl","brand":"Lidl","city":null,"address":null,"lat":48.9555162,"lon":2.0427732},
{"name":"Lidl","brand":"Lidl","city":null,"address":null,"lat":43.9880785,"lon":4.9016654},
{"name":"Lidl","brand":"Lidl","city":null,"address":null,"lat":43.2012127,"lon":2.7535476},
{"name":"Lidl","brand":"Lidl","city":null,"address":null,"lat":44.3862869,"lon":5.0099577},
{"name":"Lidl","brand":"Lidl","city":"Narbonne","address":"Rue Blaise Pascal, 11100 Narbonne","lat":43.15893,"lon":2.9814495},
{"name":"Lidl","brand":"Lidl","city":null,"address":null,"lat":43.1764045,"lon":2.9949397},
{"name":"Lidl","brand":"Lidl","city":null,"address":null,"lat":43.4542075,"lon":5.854083},
{"name":"Lidl","brand":"Lidl","city":null,"address":null,"lat":47.8718347,"lon":-4.2380478},
{"name":"Lidl","brand":"Lidl","city":null,"address":null,"lat":47.5855525,"lon":-3.084118},
{"name":"Lidl","brand":"Lidl","city":null,"address":null,"lat":45.0665287,"lon":4.8529834},
{"name":"Lidl","brand":"Lidl","city":null,"address":null,"lat":47.9915455,"lon":-4.0747795},
{"name":"Lidl","brand":"Lidl","city":"Cormontreuil","address":"23 Rue des Laps, 51350 Cormontreuil","lat":49.2154407,"lon":4.0432958},
{"name":"Lidl","brand":"Lidl","city":"Verdun","address":"55100 Verdun","lat":49.1658154,"lon":5.3842502},
{"name":"Lidl","brand":"Lidl","city":null,"address":null,"lat":48.6446679,"lon":-2.0034228},
{"name":"Lidl","brand":"Lidl","city":null,"address":null,"lat":43.2954595,"lon":5.4231318},
{"name":"Lidl","brand":"Lidl","city":null,"address":null,"lat":47.584324,"lon":6.7794305},
{"name":"Lidl","brand":"Lidl","city":"Varennes-sur-Allier","address":"90 Avenue de Chazeuil, 03150 Varennes-sur-Allier","lat":46.318899,"lon":3.3943033},
{"name":"Lidl","brand":"Lidl","city":null,"address":null,"lat":48.4472174,"lon":-2.071056},
{"name":"Lidl","brand":"Lidl","city":null,"address":null,"lat":48.4755897,"lon":-2.0440325},
{"name":"Lidl","brand":"Lidl","city":null,"address":null,"lat":47.1491915,"lon":-1.5258565},
{"name":"Lidl","brand":"Lidl","city":null,"address":null,"lat":48.5585899,"lon":-1.4923515},
{"name":"Lidl","brand":"Lidl","city":null,"address":null,"lat":46.767914,"lon":-1.235666},
{"name":"Lidl","brand":"Lidl","city":null,"address":null,"lat":49.2922937,"lon":6.5418093},
{"name":"Lidl","brand":"Lidl","city":null,"address":null,"lat":44.0159648,"lon":4.8691251},
{"name":"Lidl","brand":"Lidl","city":null,"address":"Route de Bergues","lat":50.895332,"lon":2.459929},
{"name":"Lidl","brand":"Lidl","city":null,"address":null,"lat":48.1884539,"lon":-2.171032},
{"name":"Lidl","brand":"Lidl","city":null,"address":"123","lat":48.66816,"lon":6.2092115},
{"name":"Lidl","brand":"Lidl","city":null,"address":null,"lat":49.844267,"lon":4.770962},
{"name":"Lidl","brand":"Lidl","city":null,"address":null,"lat":49.1163226,"lon":6.645771},
{"name":"Lidl","brand":"Lidl","city":null,"address":null,"lat":48.642221,"lon":-2.8373671},
{"name":"Lidl","brand":"Lidl","city":null,"address":"1 Boulevard Lucien Pierquin, 08000","lat":49.776328,"lon":4.698138},
{"name":"Lidl","brand":"Lidl","city":null,"address":"Rue des Artisans","lat":49.0491204,"lon":7.0297217},
{"name":"Lidl","brand":"Lidl","city":null,"address":null,"lat":44.8651873,"lon":-0.5144191},
{"name":"Lidl","brand":"Lidl","city":null,"address":null,"lat":43.4127829,"lon":5.3595315},
{"name":"Lidl","brand":"Lidl","city":null,"address":null,"lat":49.0225095,"lon":2.0291435},
{"name":"Lidl","brand":"Lidl","city":null,"address":null,"lat":43.4422081,"lon":5.245588},
{"name":"Lidl","brand":"Lidl","city":"Vitrolles","address":"1 Avenue Jean Monnet, 13127 Vitrolles","lat":43.4232528,"lon":5.2857969},
{"name":"Lidl","brand":"Lidl","city":"Tullins","address":"717 Avenue de Saint-Quentin, 38210 Tullins","lat":45.2963245,"lon":5.5051397},
{"name":"Lidl","brand":"Lidl","city":null,"address":null,"lat":48.5250155,"lon":-2.249224},
{"name":"Lidl","brand":"Lidl","city":null,"address":null,"lat":43.6994007,"lon":4.6434299},
{"name":"Lidl","brand":"Lidl","city":null,"address":"Rue du Maréchal Joffre","lat":50.344231,"lon":3.0909855},
{"name":"Lidl","brand":"Lidl","city":"Pleumeleuc","address":"8 Rue Galilée, 35137 Pleumeleuc","lat":48.1762458,"lon":-1.919928},
{"name":"Lidl","brand":"Lidl","city":null,"address":null,"lat":43.5500329,"lon":6.948717},
{"name":"Lidl","brand":"Lidl","city":null,"address":null,"lat":45.0779232,"lon":5.7682216},
{"name":"Lidl","brand":"Lidl","city":null,"address":null,"lat":49.103105,"lon":1.4672892},
{"name":"Lidl","brand":"Lidl","city":null,"address":null,"lat":48.2154848,"lon":3.2777782},
{"name":"Lidl","brand":"Lidl","city":null,"address":"Avenue Roger Salengro","lat":50.9434275,"lon":1.8211415},
{"name":"Lidl","brand":"Lidl","city":null,"address":"Rue du Temple","lat":50.431001,"lon":2.7540865},
{"name":"Lidl","brand":"Lidl","city":"Scionzier","address":"29 Avenue du Crozet, 74950 Scionzier","lat":46.0626675,"lon":6.5494095},
{"name":"Lidl","brand":"Lidl","city":null,"address":null,"lat":44.7785327,"lon":4.8332805},
{"name":"Lidl","brand":"Lidl","city":null,"address":null,"lat":48.4883888,"lon":3.4969689},
{"name":"Lidl","brand":"Lidl","city":null,"address":"153 Avenue de Romans","lat":44.9348126,"lon":4.9066987},
{"name":"Lidl","brand":"Lidl","city":null,"address":null,"lat":46.467592,"lon":-0.799201},
{"name":"Lidl","brand":"Lidl","city":"Bonneville","address":"21 Rue des Bernacles, 74130 Bonneville","lat":46.0740265,"lon":6.4190156},
{"name":"Lidl","brand":"Lidl","city":null,"address":"Rue Jean-Baptiste Lebas","lat":50.464657,"lon":3.0294994},
{"name":"Lidl","brand":"Lidl","city":null,"address":null,"lat":49.1808602,"lon":6.4859396},
{"name":"Lidl","brand":"Lidl","city":null,"address":null,"lat":46.602053,"lon":-1.8295843},
{"name":"Lidl","brand":"Lidl","city":null,"address":null,"lat":48.8058695,"lon":2.534804},
{"name":"Lidl","brand":"Lidl","city":null,"address":null,"lat":46.4703635,"lon":-1.638144},
{"name":"Lidl","brand":"Lidl","city":null,"address":null,"lat":48.816184,"lon":2.533499},
{"name":"Lidl","brand":"Lidl","city":null,"address":null,"lat":47.875835,"lon":4.567406},
{"name":"Lidl","brand":"Lidl","city":"Chambéry","address":"80 Avenue du Grand Verger, 73000 Chambéry","lat":45.5785734,"lon":5.9099671},
{"name":"Lidl","brand":"Lidl","city":null,"address":"Avenue Désandrouin","lat":50.3639165,"lon":3.487419},
{"name":"Lidl","brand":"Lidl","city":null,"address":null,"lat":49.356359,"lon":6.1302876},
{"name":"Lidl","brand":"Lidl","city":null,"address":null,"lat":49.3461065,"lon":0.0951335},
{"name":"Lidl","brand":"Lidl","city":"Clamart","address":"92140 Clamart","lat":48.8148435,"lon":2.2772525},
{"name":"Lidl","brand":"Lidl","city":null,"address":"Route de Caen","lat":49.269193,"lon":-0.258863},
{"name":"Lidl","brand":"Lidl","city":null,"address":null,"lat":43.344006,"lon":5.420125},
{"name":"Lidl","brand":"Lidl","city":null,"address":null,"lat":48.5493565,"lon":3.2956315},
{"name":"Lidl","brand":"Lidl","city":null,"address":null,"lat":48.8519005,"lon":2.6129715},
{"name":"Lidl","brand":"Lidl","city":null,"address":null,"lat":44.7875108,"lon":1.7131398},
{"name":"Lidl","brand":"Lidl","city":null,"address":null,"lat":48.5391839,"lon":2.6795892},
{"name":"Lidl","brand":"Lidl","city":null,"address":null,"lat":44.6452363,"lon":4.3705555},
{"name":"Lidl","brand":"Lidl","city":null,"address":null,"lat":43.6705434,"lon":4.4219151},
{"name":"Lidl","brand":"Lidl","city":"Aigues-Vives","address":"Vieille Route, 30670 Aigues-Vives","lat":43.7147715,"lon":4.1981689},
{"name":"Lidl","brand":"Lidl","city":null,"address":null,"lat":48.270498,"lon":2.6761535},
{"name":"Lidl","brand":"Lidl","city":null,"address":null,"lat":48.6457873,"lon":6.1833207},
{"name":"Lidl","brand":"Lidl","city":null,"address":null,"lat":48.9391038,"lon":2.8783587},
{"name":"Lidl","brand":"Lidl","city":null,"address":null,"lat":48.084902,"lon":7.3139693},
{"name":"Lidl","brand":"Lidl","city":"Lannion","address":"Rue Madeleine, 22300 Lannion","lat":48.7332715,"lon":-3.4405035},
{"name":"Lidl","brand":"Lidl","city":"Voisins-le-Bretonneux","address":"29 rue des Tilleuls, 78960 Voisins-le-Bretonneux","lat":48.7555895,"lon":2.0564998},
{"name":"Lidl","brand":"Lidl","city":"Faverges","address":"Route d'Annecy, 74210 Faverges","lat":45.7527905,"lon":6.276948},
{"name":"Lidl","brand":"Lidl","city":null,"address":null,"lat":47.9014415,"lon":-3.9120685},
{"name":"Lidl","brand":"Lidl","city":null,"address":null,"lat":47.603259,"lon":1.3485975},
{"name":"Lidl","brand":"Lidl","city":null,"address":"Avenue Maurice Berteaux","lat":51.028193,"lon":2.351519},
{"name":"Lidl","brand":"Lidl","city":null,"address":"Nationale, 49120","lat":47.2024994,"lon":-0.7288733},
{"name":"Lidl","brand":"Lidl","city":null,"address":null,"lat":48.684655,"lon":6.216209},
{"name":"Lidl","brand":"Lidl","city":null,"address":null,"lat":48.7001805,"lon":6.2148915},
{"name":"Lidl","brand":"Lidl","city":null,"address":null,"lat":46.4589886,"lon":-1.1358893},
{"name":"Lidl","brand":"Lidl","city":null,"address":null,"lat":49.129646,"lon":4.5242945},
{"name":"Lidl","brand":"Lidl","city":null,"address":null,"lat":43.4124195,"lon":6.062594},
{"name":"Lidl Bourcefranc Le Chapus","brand":"Lidl","city":null,"address":null,"lat":45.8368185,"lon":-1.133002},
{"name":"Lidl","brand":"Lidl","city":"Villers-Saint-Paul","address":"1 Rue du Général de Gaulle, 60870 Villers-Saint-Paul","lat":49.2849555,"lon":2.4911285},
{"name":"Lidl","brand":"Lidl","city":null,"address":null,"lat":43.5901845,"lon":3.0833715},
{"name":"Lidl","brand":"Lidl","city":null,"address":"Rue du Grand But","lat":50.6465227,"lon":2.9736973},
{"name":"Lidl","brand":"Lidl","city":"Lesquin","address":"10 Rue Anatole France, 59810 Lesquin","lat":50.5891005,"lon":3.116146},
{"name":"Lidl","brand":"Lidl","city":"Cucq","address":"520 Avenue d'Étaples, 62780 Cucq","lat":50.5069182,"lon":1.6283969},
{"name":"Lidl","brand":"Lidl","city":"Neuilly-lès-Dijon","address":"1 Rue de la Combe aux Métiers, 21800 Neuilly-lès-Dijon","lat":47.2789305,"lon":5.113816},
{"name":"Lidl","brand":"Lidl","city":null,"address":null,"lat":46.9625738,"lon":4.3122406},
{"name":"Lidl","brand":"Lidl","city":null,"address":"45 Avenue du Général Leclerc, 94240","lat":48.7724037,"lon":2.3471712},
{"name":"Lidl","brand":"Lidl","city":null,"address":null,"lat":45.1570673,"lon":1.5540334},
{"name":"Lidl","brand":"Lidl","city":null,"address":null,"lat":47.6518355,"lon":-2.731446},
{"name":"Lidl","brand":"Lidl","city":null,"address":null,"lat":46.002924,"lon":0.674978},
{"name":"Lidl","brand":"Lidl","city":null,"address":null,"lat":47.9797336,"lon":0.2718872},
{"name":"Lidl","brand":"Lidl","city":"Nevers","address":"6 Rue du Petit Mouësse, 58000 Nevers","lat":46.9898224,"lon":3.1716071},
{"name":"Lidl","brand":"Lidl","city":null,"address":"15 Rue René Cassin, 71380","lat":46.7733525,"lon":4.8676856},
{"name":"Lidl","brand":"Lidl","city":null,"address":null,"lat":50.662851,"lon":2.9739905},
{"name":"Lidl","brand":"Lidl","city":null,"address":null,"lat":47.4507725,"lon":-0.5572115},
{"name":"Lidl","brand":"Lidl","city":"Aussillon","address":"10 Route Nationale 112, 81200 Aussillon","lat":43.5084575,"lon":2.3781},
{"name":"Lidl","brand":"Lidl","city":null,"address":null,"lat":43.0272255,"lon":2.9872645},
{"name":"Lidl","brand":"Lidl","city":null,"address":"Rue René Cassin","lat":50.6959344,"lon":1.6045586},
{"name":"Lidl","brand":"Lidl","city":null,"address":null,"lat":43.4656165,"lon":5.6079161},
{"name":"Lidl","brand":"Lidl","city":null,"address":null,"lat":48.758919,"lon":6.1336515},
{"name":"Lidl","brand":"Lidl","city":null,"address":null,"lat":48.742079,"lon":6.1516095},
{"name":"Lidl","brand":"Lidl","city":null,"address":"10 Rue Auguste Delaune","lat":44.146294,"lon":4.086191},
{"name":"Lidl","brand":"Lidl","city":null,"address":null,"lat":47.1897776,"lon":-1.5212423},
{"name":"Lidl","brand":"Lidl","city":null,"address":"377, 73700","lat":45.6148865,"lon":6.7692685},
{"name":"Lidl","brand":"Lidl","city":null,"address":null,"lat":48.9293534,"lon":7.668167},
{"name":"Lidl","brand":"Lidl","city":"Berck","address":"6 Rue des Argousiers, 62600 Berck","lat":50.4029848,"lon":1.5971635},
{"name":"Lidl","brand":"Lidl","city":null,"address":null,"lat":49.1376195,"lon":6.2178702},
{"name":"Lidl","brand":"Lidl","city":null,"address":null,"lat":44.72015,"lon":1.3686925},
{"name":"Lidl","brand":"Lidl","city":null,"address":null,"lat":44.8739392,"lon":-0.5451881},
{"name":"Lidl","brand":"Lidl","city":"Bellerive-sur-Allier","address":"6 Rue du Stade, 03700 Bellerive-sur-Allier","lat":46.114885,"lon":3.417858},
{"name":"Lidl","brand":"Lidl","city":null,"address":null,"lat":48.9758412,"lon":1.9859523},
{"name":"Lidl","brand":"Lidl","city":null,"address":null,"lat":49.4981345,"lon":5.190047},
{"name":"Lidl","brand":"Lidl","city":"Montceau-les-Mines","address":"71300 Montceau-les-Mines","lat":46.68863,"lon":4.355619},
{"name":"Lidl","brand":"Lidl","city":null,"address":null,"lat":49.2427433,"lon":6.1711331},
{"name":"Lidl","brand":"Lidl","city":null,"address":null,"lat":47.4434055,"lon":6.5821205},
{"name":"Lidl","brand":"Lidl","city":null,"address":null,"lat":47.7023941,"lon":-0.0600186},
{"name":"Lidl","brand":"Lidl","city":null,"address":null,"lat":46.381569,"lon":5.829118},
{"name":"Lidl","brand":"Lidl","city":null,"address":"53 Avenue Aristide Briand","lat":48.83621,"lon":-1.582331},
{"name":"Lidl","brand":"Lidl","city":null,"address":null,"lat":45.5339495,"lon":4.874058},
{"name":"Lidl","brand":"Lidl","city":"Lozanne","address":"69380 Lozanne","lat":45.855445,"lon":4.691478},
{"name":"Lidl","brand":"Lidl","city":null,"address":"8 Rue Parmentier","lat":49.324766,"lon":2.4482675},
{"name":"Lidl","brand":"Lidl","city":"Longeville-lès-Metz","address":"29 Boulevard Saint-Symphorien, 57050 Longeville-lès-Metz","lat":49.1120107,"lon":6.1572504},
{"name":"Lidl","brand":"Lidl","city":"Honfleur","address":"Cours Jean de Vienne, 14600 Honfleur","lat":49.4157623,"lon":0.2451575},
{"name":"Lidl","brand":"Lidl","city":null,"address":null,"lat":49.1099048,"lon":6.0980446},
{"name":"Lidl","brand":"Lidl","city":null,"address":null,"lat":48.736648,"lon":2.4472025},
{"name":"Lidl","brand":"Lidl","city":null,"address":null,"lat":48.7302334,"lon":2.2397425},
{"name":"Lidl","brand":"Lidl","city":null,"address":null,"lat":46.1451759,"lon":5.61545},
{"name":"Lidl","brand":"Lidl","city":null,"address":null,"lat":48.6353374,"lon":6.3033003},
{"name":"Lidl","brand":"Lidl","city":"Grand-Couronne","address":"4 Rue Léon Blum, 76530 Grand-Couronne","lat":49.363743,"lon":1.0146935},
{"name":"Lidl","brand":"Lidl","city":null,"address":"Avenue du Président Robert Schuman","lat":50.1048655,"lon":1.8587884},
{"name":"Lidl","brand":"Lidl","city":null,"address":null,"lat":48.7794545,"lon":2.394379},
{"name":"Lidl","brand":"Lidl","city":null,"address":null,"lat":48.778453,"lon":2.376509},
{"name":"Lidl","brand":"Lidl","city":"Villenave-d'Ornon","address":"2 Rue Victor Jara, 33140 Villenave-d'Ornon","lat":44.7888225,"lon":-0.5861565},
{"name":"Lidl","brand":"Lidl","city":"Colmar","address":"102 Route de Rouffach, 68000 Colmar","lat":48.0617802,"lon":7.3373901},
{"name":"Lidl","brand":"Lidl","city":null,"address":"1 Rue Raymond Gourdain","lat":49.876558,"lon":2.331402},
{"name":"Lidl","brand":"Lidl","city":"Le Tignet","address":"Le Tignet","lat":43.634861,"lon":6.8562775},
{"name":"Lidl","brand":"Lidl","city":null,"address":"Rue du Général de Gaulle","lat":50.509621,"lon":2.847912},
{"name":"Lidl","brand":"Lidl","city":null,"address":null,"lat":48.906131,"lon":2.1150705},
{"name":"Lidl","brand":"Lidl","city":null,"address":null,"lat":46.632488,"lon":5.2401655},
{"name":"Lidl","brand":"Lidl","city":null,"address":null,"lat":44.8284538,"lon":0.219451},
{"name":"Lidl","brand":"Lidl","city":"Nice","address":"6 Impasse Guidotti, 06300 Nice","lat":43.717445,"lon":7.2863285},
{"name":"Lidl","brand":"Lidl","city":null,"address":null,"lat":47.6563465,"lon":2.736262},
{"name":"Lidl","brand":"Lidl","city":"Tignieu-Jameyzieu","address":"111 Route de Crémieu, 38230 Tignieu-Jameyzieu","lat":45.7519609,"lon":5.1994315},
{"name":"Lidl","brand":"Lidl","city":"Nice","address":"210 Route de Grenoble, Nice","lat":43.6787795,"lon":7.2018385},
{"name":"Lidl","brand":"Lidl","city":"Saint-Ouen-de-Thouberville","address":"Route Nationale, 27310 Saint-Ouen-de-Thouberville","lat":49.3568035,"lon":0.8893955},
{"name":"Lidl","brand":"Lidl","city":"Vannes","address":"56000 Vannes","lat":47.669091,"lon":-2.7954365},
{"name":"Lidl","brand":"Lidl","city":null,"address":"Rue Ernest Renan","lat":50.2773617,"lon":2.7785294},
{"name":"Lidl","brand":"Lidl","city":"Dombasle","address":"37 Avenue de Rosières, 54110 Dombasle","lat":48.6100602,"lon":6.3536452},
{"name":"Lidl","brand":"Lidl","city":null,"address":null,"lat":49.0915895,"lon":4.905218},
{"name":"Lidl","brand":"Lidl","city":null,"address":null,"lat":48.2843766,"lon":-3.5631325},
{"name":"Lidl","brand":"Lidl","city":null,"address":null,"lat":45.5258171,"lon":4.6128091},
{"name":"Lidl","brand":"Lidl","city":null,"address":"Route de Paris","lat":43.688829,"lon":1.4063485},
{"name":"Lidl","brand":"Lidl","city":null,"address":"41 Rue Victor Hugo","lat":45.4830115,"lon":4.4393975},
{"name":"Lidl","brand":"Lidl","city":null,"address":null,"lat":48.9262544,"lon":2.5482782},
{"name":"Lidl","brand":"Lidl","city":null,"address":null,"lat":48.9007587,"lon":2.5691769},
{"name":"Lidl","brand":"Lidl","city":null,"address":null,"lat":48.872906,"lon":2.5312396},
{"name":"Lidl","brand":"Lidl","city":"Étréchy","address":"3, Étréchy","lat":48.4847532,"lon":2.192792},
{"name":"Lidl","brand":"Lidl","city":null,"address":null,"lat":48.9429639,"lon":2.5323228},
{"name":"Lidl","brand":"Lidl","city":"Saint-Junien","address":"24 Avenue du Général de Gaulle, 87200 Saint-Junien","lat":45.8986173,"lon":0.9173862},
{"name":"Lidl","brand":"Lidl","city":null,"address":null,"lat":48.8301755,"lon":6.066624},
{"name":"Lidl","brand":"Lidl","city":"Rambouillet","address":"78120 Rambouillet","lat":48.6298178,"lon":1.8295615},
{"name":"Lidl","brand":"Lidl","city":null,"address":null,"lat":48.6952776,"lon":2.287054},
{"name":"Lidl","brand":"Lidl","city":null,"address":null,"lat":48.9663861,"lon":2.5424555},
{"name":"Lidl","brand":"Lidl","city":null,"address":null,"lat":46.582565,"lon":3.3183067},
{"name":"Lidl","brand":"Lidl","city":null,"address":"211 avenue du Général Leclerc","lat":48.9786458,"lon":2.3047799},
{"name":"Lidl","brand":"Lidl","city":null,"address":null,"lat":49.0207962,"lon":2.1476361},
{"name":"Lidl","brand":"Lidl","city":null,"address":null,"lat":43.1377203,"lon":6.0004701},
{"name":"Lidl","brand":"Lidl","city":null,"address":"Rue de la Briquerie","lat":49.0969621,"lon":2.7390611},
{"name":"Lidl","brand":"Lidl","city":null,"address":null,"lat":47.5292795,"lon":5.1138745},
{"name":"Lidl","brand":"Lidl","city":null,"address":null,"lat":43.2291366,"lon":3.0499222},
{"name":"Lidl","brand":"Lidl","city":null,"address":null,"lat":49.9241486,"lon":1.1111538},
{"name":"Lidl","brand":"Lidl","city":"Le Cendre","address":"Route de Clermont, 63670 Le Cendre","lat":45.7272745,"lon":3.1877195},
{"name":"Lidl","brand":"Lidl","city":null,"address":null,"lat":47.837117,"lon":0.265199},
{"name":"Lidl","brand":"Lidl","city":"Aubevoye","address":"27940 Aubevoye","lat":49.173541,"lon":1.3524161},
{"name":"Lidl","brand":"Lidl","city":null,"address":"57 Route de la Seigneurie","lat":49.1490669,"lon":2.4327855},
{"name":"Lidl","brand":"Lidl","city":null,"address":null,"lat":49.2084,"lon":5.6416499},
{"name":"Lidl","brand":"Lidl","city":null,"address":null,"lat":49.1112835,"lon":6.3906717},
{"name":"Lidl","brand":"Lidl","city":"Saint-Brès","address":"486 Avenue de Nîmes, 34670 Saint-Brès","lat":43.665187,"lon":4.038143},
{"name":"Lidl","brand":"Lidl","city":null,"address":null,"lat":46.926352,"lon":5.8855605},
{"name":"Lidl","brand":"Lidl","city":null,"address":"Rue Lalau","lat":50.6706819,"lon":3.0693226},
{"name":"Lidl","brand":"Lidl","city":null,"address":null,"lat":43.36131,"lon":1.4642606},
{"name":"Lidl","brand":"Lidl","city":null,"address":null,"lat":48.343119,"lon":7.306478},
{"name":"Lidl","brand":"Lidl","city":null,"address":null,"lat":43.2455322,"lon":5.3740957},
{"name":"Lidl","brand":"Lidl","city":null,"address":null,"lat":43.256679,"lon":5.3830425},
{"name":"Lidl","brand":"Lidl","city":null,"address":null,"lat":44.8708855,"lon":-0.612712},
{"name":"Lidl","brand":"Lidl","city":"Ambazac","address":"1 Rue Jean Gagnant, 87240 Ambazac","lat":45.9470975,"lon":1.3940979},
{"name":"Lidl","brand":"Lidl","city":null,"address":null,"lat":49.2036834,"lon":-0.3488459},
{"name":"Lidl","brand":"Lidl","city":"Marmande","address":"10 Avenue François Mitterrand, 47200 Marmande","lat":44.510752,"lon":0.140103},
{"name":"Lidl","brand":"Lidl","city":"Bordeaux","address":"64 Rue Malbec, 33000 Bordeaux","lat":44.8258839,"lon":-0.561421},
{"name":"Lidl","brand":"Lidl","city":null,"address":null,"lat":43.189399,"lon":5.602119},
{"name":"Lidl","brand":"Lidl","city":null,"address":null,"lat":44.8589135,"lon":-0.6300575},
{"name":"Lidl","brand":"Lidl","city":null,"address":null,"lat":49.3116125,"lon":5.788589},
{"name":"Lidl","brand":"Lidl","city":null,"address":"Avenue de l'Europe","lat":50.6372954,"lon":2.4133828},
{"name":"Lidl","brand":"Lidl","city":"Wasquehal","address":"4 Rue Jean Jaurès, 59290 Wasquehal","lat":50.6784805,"lon":3.1364745},
{"name":"Lidl","brand":"Lidl","city":"Étaples","address":"Route de Boulogne, 62530 Étaples","lat":50.5153355,"lon":1.6467539},
{"name":"Lidl","brand":"Lidl","city":null,"address":null,"lat":48.65358,"lon":-1.3506035},
{"name":"Lidl","brand":"Lidl","city":null,"address":null,"lat":48.967129,"lon":4.362648},
{"name":"Lidl","brand":"Lidl","city":null,"address":null,"lat":47.9305617,"lon":1.8382272},
{"name":"Lidl","brand":"Lidl","city":null,"address":null,"lat":48.8429235,"lon":7.593481},
{"name":"Lidl","brand":"Lidl","city":null,"address":null,"lat":46.2633975,"lon":5.650265},
{"name":"Lidl","brand":"Lidl","city":null,"address":null,"lat":47.631011,"lon":6.8680865},
{"name":"Lidl","brand":"Lidl","city":null,"address":null,"lat":45.051494,"lon":3.8955335},
{"name":"Lidl","brand":"Lidl","city":null,"address":"Rue de la Prairie","lat":49.0379785,"lon":3.3955049},
{"name":"Lidl","brand":"Lidl","city":null,"address":"26 Rue de l'Aérostation Maritime","lat":48.8090311,"lon":2.0555115},
{"name":"Lidl","brand":"Lidl","city":"Doué-en-Anjou","address":"1 Boulevard Charles de Gaulle, 49700 Doué-en-Anjou","lat":47.1939395,"lon":-0.2889895},
{"name":"Lidl","brand":"Lidl","city":null,"address":null,"lat":44.8046395,"lon":-0.5582365},
{"name":"Lidl","brand":"Lidl","city":null,"address":null,"lat":47.8121565,"lon":7.3122665},
{"name":"Lidl","brand":"Lidl","city":null,"address":null,"lat":45.340827,"lon":5.349234},
{"name":"Lidl","brand":"Lidl","city":null,"address":null,"lat":48.6783565,"lon":-1.3391965},
{"name":"Lidl","brand":"Lidl","city":null,"address":null,"lat":45.269766,"lon":6.36672},
{"name":"Lidl","brand":"Lidl","city":null,"address":null,"lat":47.774947,"lon":-3.005341},
{"name":"Lidl","brand":"Lidl","city":null,"address":null,"lat":44.9234955,"lon":-0.4659241},
{"name":"Lidl","brand":"Lidl","city":"Évian-les-Bains","address":"Impasse des Cèdres, 74500 Évian-les-Bains","lat":46.3960948,"lon":6.5769408},
{"name":"Lidl","brand":"Lidl","city":null,"address":null,"lat":44.3869124,"lon":6.6277677},
{"name":"Lidl","brand":"Lidl","city":null,"address":null,"lat":48.1799471,"lon":0.6553591},
{"name":"Lidl","brand":"Lidl","city":null,"address":null,"lat":43.5710162,"lon":1.4853719},
{"name":"Lidl","brand":"Lidl","city":null,"address":null,"lat":44.839082,"lon":-0.6700668},
{"name":"Lidl","brand":"Lidl","city":"Cholet","address":"4 Rue d’Austerlitz, 49300 Cholet","lat":47.0452696,"lon":-0.8971387},
{"name":"Lidl","brand":"Lidl","city":"Ollioules","address":"131 Chemin du Clos du Haut, 83190 Ollioules","lat":43.1283667,"lon":5.8773061},
{"name":"Lidl","brand":"Lidl","city":null,"address":"Rue d'Aire","lat":50.6413702,"lon":2.6235678},
{"name":"Lidl","brand":"Lidl","city":null,"address":"Boulevard de Strasbourg","lat":50.7555425,"lon":2.257681},
{"name":"Lidl","brand":"Lidl","city":null,"address":null,"lat":48.992517,"lon":6.0273929},
{"name":"Lidl","brand":"Lidl","city":"Saint-Martin-lez-Tatinghem","address":"Rue de la Rocade, 62500 Saint-Martin-lez-Tatinghem","lat":50.7605478,"lon":2.2263923},
{"name":"Lidl","brand":"Lidl","city":null,"address":null,"lat":47.4366608,"lon":-0.2064073},
{"name":"Lidl","brand":"Lidl","city":null,"address":null,"lat":48.4518529,"lon":7.4914324},
{"name":"Lidl","brand":"Lidl","city":null,"address":null,"lat":47.6464793,"lon":7.4607569},
{"name":"Lidl","brand":"Lidl","city":null,"address":null,"lat":49.1533,"lon":-0.3416491},
{"name":"Lidl","brand":"Lidl","city":null,"address":null,"lat":45.6089295,"lon":4.069203},
{"name":"Lidl","brand":"Lidl","city":null,"address":null,"lat":43.3909581,"lon":6.3123137},
{"name":"Lidl","brand":"Lidl","city":null,"address":"Rue de la Noë","lat":47.5600765,"lon":-2.500004},
{"name":"Lidl","brand":"Lidl","city":null,"address":null,"lat":49.6341885,"lon":5.1600838},
{"name":"Lidl","brand":"Lidl","city":null,"address":null,"lat":47.7612875,"lon":7.357005},
{"name":"Lidl","brand":"Lidl","city":null,"address":"Route de Calais","lat":50.9861291,"lon":2.1188434},
{"name":"Lidl","brand":"Lidl","city":null,"address":null,"lat":47.0963885,"lon":2.4538635},
{"name":"Lidl","brand":"Lidl","city":null,"address":null,"lat":47.9643442,"lon":0.2012239},
{"name":"Lidl","brand":"Lidl","city":"Langlade","address":"30980 Langlade","lat":43.808131,"lon":4.242103},
{"name":"Lidl","brand":"Lidl","city":null,"address":null,"lat":48.7092987,"lon":7.7999615},
{"name":"Lidl","brand":"Lidl","city":null,"address":null,"lat":46.1513358,"lon":-1.1218525},
{"name":"Lidl","brand":"Lidl","city":"Saint-Louis","address":"Rue de Mulhouse, 68300 Saint-Louis","lat":47.6037355,"lon":7.5434886},
{"name":"Lidl","brand":"Lidl","city":null,"address":null,"lat":47.8018895,"lon":7.1298225},
{"name":"Lidl","brand":"Lidl","city":"Vauvert","address":"513 Avenue Maurice Privat, 30600 Vauvert","lat":43.6902331,"lon":4.2701551},
{"name":"Lidl","brand":"Lidl","city":"La Motte-Servolex","address":"246 Rue Lavoisier, 73290 La Motte-Servolex","lat":45.6016384,"lon":5.87349},
{"name":"Lidl","brand":"Lidl","city":null,"address":null,"lat":49.2760385,"lon":1.0317235},
{"name":"Lidl","brand":"Lidl","city":null,"address":null,"lat":47.2124144,"lon":-0.985228},
{"name":"Lidl","brand":"Lidl","city":null,"address":null,"lat":44.425113,"lon":1.442251},
{"name":"Lidl","brand":"Lidl","city":null,"address":"49 Rue d'Allschwil","lat":47.5578907,"lon":7.5350059},
{"name":"Lidl","brand":"Lidl","city":"Sommières","address":"2 Bis Avenue Raoul Gaussen, 30250 Sommières","lat":43.788898,"lon":4.089747},
{"name":"Lidl","brand":"Lidl","city":null,"address":null,"lat":43.6407155,"lon":-0.6102505},
{"name":"Lidl","brand":"Lidl","city":null,"address":null,"lat":46.3052473,"lon":-0.4871718},
{"name":"Lidl","brand":"Lidl","city":null,"address":null,"lat":50.5684911,"lon":2.4580648},
{"name":"Lidl","brand":"Lidl","city":null,"address":null,"lat":48.863594,"lon":7.1839845},
{"name":"Lidl","brand":"Lidl","city":null,"address":null,"lat":43.5124225,"lon":1.1995489},
{"name":"Lidl","brand":"Lidl","city":null,"address":"Rue Roger Salengro","lat":50.531088,"lon":2.9394105},
{"name":"Lidl","brand":"Lidl","city":null,"address":null,"lat":44.7221304,"lon":-0.5309834},
{"name":"Lidl","brand":"Lidl","city":null,"address":"Rue de Marquette","lat":50.6845707,"lon":3.0596314},
{"name":"Lidl","brand":"Lidl","city":null,"address":null,"lat":45.0283625,"lon":-0.787973},
{"name":"Lidl","brand":"Lidl","city":null,"address":"21 Rue Pierre Curie, 70000","lat":47.6128288,"lon":6.1600423},
{"name":"Lidl","brand":"Lidl","city":null,"address":null,"lat":47.648058,"lon":6.137823},
{"name":"Lidl","brand":"Lidl","city":null,"address":"Rue Henri Durre","lat":50.4412932,"lon":3.4296532},
{"name":"Lidl","brand":"Lidl","city":null,"address":null,"lat":47.6644525,"lon":-3.007157},
{"name":"Lidl","brand":"Lidl","city":"Douvaine","address":"35 Avenue des Voirons, 74140 Douvaine","lat":46.2996025,"lon":6.3057815},
{"name":"Lidl","brand":"Lidl","city":null,"address":null,"lat":44.0616085,"lon":3.973643},
{"name":"Lidl","brand":"Lidl","city":null,"address":null,"lat":48.7715525,"lon":7.8717115},
{"name":"Lidl","brand":"Lidl","city":null,"address":"3 Route de Trémaïdic","lat":48.3762475,"lon":-4.5983326},
{"name":"Lidl","brand":"Lidl","city":null,"address":null,"lat":43.4065911,"lon":5.2046842},
{"name":"Lidl","brand":"Lidl","city":null,"address":null,"lat":45.0353325,"lon":-0.1292387},
{"name":"Lidl","brand":"Lidl","city":null,"address":"Route de Cholet","lat":46.9788316,"lon":-1.2990784},
{"name":"Lidl","brand":"Lidl","city":null,"address":null,"lat":47.8856137,"lon":6.7677145},
{"name":"Lidl","brand":"Lidl","city":"Liffré","address":"35340 Liffré","lat":48.2238483,"lon":-1.4991734},
{"name":"Lidl","brand":"Lidl","city":null,"address":null,"lat":46.1298697,"lon":5.8113808},
{"name":"Lidl","brand":"Lidl","city":null,"address":null,"lat":48.0934035,"lon":7.3742786},
{"name":"Lidl","brand":"Lidl","city":null,"address":null,"lat":47.8850595,"lon":-3.012205},
{"name":"Lidl","brand":"Lidl","city":null,"address":null,"lat":45.2970751,"lon":-0.9311041},
{"name":"Lidl","brand":"Lidl","city":null,"address":null,"lat":43.4387951,"lon":3.7440459},
{"name":"Lidl","brand":"Lidl","city":null,"address":null,"lat":48.090718,"lon":3.2950225},
{"name":"Lidl","brand":"Lidl","city":null,"address":"Avenue de la Gare","lat":49.0229809,"lon":2.4646748},
{"name":"Lidl","brand":"Lidl","city":null,"address":null,"lat":48.1932143,"lon":-2.7643056},
{"name":"Lidl","brand":"Lidl","city":null,"address":null,"lat":43.1530864,"lon":6.0728833},
{"name":"Lidl","brand":"Lidl","city":null,"address":null,"lat":49.5164235,"lon":-1.7932273},
{"name":"Lidl","brand":"Lidl","city":null,"address":null,"lat":43.7195637,"lon":5.3020255},
{"name":"Lidl","brand":"Lidl","city":null,"address":null,"lat":48.702754,"lon":2.2531065},
{"name":"Lidl","brand":"Lidl","city":null,"address":null,"lat":47.7223028,"lon":3.3111051},
{"name":"Lidl","brand":"Lidl","city":null,"address":"24 Rue Saint-Melaine","lat":48.0719325,"lon":-0.744608},
{"name":"Lidl","brand":"Lidl","city":null,"address":"123 Rue du Plan","lat":43.6432463,"lon":5.5783353},
{"name":"Lidl","brand":"Lidl","city":null,"address":null,"lat":44.19452,"lon":0.595699},
{"name":"Lidl","brand":"Lidl","city":null,"address":null,"lat":43.108748,"lon":6.0370845},
{"name":"Lidl","brand":"Lidl","city":"Die","address":"Avenue de la Clairette, 26150 Die","lat":44.7623563,"lon":5.35367},
{"name":"Lidl","brand":"Lidl","city":null,"address":null,"lat":43.9397066,"lon":4.5726872},
{"name":"Lidl","brand":"Lidl","city":null,"address":null,"lat":44.2128088,"lon":-1.2016692},
{"name":"Lidl","brand":"Lidl","city":null,"address":null,"lat":48.8306525,"lon":1.9554579},
{"name":"Lidl","brand":"Lidl","city":"Bazas","address":"Route de Langon, 33430 Bazas","lat":44.4390404,"lon":-0.2268343},
{"name":"Lidl","brand":"Lidl","city":null,"address":"Rue du Général de Gaulle","lat":50.295895,"lon":2.7971236},
{"name":"Lidl","brand":"Lidl","city":null,"address":null,"lat":46.3319288,"lon":4.8416282},
{"name":"Lidl","brand":"Lidl","city":null,"address":"101 Rue de la Porte de Trivaux, 92140","lat":48.7902097,"lon":2.2594002},
{"name":"Lidl","brand":"Lidl","city":null,"address":"38390","lat":45.804501,"lon":5.4004055},
{"name":"Lidl","brand":"Lidl","city":"Vert-Saint-Denis","address":"80 Route Nationale 6, 77240 Vert-Saint-Denis","lat":48.5640408,"lon":2.6322354},
{"name":"Lidl","brand":"Lidl","city":"Agde","address":"3 Rue de l'Adonis, 34300 Agde","lat":43.2952559,"lon":3.4696864},
{"name":"Lidl","brand":"Lidl","city":null,"address":null,"lat":44.8987685,"lon":1.4783415},
{"name":"Lidl","brand":"Lidl","city":null,"address":null,"lat":48.9308063,"lon":6.6110555},
{"name":"Lidl","brand":"Lidl","city":"Audun-le-Tiche","address":"33 Rue Napoléon 1er, 57390 Audun-le-Tiche","lat":49.4796723,"lon":5.9605703},
{"name":"Lidl","brand":"Lidl","city":null,"address":null,"lat":42.7777895,"lon":2.905918},
{"name":"Lidl","brand":"Lidl","city":null,"address":null,"lat":48.4933977,"lon":-4.4335217},
{"name":"Lidl","brand":"Lidl","city":null,"address":null,"lat":47.6861692,"lon":0.4290356},
{"name":"Lidl","brand":"Lidl","city":"Saint-Chamond","address":"2 Rue Edmond Locard, 42400 Saint-Chamond","lat":45.4791573,"lon":4.5205442},
{"name":"Lidl","brand":"Lidl","city":null,"address":"Rue Mirabeau","lat":50.4922179,"lon":2.8980325},
{"name":"Lidl","brand":"Lidl","city":null,"address":null,"lat":48.572249,"lon":6.532453},
{"name":"Lidl","brand":"Lidl","city":null,"address":null,"lat":44.855861,"lon":-0.048769},
{"name":"Lidl","brand":"Lidl","city":null,"address":null,"lat":49.25096,"lon":6.055976},
{"name":"Lidl","brand":"Lidl","city":"Sarrebourg","address":"9 Rue Dessirier, 57400 Sarrebourg","lat":48.7389088,"lon":7.0761733},
{"name":"Lidl","brand":"Lidl","city":null,"address":null,"lat":49.257763,"lon":6.0951405},
{"name":"Lidl","brand":"Lidl","city":null,"address":"Rue Jules Guesde","lat":50.5223345,"lon":2.6687815},
{"name":"Lidl","brand":"Lidl","city":null,"address":null,"lat":50.5192625,"lon":2.79129},
{"name":"Lidl","brand":"Lidl","city":null,"address":null,"lat":45.0297275,"lon":3.880982},
{"name":"Lidl","brand":"Lidl","city":null,"address":null,"lat":48.3357158,"lon":4.0256439},
{"name":"Lidl","brand":"Lidl","city":null,"address":null,"lat":49.0670322,"lon":6.2465325},
{"name":"Lidl","brand":"Lidl","city":null,"address":null,"lat":49.01362,"lon":0.5370705},
{"name":"Lidl","brand":"Lidl","city":"Hagondange","address":"1 Rue de la Voie Romaine, 57300 Hagondange","lat":49.2425654,"lon":6.1456047},
{"name":"Lidl","brand":"Lidl","city":null,"address":null,"lat":46.921379,"lon":4.751948},
{"name":"Lidl","brand":"Lidl","city":null,"address":null,"lat":43.3845309,"lon":-1.693411},
{"name":"Lidl","brand":"Lidl","city":null,"address":"30","lat":49.1178518,"lon":6.1976851},
{"name":"Lidl","brand":"Lidl","city":null,"address":"01150","lat":45.8884046,"lon":5.3467752},
{"name":"Lidl","brand":"Lidl","city":null,"address":null,"lat":49.2425085,"lon":5.943033},
{"name":"Lidl","brand":"Lidl","city":null,"address":null,"lat":49.3875293,"lon":5.9188231},
{"name":"Lidl","brand":"Lidl","city":null,"address":null,"lat":44.4815176,"lon":4.2631112},
{"name":"Lidl","brand":"Lidl","city":"Mordelles","address":"6 Avenue des Platanes, 35310 Mordelles","lat":48.08046,"lon":-1.8345252},
{"name":"Lidl","brand":"Lidl","city":"Peyrehorade","address":"254 Route de Bayonne, 40300 Peyrehorade","lat":43.5480953,"lon":-1.1147398},
{"name":"Lidl","brand":"Lidl","city":"Moréac","address":"56500 Moréac","lat":47.8995276,"lon":-2.8380377},
{"name":"Lidl","brand":"Lidl","city":null,"address":null,"lat":48.7875469,"lon":-3.4478688},
{"name":"Lidl","brand":"Lidl","city":null,"address":null,"lat":46.1784611,"lon":-1.1541693},
{"name":"Lidl","brand":"Lidl","city":null,"address":"Rue du Grand Pré","lat":49.314023,"lon":2.3342465},
{"name":"Lidl","brand":"Lidl","city":null,"address":"1","lat":47.3013545,"lon":5.016175},
{"name":"Lidl","brand":"Lidl","city":null,"address":"6 Route de Creil","lat":49.223036,"lon":2.4290008},
{"name":"Lidl","brand":"Lidl","city":null,"address":null,"lat":48.4972238,"lon":7.6857185},
{"name":"Lidl","brand":"Lidl","city":"Dun-sur-Auron","address":"Route de Bourges, 18130 Dun-sur-Auron","lat":46.894467,"lon":2.5695853},
{"name":"Lidl","brand":"Lidl","city":null,"address":null,"lat":46.2023495,"lon":5.248267},
{"name":"Lidl","brand":"Lidl","city":"Saint-Manvieu-Norrey","address":"2 Route de Caen, 14740 Saint-Manvieu-Norrey","lat":49.181765,"lon":-0.4894253},
{"name":"Lidl","brand":"Lidl","city":null,"address":null,"lat":48.6323547,"lon":-2.9775395},
{"name":"Lidl","brand":"Lidl","city":null,"address":null,"lat":48.6694205,"lon":6.1630842},
{"name":"Lidl","brand":"Lidl","city":null,"address":null,"lat":45.6159446,"lon":5.2344976},
{"name":"Lidl","brand":"Lidl","city":"Garges-lès-Gonesse","address":"3 Rue Marcel Cerdan, 95140 Garges-lès-Gonesse","lat":48.9617919,"lon":2.4034195},
{"name":"Lidl","brand":"Lidl","city":null,"address":null,"lat":47.6404675,"lon":0.1588745},
{"name":"Lidl","brand":"Lidl","city":null,"address":null,"lat":48.7143567,"lon":6.2512054},
{"name":"Lidl","brand":"Lidl","city":null,"address":null,"lat":44.6386744,"lon":-0.9572886},
{"name":"Lidl","brand":"Lidl","city":null,"address":null,"lat":44.6416556,"lon":-0.9526718},
{"name":"Lidl","brand":"Lidl","city":null,"address":null,"lat":47.7164109,"lon":-1.3870787},
{"name":"Lidl","brand":"Lidl","city":null,"address":null,"lat":49.3072823,"lon":1.4404245},
{"name":"Lidl","brand":"Lidl","city":null,"address":null,"lat":43.1644551,"lon":6.0441604},
{"name":"Lidl","brand":"Lidl","city":null,"address":null,"lat":46.5902737,"lon":1.5295626},
{"name":"Lidl","brand":"Lidl","city":null,"address":null,"lat":45.583121,"lon":4.311058},
{"name":"Lidl","brand":"Lidl","city":"Thury-Harcourt-le-Hom","address":"11 Rue d'Esson, 14220 Thury-Harcourt-le-Hom","lat":48.979925,"lon":-0.4699725},
{"name":"Lidl","brand":"Lidl","city":null,"address":null,"lat":49.2218951,"lon":4.0164934},
{"name":"Lidl","brand":"Lidl","city":"Floirac","address":"Avenue de la Libération, 33270 Floirac","lat":44.838184,"lon":-0.5308705},
{"name":"Lidl","brand":"Lidl","city":null,"address":null,"lat":47.0028049,"lon":2.266067},
{"name":"Lidl","brand":"Lidl","city":null,"address":null,"lat":46.2993565,"lon":2.7354738},
{"name":"Lidl","brand":"Lidl","city":"Varennes-Vauzelles","address":"43 bis Boulevard Camille Dagonneau, 58640 Varennes-Vauzelles","lat":47.0104032,"lon":3.1507387},
{"name":"Lidl","brand":"Lidl","city":null,"address":null,"lat":43.188957,"lon":-0.23955},
{"name":"Lidl","brand":"Lidl","city":null,"address":null,"lat":48.5482372,"lon":-3.1471988},
{"name":"Lidl","brand":"Lidl","city":"Ferney-Voltaire","address":"01210 Ferney-Voltaire","lat":46.2517314,"lon":6.122175},
{"name":"Lidl","brand":"Lidl","city":null,"address":null,"lat":44.8446376,"lon":-0.5116055},
{"name":"Lidl","brand":"Lidl","city":null,"address":null,"lat":44.1797411,"lon":0.6356427},
{"name":"Lidl","brand":"Lidl","city":null,"address":null,"lat":43.0860255,"lon":0.5725525},
{"name":"Lidl","brand":"Lidl","city":null,"address":null,"lat":48.632266,"lon":2.3342975},
{"name":"Lidl","brand":"Lidl","city":null,"address":"75 Rue des Pyrénées","lat":48.8533252,"lon":2.4057615},
{"name":"Lidl","brand":"Lidl","city":null,"address":null,"lat":47.5638871,"lon":1.3743897},
{"name":"Lidl","brand":"Lidl","city":null,"address":null,"lat":43.1210322,"lon":0.3853784},
{"name":"Lidl","brand":"Lidl","city":null,"address":null,"lat":43.70745,"lon":7.2690814},
{"name":"Lidl","brand":"Lidl","city":null,"address":null,"lat":44.8807419,"lon":1.2162643},
{"name":"Lidl","brand":"Lidl","city":null,"address":null,"lat":43.2428259,"lon":6.081879},
{"name":"Lidl","brand":"Lidl","city":null,"address":null,"lat":45.1096003,"lon":-0.3811072},
{"name":"Lidl","brand":"Lidl","city":null,"address":"2004 Route de Bordeaux","lat":45.262529,"lon":0.0427485},
{"name":"Lidl","brand":"Lidl","city":null,"address":null,"lat":48.8500503,"lon":-1.2108308},
{"name":"Lidl","brand":"Lidl","city":null,"address":null,"lat":45.1085405,"lon":3.496784},
{"name":"Lidl","brand":"Lidl","city":null,"address":null,"lat":50.1606536,"lon":2.3429489},
{"name":"Lidl","brand":"Lidl","city":null,"address":null,"lat":46.1752724,"lon":1.8934642},
{"name":"Lidl","brand":"Lidl","city":null,"address":null,"lat":42.6124315,"lon":2.410756},
{"name":"Lidl","brand":"Lidl","city":null,"address":null,"lat":42.5457795,"lon":3.031176},
{"name":"Lidl","brand":"Lidl","city":null,"address":null,"lat":43.23649,"lon":0.045147},
{"name":"Lidl","brand":"Lidl","city":null,"address":null,"lat":45.0386035,"lon":0.3572413},
{"name":"Lidl","brand":"Lidl","city":null,"address":null,"lat":48.8282164,"lon":4.982578},
{"name":"Lidl","brand":"Lidl","city":"Velaines","address":"94 Rue de Ligny, 55500 Velaines","lat":48.6953625,"lon":5.3140435},
{"name":"Lidl","brand":"Lidl","city":null,"address":null,"lat":43.603406,"lon":1.3076825},
{"name":"Lidl","brand":"Lidl","city":"Pessac","address":"Avenue de la Châtaigneraie, 33600 Pessac","lat":44.7982914,"lon":-0.6448352},
{"name":"Lidl","brand":"Lidl","city":null,"address":"54","lat":49.0706225,"lon":6.0890575},
{"name":"Lidl","brand":"Lidl","city":"Annecy","address":"18 Avenue de Périaz, 74600 Annecy","lat":45.8776545,"lon":6.0896665},
{"name":"Lidl","brand":"Lidl","city":null,"address":null,"lat":42.4945867,"lon":2.7245333},
{"name":"Lidl","brand":"Lidl","city":null,"address":null,"lat":44.3640422,"lon":5.1253268},
{"name":"Lidl","brand":"Lidl","city":"Savigny-le-Temple","address":"9 Allée du Cobalt, 77176 Savigny-le-Temple","lat":48.5854114,"lon":2.5921132},
{"name":"Lidl","brand":"Lidl","city":"Étampes","address":"Avenue du 8 Mai 1945, 91150 Étampes","lat":48.4414843,"lon":2.1465152},
{"name":"Lidl","brand":"Lidl","city":null,"address":null,"lat":49.0407971,"lon":-0.9840309},
{"name":"Lidl","brand":"Lidl","city":"Nice","address":"17 Boulevard de Gorbella, Nice","lat":43.7188143,"lon":7.2566245},
{"name":"Lidl","brand":"Lidl","city":null,"address":null,"lat":47.793006,"lon":2.3795585},
{"name":"Lidl","brand":"Lidl","city":null,"address":null,"lat":48.3459352,"lon":-1.1815268},
{"name":"Lidl","brand":"Lidl","city":null,"address":"83 Rue Saint-Maur, 75011","lat":48.8640484,"lon":2.3781979},
{"name":"Lidl","brand":"Lidl","city":null,"address":"Rue Paul Langevin","lat":50.3880903,"lon":3.1026618},
{"name":"Lidl","brand":"Lidl","city":null,"address":null,"lat":43.1903391,"lon":2.985698},
{"name":"Lidl","brand":"Lidl","city":"Murviel-lès-Béziers","address":"34490 Murviel-lès-Béziers","lat":43.4341845,"lon":3.14906},
{"name":"Lidl","brand":"Lidl","city":"Paris","address":"53/55 Avenue du Maine, 75014 Paris","lat":48.8400818,"lon":2.3221697},
{"name":"Lidl","brand":"Lidl","city":null,"address":null,"lat":48.7062172,"lon":2.3456945},
{"name":"Lidl","brand":"Lidl","city":null,"address":"551 Avenue du 8 Mai 1945","lat":43.682892,"lon":5.5018733},
{"name":"Lidl","brand":"Lidl","city":null,"address":null,"lat":48.31038,"lon":6.1316082},
{"name":"Lidl","brand":"Lidl","city":null,"address":null,"lat":43.2291205,"lon":2.3460865},
{"name":"Lidl","brand":"Lidl","city":null,"address":null,"lat":48.7772006,"lon":2.4630929},
{"name":"Lidl","brand":"Lidl","city":"Villiers-le-Bel","address":"6 Avenue des Érables, 95400 Villiers-le-Bel","lat":49.0005067,"lon":2.3904302},
{"name":"Lidl","brand":"Lidl","city":null,"address":null,"lat":46.8356498,"lon":3.4661955},
{"name":"Lidl","brand":"Lidl","city":null,"address":null,"lat":47.2043141,"lon":-1.5535651},
{"name":"Lidl","brand":"Lidl","city":null,"address":null,"lat":49.29852,"lon":6.190151},
{"name":"Lidl","brand":"Lidl","city":null,"address":"Route d'Ailly-sur-Noye","lat":49.768192,"lon":2.4689635},
{"name":"Lidl","brand":"Lidl","city":null,"address":null,"lat":49.0731874,"lon":-0.6519753},
{"name":"Lidl - Terres Saint-Lazare","brand":"Lidl","city":"Ris-Orangis","address":"Rue Paul Langevin, 91130 Ris-Orangis","lat":48.6505556,"lon":2.3980527},
{"name":"Lidl","brand":"Lidl","city":null,"address":null,"lat":46.8521076,"lon":-1.8873634},
{"name":"Lidl","brand":"Lidl","city":null,"address":"9 Avenue Théodore Monod","lat":49.0278124,"lon":2.2054402},
{"name":"Lidl","brand":"Lidl","city":null,"address":null,"lat":45.3354992,"lon":3.8521941},
{"name":"Lidl","brand":"Lidl","city":null,"address":null,"lat":49.4309532,"lon":5.6150949},
{"name":"Lidl","brand":"Lidl","city":null,"address":null,"lat":47.0462051,"lon":-1.6397451},
{"name":"Lidl","brand":"Lidl","city":null,"address":"53 Rue du Maréchal Joffre La Prairie","lat":48.8975131,"lon":2.8163925},
{"name":"Lidl","brand":"Lidl","city":null,"address":null,"lat":48.7549068,"lon":2.3307743},
{"name":"Lidl","brand":"Lidl","city":null,"address":null,"lat":43.0886055,"lon":5.850799},
{"name":"Lidl","brand":"Lidl","city":null,"address":null,"lat":47.7659673,"lon":7.3223533},
{"name":"Lidl","brand":"Lidl","city":null,"address":null,"lat":48.8647426,"lon":7.4696809},
{"name":"Lidl","brand":"Lidl","city":null,"address":null,"lat":46.108104,"lon":-0.7669291},
{"name":"Lidl","brand":"Lidl","city":null,"address":null,"lat":49.0115977,"lon":1.9018149},
{"name":"Lidl","brand":"Lidl","city":"Fleury-les-Aubrais","address":"11 Rue André Dessaux, 45400 Fleury-les-Aubrais","lat":47.9230801,"lon":1.9006641},
{"name":"Lidl","brand":"Lidl","city":"Guichen","address":"2 Rue Joliot-Curie, 35580 Guichen","lat":47.972955,"lon":-1.81348},
{"name":"Lidl","brand":"Lidl","city":null,"address":null,"lat":49.1681346,"lon":5.3875362},
{"name":"Lidl","brand":"Lidl","city":null,"address":null,"lat":47.8696585,"lon":-3.5743358},
{"name":"Lidl","brand":"Lidl","city":"Dax","address":"78 Route de Montfort, 40100 Dax","lat":43.705508,"lon":-1.030598},
{"name":"Lidl","brand":"Lidl","city":null,"address":null,"lat":43.380826,"lon":-0.6177316},
{"name":"Lidl","brand":"Lidl","city":null,"address":null,"lat":47.066502,"lon":2.395903},
{"name":"Lidl","brand":"Lidl","city":null,"address":null,"lat":48.5520506,"lon":-1.7235424},
{"name":"Lidl","brand":"Lidl","city":null,"address":"52 Avenue du Chasselas","lat":44.1089429,"lon":1.1025762},
{"name":"Lidl","brand":"Lidl","city":null,"address":"34 Avenue Paul Vaillant Couturier","lat":48.9835136,"lon":2.4204412},
{"name":"Lidl","brand":"Lidl","city":"Remiremont","address":"Rue de la Filature, 88200 Remiremont","lat":48.0110672,"lon":6.6034898},
{"name":"Lidl","brand":"Lidl","city":"Salernes","address":"83690 Salernes","lat":43.5602442,"lon":6.2462531},
{"name":"Lidl","brand":"Lidl","city":"Nangis","address":"3 ter Avenue du Général de Gaulle, 77370 Nangis","lat":48.5617687,"lon":3.0152193},
{"name":"Lidl","brand":"Lidl","city":null,"address":"Rue des Frères Caron","lat":50.4720863,"lon":2.5220744},
{"name":"Lidl","brand":"Lidl","city":null,"address":null,"lat":48.423496,"lon":2.772387},
{"name":"Lidl","brand":"Lidl","city":null,"address":null,"lat":49.6607168,"lon":-1.682136},
{"name":"Lidl","brand":"Lidl","city":null,"address":null,"lat":48.1719596,"lon":7.5471189},
{"name":"Lidl","brand":"Lidl","city":null,"address":null,"lat":49.349414,"lon":6.1595775},
{"name":"Lidl","brand":"Lidl","city":null,"address":null,"lat":48.7530065,"lon":2.371903},
{"name":"Lidl","brand":"Lidl","city":null,"address":null,"lat":44.4124638,"lon":4.3769828},
{"name":"Lidl","brand":"Lidl","city":null,"address":null,"lat":44.2591263,"lon":4.1932186},
{"name":"Lidl","brand":"Lidl","city":"Le Plan du Castellet","address":"2617 route des Sources, 83330 Le Plan du Castellet","lat":43.1804419,"lon":5.7743872},
{"name":"Lidl","brand":"Lidl","city":null,"address":null,"lat":48.9361013,"lon":2.6251304},
{"name":"Lidl","brand":"Lidl","city":"Vichy","address":"43 Avenue Poincaré, 03200 Vichy","lat":46.1152153,"lon":3.4379193},
{"name":"Lidl","brand":"Lidl","city":null,"address":null,"lat":45.5997985,"lon":5.235264},
{"name":"Lidl","brand":"Lidl","city":null,"address":null,"lat":49.0577165,"lon":2.0321897},
{"name":"Lidl","brand":"Lidl","city":null,"address":"23 Rue Pierre et Marie Curie","lat":49.5356074,"lon":0.9605293},
{"name":"Lidl","brand":"Lidl","city":null,"address":null,"lat":44.3679282,"lon":2.587421},
{"name":"Lidl","brand":"Lidl","city":null,"address":null,"lat":47.2832099,"lon":-1.5515589},
{"name":"Lidl","brand":"Lidl","city":null,"address":null,"lat":47.3992639,"lon":2.9232018},
{"name":"Lidl","brand":"Lidl","city":null,"address":null,"lat":45.6830116,"lon":-0.2990047},
{"name":"Lidl","brand":"Lidl","city":null,"address":null,"lat":48.383803,"lon":-4.3513231},
{"name":"Lidl","brand":"Lidl","city":null,"address":null,"lat":47.9021532,"lon":1.8565862},
{"name":"Lidl","brand":"Lidl","city":"Castelsarrasin","address":"1 Impasse de l'Hippodrome, 82100 Castelsarrasin","lat":44.0582121,"lon":1.097819},
{"name":"Lidl","brand":"Lidl","city":null,"address":null,"lat":43.5815921,"lon":3.8468341},
{"name":"Lidl","brand":"Lidl","city":null,"address":null,"lat":49.2859156,"lon":-0.1096121},
{"name":"Lidl","brand":"Lidl","city":null,"address":null,"lat":48.1845342,"lon":3.2859365},
{"name":"Lidl","brand":"Lidl","city":"Wissembourg","address":"2 Allée des Peuplier, 67160 Wissembourg","lat":49.0303557,"lon":7.9544633},
{"name":"Lidl","brand":"Lidl","city":null,"address":null,"lat":47.2559854,"lon":6.0190896},
{"name":"Lidl","brand":"Lidl","city":"Saint-Yrieix-la-Perche","address":"4 Impasse du Clos de Bart, 87500 Saint-Yrieix-la-Perche","lat":45.5209264,"lon":1.2088602},
{"name":"Lidl","brand":"Lidl","city":null,"address":null,"lat":44.5438482,"lon":-0.2599559},
{"name":"Lidl","brand":"Lidl","city":null,"address":null,"lat":43.1061331,"lon":-0.0397856},
{"name":"Lidl","brand":"Lidl","city":null,"address":"Rue des Déportés","lat":50.4055046,"lon":3.6669515},
{"name":"Lidl","brand":"Lidl","city":"Saint-Brice-Courcelles","address":"2 Rue de la Croix Mauricienne, 51370 Saint-Brice-Courcelles","lat":49.2783758,"lon":4.0022694},
{"name":"Lidl","brand":"Lidl","city":null,"address":null,"lat":48.175728,"lon":0.4329642},
{"name":"Lidl","brand":"Lidl","city":"Yvetot","address":"Boulevard du Commandant Serge Bichot, 76190 Yvetot","lat":49.6075864,"lon":0.7665854},
{"name":"Lidl","brand":"Lidl","city":"Saint-Léonard","address":"161 Route du Havre, 76400 Saint-Léonard","lat":49.7423257,"lon":0.3706032},
{"name":"Lidl","brand":"Lidl","city":null,"address":null,"lat":43.4605057,"lon":5.4811362},
{"name":"Lidl","brand":"Lidl","city":null,"address":null,"lat":47.1876715,"lon":5.3853291},
{"name":"Lidl","brand":"Lidl","city":null,"address":null,"lat":43.2555835,"lon":6.5323772},
{"name":"Lidl","brand":"Lidl","city":"Pont-Sainte-Maxence","address":"1227 Rue Louis Pasteur, 60700 Pont-Sainte-Maxence","lat":49.30717,"lon":2.596573},
{"name":"Lidl","brand":"Lidl","city":null,"address":null,"lat":47.302323,"lon":5.1150583},
{"name":"Lidl","brand":"Lidl","city":null,"address":null,"lat":44.1191274,"lon":4.8419414},
{"name":"Lidl","brand":"Lidl","city":null,"address":null,"lat":45.437827,"lon":1.3979392},
{"name":"Lidl","brand":"Lidl","city":"Golbey","address":"63 Rue Général Leclerc, 88190 Golbey","lat":48.1903046,"lon":6.4250448},
{"name":"Lidl","brand":"Lidl","city":null,"address":null,"lat":42.6862771,"lon":2.9222786},
{"name":"Lidl","brand":"Lidl","city":"Le Vigan","address":"Route du Pont de la Croix, 30120 Le Vigan","lat":43.9882729,"lon":3.6141393},
{"name":"Lidl","brand":"Lidl","city":"Mauguio","address":"Avenue de Baillargues, 34130 Mauguio","lat":43.6249557,"lon":4.0113915},
{"name":"Lidl","brand":"Lidl","city":null,"address":null,"lat":49.2765176,"lon":1.7639229},
{"name":"Lidl","brand":"Lidl","city":null,"address":null,"lat":44.6149979,"lon":-1.0765136},
{"name":"Lidl","brand":"Lidl","city":null,"address":null,"lat":48.7067392,"lon":7.3724097},
{"name":"Lidl","brand":"Lidl","city":"Montpellier","address":"9 Place Corot, 34000 Montpellier","lat":43.6178871,"lon":3.8447423},
{"name":"Lidl","brand":"Lidl","city":null,"address":null,"lat":46.6087914,"lon":-1.6659131},
{"name":"Lidl","brand":"Lidl","city":null,"address":null,"lat":43.6033456,"lon":3.8899352},
{"name":"Lidl","brand":"Lidl","city":null,"address":null,"lat":43.6022852,"lon":3.8689636},
{"name":"Lidl","brand":"Lidl","city":null,"address":null,"lat":43.632126,"lon":3.4391625},
{"name":"Lidl","brand":"Lidl","city":null,"address":null,"lat":43.5817091,"lon":3.9236807},
{"name":"Lidl","brand":"Lidl","city":null,"address":null,"lat":50.4796225,"lon":2.9642442},
{"name":"Lidl","brand":"Lidl","city":null,"address":"Rue Favreuil","lat":50.692275,"lon":3.1501678},
{"name":"Lidl","brand":"Lidl","city":null,"address":null,"lat":48.7314124,"lon":4.5987487},
{"name":"Lidl","brand":"Lidl","city":null,"address":null,"lat":47.0825541,"lon":5.4889834},
{"name":"Lidl","brand":"Lidl","city":null,"address":null,"lat":49.4164971,"lon":6.1385751},
{"name":"Lidl","brand":"Lidl","city":null,"address":null,"lat":45.7454914,"lon":4.723071},
{"name":"Lidl","brand":"Lidl","city":null,"address":null,"lat":49.9379953,"lon":4.6410878},
{"name":"Lidl","brand":"Lidl","city":null,"address":null,"lat":48.7090445,"lon":6.1667098},
{"name":"Lidl","brand":"Lidl","city":null,"address":null,"lat":43.7067491,"lon":1.8017225},
{"name":"Lidl","brand":"Lidl","city":null,"address":null,"lat":47.3469247,"lon":6.3380908},
{"name":"Lidl","brand":"Lidl","city":null,"address":null,"lat":47.0225562,"lon":4.8313729},
{"name":"Lidl","brand":"Lidl","city":null,"address":null,"lat":43.463053,"lon":6.6318958},
{"name":"Lidl","brand":"Lidl","city":null,"address":null,"lat":48.7627673,"lon":0.660493},
{"name":"Lidl","brand":"Lidl","city":null,"address":null,"lat":43.3005038,"lon":5.4760445},
{"name":"Lidl","brand":"Lidl","city":null,"address":"346 Rue Jules Guesde","lat":50.6610526,"lon":3.2000857},
{"name":"Lidl","brand":"Lidl","city":null,"address":null,"lat":45.6060174,"lon":4.7726295},
{"name":"Lidl","brand":"Lidl","city":"Villenave-d'Ornon","address":"75 route de Léognan, 33140 Villenave-d'Ornon","lat":44.7660927,"lon":-0.5811309},
{"name":"Lidl","brand":"Lidl","city":null,"address":null,"lat":48.4816257,"lon":-2.4992838},
{"name":"Lidl","brand":"Lidl","city":null,"address":null,"lat":48.5556788,"lon":-2.5449987},
{"name":"Lidl","brand":"Lidl","city":null,"address":null,"lat":49.2078069,"lon":3.5008361},
{"name":"Lidl","brand":"Lidl","city":"Saint-Marcellin","address":"Avenue de Romans, 38160 Saint-Marcellin","lat":45.1485539,"lon":5.3124753},
{"name":"Lidl","brand":"Lidl","city":null,"address":null,"lat":48.9140032,"lon":2.3002332},
{"name":"Lidl","brand":"Lidl","city":"Aixe-sur-Vienne","address":"30 Avenue Jean Rebier, 87700 Aixe-sur-Vienne","lat":45.8027059,"lon":1.1519694},
{"name":"Lidl","brand":"Lidl","city":null,"address":null,"lat":47.7480986,"lon":7.3506838},
{"name":"Lidl","brand":"Lidl","city":null,"address":null,"lat":47.3480287,"lon":0.6503035},
{"name":"Lidl","brand":"Lidl","city":null,"address":"Rue Stein Boutemy","lat":50.6678381,"lon":3.2077895},
{"name":"Lidl","brand":"Lidl","city":null,"address":null,"lat":43.8250032,"lon":4.3257319},
{"name":"Lidl","brand":"Lidl","city":null,"address":null,"lat":45.742865,"lon":4.8205741},
{"name":"Lidl","brand":"Lidl","city":null,"address":null,"lat":43.8234308,"lon":4.3667486},
{"name":"Lidl","brand":"Lidl","city":null,"address":"Quai Gustave Lamarle","lat":50.9394106,"lon":1.8701321},
{"name":"Lidl","brand":"Lidl","city":null,"address":null,"lat":48.5323066,"lon":7.4999694},
{"name":"Lidl","brand":"Lidl","city":null,"address":null,"lat":48.8052964,"lon":2.2926526},
{"name":"Lidl","brand":"Lidl","city":null,"address":null,"lat":44.3983281,"lon":0.3012843},
{"name":"Lidl","brand":"Lidl","city":null,"address":null,"lat":49.3102457,"lon":-1.2547189},
{"name":"Lidl","brand":"Lidl","city":null,"address":null,"lat":43.9501513,"lon":0.3707966},
{"name":"Lidl","brand":"Lidl","city":null,"address":null,"lat":44.8600006,"lon":-0.6752696},
{"name":"Lidl","brand":"Lidl","city":null,"address":"Rue Maurice Richard","lat":50.3549006,"lon":3.1236008},
{"name":"Lidl","brand":"Lidl","city":"Digne-les-Bains","address":"Route de Marseille, 04000 Digne-les-Bains","lat":44.070157,"lon":6.1801595},
{"name":"Lidl","brand":"Lidl","city":null,"address":null,"lat":48.9628994,"lon":2.0593994},
{"name":"Lidl","brand":"Lidl","city":"Sotteville-lès-Rouen","address":"Rue François Arago, 76300 Sotteville-lès-Rouen","lat":49.4222147,"lon":1.1057611},
{"name":"Lidl","brand":"Lidl","city":null,"address":null,"lat":47.2418081,"lon":-2.155381},
{"name":"Lidl","brand":"Lidl","city":null,"address":"Rue Ernest Sarron","lat":48.9519887,"lon":2.667265},
{"name":"Lidl","brand":"Lidl","city":null,"address":"Avenue du Maréchal de Lattre de Tassigny, 63150","lat":45.590058,"lon":2.7613006},
{"name":"Lidl","brand":"Lidl","city":"La Châtre","address":"39 Avenue d'Auvergne, 36400 La Châtre","lat":46.5831388,"lon":1.9999925},
{"name":"Lidl","brand":"Lidl","city":null,"address":null,"lat":48.1148125,"lon":-1.6779214},
{"name":"Lidl","brand":"Lidl","city":null,"address":null,"lat":48.7537365,"lon":5.5962932},
{"name":"Lidl","brand":"Lidl","city":null,"address":"Boulevard Louise Michel","lat":50.3549226,"lon":3.2841539},
{"name":"Lidl","brand":"Lidl","city":null,"address":null,"lat":43.5342578,"lon":1.3597696},
{"name":"Lidl","brand":"Lidl","city":null,"address":null,"lat":43.6289345,"lon":-1.3920158},
{"name":"Lidl","brand":"Lidl","city":null,"address":null,"lat":43.4478024,"lon":6.4730454},
{"name":"Lidl","brand":"Lidl","city":null,"address":null,"lat":43.8643502,"lon":4.4367725},
{"name":"Lidl","brand":"Lidl","city":"Harfleur","address":"12 Rue Friedrich Engels, 76700 Harfleur","lat":49.5132595,"lon":0.1960824},
{"name":"Lidl","brand":"Lidl","city":null,"address":null,"lat":46.9544719,"lon":2.0111628},
{"name":"Lidl","brand":"Lidl","city":null,"address":null,"lat":48.0395013,"lon":-1.6806446},
{"name":"Lidl","brand":"Lidl","city":"Cluses","address":"350 Avenue de Châtillon, 74300 Cluses","lat":46.0677314,"lon":6.583537},
{"name":"Lidl","brand":"Lidl","city":null,"address":null,"lat":45.7515632,"lon":4.8995559},
{"name":"Lidl","brand":"Lidl","city":null,"address":null,"lat":48.6054528,"lon":7.7052698},
{"name":"Lidl","brand":"Lidl","city":null,"address":null,"lat":43.321471,"lon":-0.3784976},
{"name":"Lidl","brand":"Lidl","city":null,"address":"24/28 Rue Labrouste, 75015","lat":48.8352363,"lon":2.3087869},
{"name":"Lidl","brand":"Lidl","city":null,"address":null,"lat":49.1918266,"lon":6.6827365},
{"name":"Lidl","brand":"Lidl","city":null,"address":null,"lat":48.3677285,"lon":5.7044512},
{"name":"Lidl","brand":"Lidl","city":null,"address":"1","lat":49.2685188,"lon":4.0378149},
{"name":"Lidl","brand":"Lidl","city":null,"address":null,"lat":45.95089,"lon":-0.5026621},
{"name":"Lidl","brand":"Lidl","city":null,"address":null,"lat":48.9038909,"lon":2.3314231},
{"name":"Lidl","brand":"Lidl","city":null,"address":null,"lat":43.332349,"lon":5.1243158},
{"name":"Lidl","brand":"Lidl","city":"Elne","address":"1, 66200 Elne","lat":42.6047577,"lon":2.9795344},
{"name":"Lidl","brand":"Lidl","city":null,"address":null,"lat":48.8871367,"lon":2.2083858},
{"name":"Lidl","brand":"Lidl","city":"Moult-Chicheboville","address":"146 Lieu-dit La Haye au Blanc, 14370 Moult-Chicheboville","lat":49.1190945,"lon":-0.1867405},
{"name":"Lidl","brand":"Lidl","city":null,"address":null,"lat":43.410938,"lon":3.7102593},
{"name":"Lidl","brand":"Lidl","city":null,"address":null,"lat":48.7783556,"lon":1.2052147},
{"name":"Lidl","brand":"Lidl","city":null,"address":null,"lat":45.9661929,"lon":5.3393487},
{"name":"Lidl","brand":"Lidl","city":null,"address":null,"lat":43.5870338,"lon":2.1869316},
{"name":"Lidl","brand":"Lidl","city":"Castres","address":"Chemin de Penchenery, 81100 Castres","lat":43.5964688,"lon":2.2649492},
{"name":"Lidl","brand":"Lidl","city":null,"address":null,"lat":43.8249283,"lon":5.0605224},
{"name":"Lidl","brand":"Lidl","city":null,"address":null,"lat":48.3042096,"lon":4.094187},
{"name":"Lidl","brand":"Lidl","city":null,"address":null,"lat":47.8278348,"lon":5.8976659},
{"name":"Lidl","brand":"Lidl","city":null,"address":null,"lat":46.4062829,"lon":-0.2227666},
{"name":"Lidl","brand":"Lidl","city":null,"address":null,"lat":43.9056561,"lon":-0.4752834},
{"name":"Lidl","brand":"Lidl","city":null,"address":null,"lat":44.6508684,"lon":-1.1502762},
{"name":"Lidl","brand":"Lidl","city":null,"address":null,"lat":49.360299,"lon":0.8150671},
{"name":"Lidl","brand":"Lidl","city":null,"address":"Place Saint-Auguste","lat":50.4502172,"lon":2.841099},
{"name":"Lidl","brand":"Lidl","city":null,"address":null,"lat":44.0799083,"lon":4.9818355},
{"name":"Lidl","brand":"Lidl","city":null,"address":"Rue de Bruxelles","lat":50.1335284,"lon":3.4112596},
{"name":"Lidl","brand":"Lidl","city":null,"address":"Rue du Général Delestraint","lat":50.3360668,"lon":3.2501024},
{"name":"Lidl","brand":"Lidl","city":null,"address":null,"lat":44.0318659,"lon":1.3755524},
{"name":"Lidl","brand":"Lidl","city":null,"address":"41 Boulevard Gabriel Péri","lat":48.9652638,"lon":2.2622402},
{"name":"Lidl","brand":"Lidl","city":null,"address":null,"lat":43.2494709,"lon":5.5510317},
{"name":"Lidl","brand":"Lidl","city":"Loos","address":"2-4 Boulevard de la République, 59120 Loos","lat":50.61268,"lon":3.012538},
{"name":"Lidl","brand":"Lidl","city":"Ahuy","address":"Rue du Général Touzet du Vigier, 21121 Ahuy","lat":47.3547298,"lon":5.036174},
{"name":"Lidl","brand":"Lidl","city":"Loos-en-Gohelle","address":"Route de Béthune, 62750 Loos-en-Gohelle","lat":50.448462,"lon":2.7953854},
{"name":"Nom inconnu","brand":"Lidl","city":null,"address":null,"lat":48.0261973,"lon":-4.5546236},
{"name":"Lidl","brand":"Lidl","city":null,"address":null,"lat":43.3687959,"lon":5.6519996},
{"name":"Lidl","brand":"Lidl","city":null,"address":"1 Rue Daniel Mayer","lat":47.4192065,"lon":0.7164195},
{"name":"Lidl","brand":"Lidl","city":"Pont-à-Marcq","address":"21 Avenue du Général de Gaulle, 59710 Pont-à-Marcq","lat":50.5179085,"lon":3.1205036},
{"name":"Lidl","brand":"Lidl","city":null,"address":"14 Rue des Coutures","lat":48.4186869,"lon":-1.7505304},
{"name":"Lidl","brand":"Lidl","city":"Bellac","address":"9 Avenue René Coty, 87300 Bellac","lat":46.1287663,"lon":1.055105},
{"name":"Lidl","brand":"Lidl","city":null,"address":null,"lat":47.8154698,"lon":6.3916491},
{"name":"Lidl","brand":"Lidl","city":"Saint Hilaire du Harcouët","address":"50600 Saint Hilaire du Harcouët","lat":48.5662828,"lon":-1.0664534},
{"name":"Lidl","brand":"Lidl","city":null,"address":null,"lat":45.396095,"lon":4.2926303},
{"name":"Lidl","brand":"Lidl","city":null,"address":null,"lat":46.6837915,"lon":0.2531444},
{"name":"Lidl","brand":"Lidl","city":null,"address":null,"lat":42.7746064,"lon":3.0154618},
{"name":"Lidl","brand":"Lidl","city":"Pont-Saint-Esprit","address":"100 Chemin de Saint-Pancrace, 30130 Pont-Saint-Esprit","lat":44.2672465,"lon":4.6353675},
{"name":"Lidl","brand":"Lidl","city":"Mèze","address":"345 Chemin du Romany, 34140 Mèze","lat":43.4322711,"lon":3.5968023},
{"name":"Lidl","brand":"Lidl","city":null,"address":null,"lat":48.1733912,"lon":7.5469514},
{"name":"Lidl","brand":"Lidl","city":null,"address":null,"lat":48.8948487,"lon":2.4879736},
{"name":"Lidl","brand":"Lidl","city":null,"address":null,"lat":47.7501273,"lon":7.3072101},
{"name":"Lidl","brand":"Lidl","city":null,"address":null,"lat":48.4580205,"lon":6.7399522},
{"name":"Lidl","brand":"Lidl","city":null,"address":null,"lat":42.629486,"lon":2.76143},
{"name":"Lidl","brand":"Lidl","city":null,"address":null,"lat":49.0574047,"lon":-1.4382819},
{"name":"Lidl","brand":"Lidl","city":"Ayguesvives","address":"RD 813, 31450 Ayguesvives","lat":43.4506338,"lon":1.5933588},
{"name":"Lidl","brand":"Lidl","city":null,"address":null,"lat":48.5788333,"lon":2.2961661},
{"name":"Lidl","brand":"Lidl","city":null,"address":null,"lat":48.428849,"lon":1.4623421},
{"name":"Lidl","brand":"Lidl","city":null,"address":null,"lat":49.1982637,"lon":5.9950284},
{"name":"Lidl","brand":"Lidl","city":null,"address":null,"lat":49.1910888,"lon":-0.3016996},
{"name":"Lidl","brand":"Lidl","city":null,"address":null,"lat":44.7716429,"lon":-1.1176108},
{"name":"Lidl","brand":"Lidl","city":"Gap","address":"90 Avenue d'Embrun, 05000 Gap","lat":44.5679337,"lon":6.1012724},
{"name":"Lidl","brand":"Lidl","city":null,"address":"2 Allée Louis Lumière","lat":49.2210926,"lon":2.1297396},
{"name":"Lidl","brand":"Lidl","city":"Dreux","address":"122 Avenue du Général Leclerc, 28100 Dreux","lat":48.7425492,"lon":1.3896703},
{"name":"Lidl","brand":"Lidl","city":null,"address":"Avenue Antoine de Saint-Exupéry","lat":50.9475171,"lon":1.9179462},
{"name":"Lidl","brand":"Lidl","city":null,"address":null,"lat":47.9032639,"lon":7.2289618},
{"name":"Lidl","brand":"Lidl","city":null,"address":null,"lat":48.9661633,"lon":2.3652218},
{"name":"Lidl","brand":"Lidl","city":null,"address":null,"lat":48.5762859,"lon":-0.3728056},
{"name":"Lidl","brand":"Lidl","city":"Saleilles","address":"Route de Saleilles, 66280 Saleilles","lat":42.6609724,"lon":2.9522258},
{"name":"Lidl","brand":"Lidl","city":null,"address":null,"lat":43.7658866,"lon":7.1981913},
{"name":"Lidl","brand":"Lidl","city":"Saint-Paul-lès-Dax","address":"2104 Avenue de la Résistance, 40990 Saint-Paul-lès-Dax","lat":43.7272332,"lon":-1.0765263},
{"name":"Lidl","brand":"Lidl","city":null,"address":null,"lat":45.9384912,"lon":-1.308009},
{"name":"Lidl","brand":"Lidl","city":null,"address":null,"lat":43.2992266,"lon":-0.3048481},
{"name":"Lidl","brand":"Lidl","city":null,"address":"43","lat":49.1178305,"lon":6.2489777},
{"name":"Lidl","brand":"Lidl","city":null,"address":null,"lat":48.8694213,"lon":2.5931508},
{"name":"Lidl","brand":"Lidl","city":null,"address":null,"lat":43.2900318,"lon":-0.4043282},
{"name":"Lidl","brand":"Lidl","city":null,"address":null,"lat":48.762104,"lon":2.4476755},
{"name":"Lidl","brand":"Lidl","city":"Aubagne","address":"55 Chemin du Merlançon, 13400 Aubagne","lat":43.2839656,"lon":5.581343},
{"name":"Lidl","brand":"Lidl","city":null,"address":null,"lat":48.6779264,"lon":2.2002131},
{"name":"Lidl","brand":"Lidl","city":null,"address":"4 Rue de la Ferme Saint-Ladre","lat":49.1002515,"lon":2.5267909},
{"name":"Lidl","brand":"Lidl","city":null,"address":"Route du Chapeau Rouge","lat":51.0221382,"lon":2.4353013},
{"name":"Lidl","brand":"Lidl","city":null,"address":"Rue Albert Vanderhaghen","lat":50.6110126,"lon":2.9728209},
{"name":"Lidl","brand":"Lidl","city":null,"address":null,"lat":48.8621132,"lon":2.3848859},
{"name":"Lidl","brand":"Lidl","city":null,"address":null,"lat":49.0200316,"lon":-0.0373606},
{"name":"Lidl","brand":"Lidl","city":null,"address":null,"lat":45.7265719,"lon":4.2269596},
{"name":"Lidl","brand":"Lidl","city":"Le Grand-Quevilly","address":"Rue Paul Vaillant Couturier, 76120 Le Grand-Quevilly","lat":49.4197408,"lon":1.0483629},
{"name":"Lidl","brand":"Lidl","city":null,"address":null,"lat":46.7861432,"lon":1.6594592},
{"name":"Lidl","brand":"Lidl","city":null,"address":null,"lat":45.5379776,"lon":0.6678035},
{"name":"Lidl","brand":"Lidl","city":null,"address":null,"lat":49.2747776,"lon":-0.6862815},
{"name":"Lidl","brand":"Lidl","city":null,"address":"Route de Coutances, 50180","lat":49.1107833,"lon":-1.1317282},
{"name":"Lidl","brand":"Lidl","city":"Toulon","address":"539 Rue Henri Sainte-Claire Deville, 83100 Toulon","lat":43.128992,"lon":5.9785962},
{"name":"Lidl","brand":"Lidl","city":null,"address":null,"lat":43.446979,"lon":-1.574119},
{"name":"Lidl","brand":"Lidl","city":null,"address":null,"lat":44.1153148,"lon":0.889723},
{"name":"Lidl","brand":"Lidl","city":"Cambrai","address":"68 Avenue de Valenciennes, 59400 Cambrai","lat":50.1806619,"lon":3.2483521},
{"name":"Lidl","brand":"Lidl","city":null,"address":null,"lat":48.6900343,"lon":5.9019472},
{"name":"Lidl","brand":"Lidl","city":null,"address":null,"lat":47.0834957,"lon":2.3850767},
{"name":"Lidl","brand":"Lidl","city":"Mayenne","address":"21 Rue Louis Blériot, 53100 Mayenne","lat":48.2976911,"lon":-0.6134013},
{"name":"Lidl","brand":"Lidl","city":"Soustons","address":"Rue Philip, 40140 Soustons","lat":43.7503909,"lon":-1.3380787},
{"name":"Lidl","brand":"Lidl","city":"Lessay","address":"15 Rue du Ferrage, 50430 Lessay","lat":49.2129018,"lon":-1.5267684},
{"name":"Lidl","brand":"Lidl","city":"Villeneuve-la-Garenne","address":"210 Boulevard Gallieni, 92390 Villeneuve-la-Garenne","lat":48.9348823,"lon":2.3332671},
{"name":"Lidl","brand":"Lidl","city":"Saint-Mihiel","address":"Rue Docteur Vuillaume, 55300 Saint-Mihiel","lat":48.8963688,"lon":5.5372207},
{"name":"Lidl","brand":"Lidl","city":null,"address":null,"lat":42.9490795,"lon":1.6271962},
{"name":"Lidl","brand":"Lidl","city":"Corbie","address":"20 Rue Léon Curé, 80800 Corbie","lat":49.9118289,"lon":2.5038741},
{"name":"Lidl","brand":"Lidl","city":null,"address":null,"lat":43.2667983,"lon":3.2825477},
{"name":"Lidl","brand":"Lidl","city":null,"address":null,"lat":47.4441269,"lon":-0.5033798},
{"name":"Lidl","brand":"Lidl","city":null,"address":null,"lat":48.9162307,"lon":6.061457},
{"name":"Lidl","brand":"Lidl","city":null,"address":null,"lat":43.8544219,"lon":0.6639429},
{"name":"Lidl","brand":"Lidl","city":"Corbeil-Essonnes","address":"29 Boulevard John Fitzgerald Kennedy, 91100 Corbeil-Essonnes","lat":48.59115,"lon":2.4782161},
{"name":"Lidl","brand":"Lidl","city":null,"address":"24 des Huloux","lat":47.9430431,"lon":-2.3886147},
{"name":"Lidl","brand":"Lidl","city":null,"address":"125 Rue de la Liberté","lat":49.2413479,"lon":2.4684285},
{"name":"Lidl","brand":"Lidl","city":null,"address":null,"lat":48.7113403,"lon":2.3063855},
{"name":"Lidl","brand":"Lidl","city":null,"address":null,"lat":43.3361917,"lon":3.1831064},
{"name":"Lidl","brand":"Lidl","city":null,"address":null,"lat":44.4093805,"lon":-1.1603437},
{"name":"Lidl","brand":"Lidl","city":null,"address":null,"lat":48.7332162,"lon":2.4069817},
{"name":"Lidl","brand":"Lidl","city":null,"address":null,"lat":48.0678934,"lon":-0.8039882},
{"name":"Lidl","brand":"Lidl","city":null,"address":"79 Avenue des Pyrénées","lat":43.8523766,"lon":0.0977778},
{"name":"Lidl","brand":"Lidl","city":null,"address":null,"lat":48.9510925,"lon":2.4882388},
{"name":"Lidl","brand":"Lidl","city":null,"address":null,"lat":49.0945648,"lon":6.7163908},
{"name":"Lidl","brand":"Lidl","city":null,"address":null,"lat":48.5572435,"lon":7.6921393},
{"name":"Lidl","brand":"Lidl","city":null,"address":null,"lat":49.2254645,"lon":1.167591},
{"name":"Lidl","brand":"Lidl","city":null,"address":"120 Avenue de Bonport","lat":49.289973,"lon":1.0434732},
{"name":"Lidl","brand":"Lidl","city":null,"address":null,"lat":48.7581211,"lon":2.4836022},
{"name":"Lidl","brand":"Lidl","city":"Croissy-Beaubourg","address":"Avenue de la Soubriarde, 77183 Croissy-Beaubourg","lat":48.8288602,"lon":2.6413307},
{"name":"Lidl","brand":"Lidl","city":"Gannat","address":"12 Avenue des Capucins, 03800 Gannat","lat":46.1047401,"lon":3.1973412},
{"name":"Lidl","brand":"Lidl","city":null,"address":null,"lat":47.2512919,"lon":-1.384528},
{"name":"Lidl","brand":"Lidl","city":null,"address":"Rue du Docteur Paul Bonduelle","lat":50.4540916,"lon":2.5452428},
{"name":"Lidl","brand":"Lidl","city":"Clichy","address":"101-103 Boulevard Victor Hugo, 92110 Clichy","lat":48.9013633,"lon":2.3164772},
{"name":"Lidl","brand":"Lidl","city":null,"address":"22 Avenue de Sens","lat":48.3698241,"lon":2.8276034},
{"name":"Lidl","brand":"Lidl","city":null,"address":null,"lat":44.9215697,"lon":-0.6253848},
{"name":"Lidl","brand":"Lidl","city":null,"address":"Rue du Moulin de Bracheux","lat":49.4235385,"lon":2.1145932},
{"name":"Lidl","brand":"Lidl","city":null,"address":null,"lat":48.957353,"lon":2.914129},
{"name":"Lidl","brand":"Lidl","city":"Cherbourg-en-Cotentin","address":"Avenue de l'Amiral Lemonnier, 50100 Cherbourg-en-Cotentin","lat":49.6345204,"lon":-1.6062354},
{"name":"Lidl","brand":"Lidl","city":"Valognes","address":"56 Boulevard Division Leclerc, 50700 Valognes","lat":49.514349,"lon":-1.4820888},
{"name":"Lidl","brand":"Lidl","city":"Proville","address":"122 Avenue de Paris, 59267 Proville","lat":50.1563052,"lon":3.2216006},
{"name":"Lidl","brand":"Lidl","city":null,"address":null,"lat":47.4235281,"lon":0.6563214},
{"name":"Lidl","brand":"Lidl","city":"Le Pont-de-Beauvoisin","address":"43 Impasse Étienne Laubin, 73330 Le Pont-de-Beauvoisin","lat":45.5311329,"lon":5.6904759},
{"name":"Lidl","brand":"Lidl","city":"Serres-Castet","address":"64121 Serres-Castet","lat":43.3599052,"lon":-0.3857363},
{"name":"Lidl","brand":"Lidl","city":null,"address":null,"lat":44.3622602,"lon":2.5680485},
{"name":"Lidl","brand":"Lidl","city":"Drusenheim","address":"3 Route de Herrlisheim, 67410 Drusenheim","lat":48.754244,"lon":7.9414053},
{"name":"Lidl","brand":"Lidl","city":null,"address":null,"lat":44.1931581,"lon":0.6154395},
{"name":"Lidl","brand":"Lidl","city":"Sète","address":"Rue de la Chasse aux Papillons, 34200 Sète","lat":43.400166,"lon":3.6580359},
{"name":"Lidl","brand":"Lidl","city":null,"address":null,"lat":48.0257206,"lon":0.17961},
{"name":"Lidl","brand":"Lidl","city":"Luneray","address":"Rue de la République, Luneray","lat":49.8319673,"lon":0.9169547},
{"name":"Lidl","brand":"Lidl","city":null,"address":null,"lat":49.8932882,"lon":1.0770036},
{"name":"Lidl","brand":"Lidl","city":null,"address":null,"lat":49.4801592,"lon":1.7341473},
{"name":"Lidl","brand":"Lidl","city":null,"address":"90 Boulevard Jourdan, 75014","lat":48.8229679,"lon":2.3277283},
{"name":"Lidl","brand":"Lidl","city":null,"address":null,"lat":45.7854608,"lon":4.795479},
{"name":"Lidl","brand":"Lidl","city":null,"address":null,"lat":44.6567795,"lon":-0.3652691},
{"name":"Lidl","brand":"Lidl","city":null,"address":"182 Avenue Marcel Dassault","lat":49.4460435,"lon":2.0962433},
{"name":"Lidl","brand":"Lidl","city":null,"address":"45 Avenue de Bigos","lat":43.6521541,"lon":3.960202},
{"name":"Lidl","brand":"Lidl","city":"Béziers","address":"Chemin de Badones, 34500 Béziers","lat":43.3551725,"lon":3.2515066},
{"name":"Lidl","brand":"Lidl","city":null,"address":null,"lat":48.7143547,"lon":2.573271},
{"name":"Lidl","brand":"Lidl","city":null,"address":null,"lat":49.0732351,"lon":2.0808134},
{"name":"Lidl","brand":"Lidl","city":"Saint-Médard-en-Jalles","address":"33160 Saint-Médard-en-Jalles","lat":44.8862451,"lon":-0.6923619},
{"name":"Lidl","brand":"Lidl","city":null,"address":null,"lat":45.9778428,"lon":4.7395691},
{"name":"Lidl","brand":"Lidl","city":null,"address":null,"lat":48.6154277,"lon":6.0890199},
{"name":"Lidl","brand":"Lidl","city":"Sisteron","address":"30 Allée des Genêts, 04200 Sisteron","lat":44.2349592,"lon":5.9114321},
{"name":"Lidl","brand":"Lidl","city":null,"address":null,"lat":48.9062723,"lon":-0.2110351},
{"name":"Lidl","brand":"Lidl","city":null,"address":null,"lat":47.9102872,"lon":-2.1244551},
{"name":"Lidl","brand":"Lidl","city":null,"address":null,"lat":45.466286,"lon":4.3852494},
{"name":"Lidl","brand":"Lidl","city":"Hellemmes-Lille","address":"Rue Jacquard, Hellemmes-Lille","lat":50.6334279,"lon":3.1031823},
{"name":"Lidl","brand":"Lidl","city":null,"address":null,"lat":47.8093326,"lon":-2.3943852},
{"name":"Lidl","brand":"Lidl","city":null,"address":"Rue Jean Jaurès","lat":50.376644,"lon":3.5188669},
{"name":"Lidl","brand":"Lidl","city":null,"address":null,"lat":48.6717084,"lon":5.8904062},
{"name":"Lidl","brand":"Lidl","city":"Châteaurenard","address":"4 Avenue de la Chaffine, 13160 Châteaurenard","lat":43.8884217,"lon":4.8374908},
{"name":"Lidl","brand":"Lidl","city":null,"address":null,"lat":42.8520545,"lon":3.0345324},
{"name":"Lidl","brand":"Lidl","city":null,"address":null,"lat":43.6506857,"lon":3.5129772},
{"name":"Lidl","brand":"Lidl","city":null,"address":"Rue d'Armentières","lat":50.7517852,"lon":2.9851512},
{"name":"Lidl","brand":"Lidl","city":null,"address":"44 Faubourg Saint-Firmin","lat":49.6625785,"lon":3.3513598},
{"name":"Lidl","brand":"Lidl","city":null,"address":null,"lat":50.2799134,"lon":2.7365614},
{"name":"Lidl","brand":"Lidl","city":null,"address":null,"lat":48.5493092,"lon":2.4099344},
{"name":"Lidl","brand":"Lidl","city":null,"address":null,"lat":43.4542015,"lon":1.994559},
{"name":"Lidl","brand":"Lidl","city":"Sarreguemines","address":"16 Rue des Ormes, 57200 Sarreguemines","lat":49.1173563,"lon":7.0882138},
{"name":"Lidl","brand":"Lidl","city":"Pontault-Combault","address":"77340 Pontault-Combault","lat":48.7774895,"lon":2.5860345},
{"name":"Lidl","brand":"Lidl","city":null,"address":"Rue Paul Vaillant-Couturier","lat":50.3384052,"lon":3.5230946},
{"name":"Lidl","brand":"Lidl","city":null,"address":null,"lat":45.5672889,"lon":5.429557},
{"name":"Lidl","brand":"Lidl","city":null,"address":null,"lat":43.419145,"lon":3.2274671},
{"name":"Lidl","brand":"Lidl","city":null,"address":null,"lat":43.3873095,"lon":3.421024},
{"name":"Lidl","brand":"Lidl","city":null,"address":null,"lat":47.6678963,"lon":-2.4484143},
{"name":"Lidl","brand":"Lidl","city":null,"address":"Rue du Général de Gaulle","lat":46.1967372,"lon":-1.357134},
{"name":"Lidl","brand":"Lidl","city":null,"address":"29200","lat":48.3858332,"lon":-4.5320119},
{"name":"Lidl","brand":"Lidl","city":null,"address":null,"lat":48.9114098,"lon":2.5139842},
{"name":"Lidl","brand":"Lidl","city":"Charmes","address":"Rue René Didierjean, 88130 Charmes","lat":48.3700935,"lon":6.2807807},
{"name":"Lidl","brand":"Lidl","city":null,"address":"Rue de Lumbres","lat":50.7326458,"lon":2.2502116},
{"name":"Lidl","brand":"Lidl","city":null,"address":null,"lat":46.6405403,"lon":1.0691472},
{"name":"Lidl","brand":"Lidl","city":null,"address":null,"lat":43.3279722,"lon":6.6119014},
{"name":"Lidl","brand":"Lidl","city":null,"address":"56","lat":49.1497457,"lon":6.1587549},
{"name":"Lidl","brand":"Lidl","city":"Mehun-sur-Yèvre","address":"Avenue Raoul Aladenize, 18500 Mehun-sur-Yèvre","lat":47.1413909,"lon":2.2366532},
{"name":"Lidl","brand":"Lidl","city":"Manosque","address":"35 Rue des Entrepreneurs, 04100 Manosque","lat":43.8204992,"lon":5.794326},
{"name":"Lidl","brand":"Lidl","city":null,"address":null,"lat":43.4660248,"lon":5.4651035},
{"name":"Lidl","brand":"Lidl","city":null,"address":null,"lat":47.7387859,"lon":7.2840239},
{"name":"Lidl","brand":"Lidl","city":null,"address":"Route de Lille","lat":50.5583532,"lon":3.0357726},
{"name":"Lidl","brand":"Lidl","city":null,"address":null,"lat":44.0987668,"lon":4.0824763},
{"name":"Lidl","brand":"Lidl","city":null,"address":null,"lat":45.694697,"lon":4.82457},
{"name":"Lidl","brand":"Lidl","city":null,"address":null,"lat":45.751215,"lon":4.839532},
{"name":"Lidl","brand":"Lidl","city":"Munster","address":"10 Rue des Artisans, 68140 Munster","lat":48.0421401,"lon":7.15801},
{"name":"Lidl","brand":"Lidl","city":null,"address":null,"lat":48.9334816,"lon":7.0898032},
{"name":"Lidl","brand":"Lidl","city":null,"address":"Z.A.E. du Moulin à Huile","lat":50.8628787,"lon":1.8858538},
{"name":"Lidl","brand":"Lidl","city":"Hénin-Beaumont","address":"1004 Boulevard Albert Schweitzer, 62110 Hénin-Beaumont","lat":50.4165749,"lon":2.9731081},
{"name":"Lidl","brand":"Lidl","city":"Lyon","address":"115 Rue Marius Berliet, 69008 Lyon","lat":45.7397924,"lon":4.8663054},
{"name":"Lidl","brand":"Lidl","city":null,"address":"Rue Léon Blum","lat":50.4776079,"lon":2.6797842},
{"name":"Lidl","brand":"Lidl","city":null,"address":"Rue du 18 Novembre 1869","lat":50.4485827,"lon":2.7223399},
{"name":"Lidl","brand":"Lidl","city":null,"address":"Rue Kamal Toukal","lat":50.4249194,"lon":3.0620148},
{"name":"Lidl","brand":"Lidl","city":"Toulouse","address":"82 Avenue de Lardenne, 31300 Toulouse","lat":43.5934261,"lon":1.3991419},
{"name":"Lidl","brand":"Lidl","city":null,"address":null,"lat":42.7980735,"lon":0.5977714},
{"name":"Lidl","brand":"Lidl","city":null,"address":null,"lat":44.900302,"lon":-0.21352},
{"name":"Lidl","brand":"Lidl","city":"Hénin-Beaumont","address":"535 Boulevard Salvador Allende, 62110 Hénin-Beaumont","lat":50.4186019,"lon":2.9301766},
{"name":"Lidl","brand":"Lidl","city":"La Roche-sur-Foron","address":"397 Avenue Charles de Gaulle, 74800 La Roche-sur-Foron","lat":46.0696449,"lon":6.3081268},
{"name":"Lidl","brand":"Lidl","city":null,"address":null,"lat":48.3996473,"lon":7.4648189},
{"name":"Lidl","brand":"Lidl","city":null,"address":null,"lat":43.3485247,"lon":-1.7712011},
{"name":"Lidl","brand":"Lidl","city":"Rochefort-du-Gard","address":"30650 Rochefort-du-Gard","lat":43.9576301,"lon":4.7372878},
{"name":"Lidl","brand":"Lidl","city":null,"address":null,"lat":49.3713743,"lon":6.1652221},
{"name":"Lidl","brand":"Lidl","city":null,"address":null,"lat":43.3006293,"lon":1.9541828},
{"name":"Lidl","brand":"Lidl","city":null,"address":null,"lat":48.0760767,"lon":-2.2875889},
{"name":"Lidl","brand":"Lidl","city":null,"address":"Allée Denis Papin","lat":48.7006339,"lon":2.6036557},
{"name":"Lidl","brand":"Lidl","city":"Anthy-sur-Léman","address":"37 Avenue du Pré Robert Sud, 74200 Anthy-sur-Léman","lat":46.3494219,"lon":6.4333853},
{"name":"Lidl","brand":"Lidl","city":null,"address":null,"lat":48.1287827,"lon":7.3618012},
{"name":"Lidl","brand":"Lidl","city":null,"address":null,"lat":48.8191165,"lon":6.7242471},
{"name":"Lidl","brand":"Lidl","city":"Chaumont","address":"6 Route de Brottes, 52000 Chaumont","lat":48.0915811,"lon":5.143797},
{"name":"Lidl","brand":"Lidl","city":null,"address":"14","lat":49.2714205,"lon":4.0698949},
{"name":"Lidl","brand":"Lidl","city":null,"address":null,"lat":43.4218362,"lon":5.2302741},
{"name":"Lidl","brand":"Lidl","city":"Lomme","address":"83 Rue de l'Égalité, 59160 Lomme","lat":50.6317988,"lon":3.0004296},
{"name":"Lidl","brand":"Lidl","city":null,"address":null,"lat":49.6889068,"lon":2.788006},
{"name":"Lidl","brand":"Lidl","city":"Saint-Martin-d'Hères","address":"17 Rue des Glairons, 38400 Saint-Martin-d'Hères","lat":45.1870582,"lon":5.7618673},
{"name":"Lidl","brand":"Lidl","city":null,"address":null,"lat":48.7565833,"lon":2.4225749},
{"name":"Lidl","brand":"Lidl","city":null,"address":null,"lat":43.3253049,"lon":3.0330851},
{"name":"Lidl","brand":"Lidl","city":null,"address":null,"lat":46.2684058,"lon":4.7954332},
{"name":"Lidl","brand":"Lidl","city":null,"address":"Avenue de la Défense Passive","lat":49.9077035,"lon":2.3195328},
{"name":"Lidl","brand":"Lidl","city":null,"address":null,"lat":48.2444594,"lon":-3.3068229},
{"name":"Lidl","brand":"Lidl","city":null,"address":null,"lat":48.2502032,"lon":-4.4702002},
{"name":"Lidl","brand":"Lidl","city":null,"address":null,"lat":43.7681348,"lon":1.9791256},
{"name":"Lidl","brand":"Lidl","city":null,"address":null,"lat":48.2113893,"lon":-4.0575623},
{"name":"Lidl","brand":"Lidl","city":null,"address":"Rue du Fond à Marle","lat":50.4263837,"lon":2.784515},
{"name":"Lidl","brand":"Lidl","city":"Châtenay-Malabry","address":"6 Rue de l'Oiseau Bleu, 92290 Châtenay-Malabry","lat":48.7634554,"lon":2.2896346},
{"name":"Lidl","brand":"Lidl","city":null,"address":null,"lat":43.7638882,"lon":4.4263727},
{"name":"Lidl","brand":"Lidl","city":null,"address":"Avenue des Plaines Villes","lat":48.5130944,"lon":-2.8043425},
{"name":"Lidl","brand":"Lidl","city":null,"address":null,"lat":42.7407794,"lon":2.9277186},
{"name":"Lidl","brand":"Lidl","city":null,"address":null,"lat":47.1935076,"lon":-1.5539379},
{"name":"Lidl","brand":"Lidl","city":null,"address":null,"lat":44.1266662,"lon":4.1062523},
{"name":"Lidl","brand":"Lidl","city":"Teyran","address":"1550 Ancienne route de Montpellier, 34820 Teyran","lat":43.6731946,"lon":3.9131693},
{"name":"Lidl","brand":"Lidl","city":null,"address":null,"lat":43.2546026,"lon":6.5566793},
{"name":"Lidl","brand":"Lidl","city":null,"address":null,"lat":46.0512973,"lon":4.086088},
{"name":"Lidl","brand":"Lidl","city":"Castelsarrasin","address":"1 Impasse de l'Hippodrome, 82100 Castelsarrasin","lat":44.0583566,"lon":1.0976024},
{"name":"Lidl","brand":"Lidl","city":null,"address":null,"lat":48.2028411,"lon":6.7194724},
{"name":"Lidl","brand":"Lidl","city":null,"address":null,"lat":45.6277312,"lon":-0.9977431},
{"name":"Lidl","brand":"Lidl","city":null,"address":null,"lat":45.2547249,"lon":1.4120274},
{"name":"Lidl","brand":"Lidl","city":null,"address":"238 bis Avenue Jacques Vogt","lat":49.1583977,"lon":2.2659183},
{"name":"Lidl","brand":"Lidl","city":null,"address":null,"lat":48.5888131,"lon":7.6860598},
{"name":"Lidl","brand":"Lidl","city":null,"address":null,"lat":46.0245141,"lon":0.1837318},
{"name":"Lidl","brand":"Lidl","city":null,"address":"Rue du Champ Sainte-Marie","lat":50.3651571,"lon":2.0359366},
{"name":"Lidl","brand":"Lidl","city":"Lorient","address":"11 Rue Georges Brassens, 56100 Lorient","lat":47.7567329,"lon":-3.387023},
{"name":"Lidl","brand":"Lidl","city":"Lorient","address":"16 Boulevard du Scorff, 56600 Lorient","lat":47.7612045,"lon":-3.3668596},
{"name":"Lidl","brand":"Lidl","city":null,"address":null,"lat":47.1339629,"lon":0.9833874},
{"name":"Lidl","brand":"Lidl","city":null,"address":"38510","lat":45.6727327,"lon":5.4833452},
{"name":"Lidl","brand":"Lidl","city":null,"address":null,"lat":43.3990021,"lon":-1.6393964},
{"name":"Lidl","brand":"Lidl","city":null,"address":null,"lat":44.9100287,"lon":-0.2569127},
{"name":"Lidl","brand":"Lidl","city":null,"address":null,"lat":44.3675603,"lon":4.6932087},
{"name":"Lidl","brand":"Lidl","city":null,"address":null,"lat":43.509044,"lon":2.3778159},
{"name":"Lidl","brand":"Lidl","city":null,"address":null,"lat":48.7953399,"lon":2.0533755},
{"name":"Lidl","brand":"Lidl","city":null,"address":null,"lat":45.0068987,"lon":0.1405078},
{"name":"Lidl","brand":"Lidl","city":null,"address":null,"lat":43.8221038,"lon":5.0201711},
{"name":"Lidl","brand":"Lidl","city":null,"address":"122 Rue André Ternynck","lat":49.6290928,"lon":3.2124771},
{"name":"Lidl","brand":"Lidl","city":null,"address":null,"lat":43.7836209,"lon":4.2970257},
{"name":"Lidl","brand":"Lidl","city":null,"address":null,"lat":44.8863825,"lon":4.8774641},
{"name":"Lidl","brand":"Lidl","city":null,"address":"Route de Maubeuge","lat":50.2962645,"lon":3.8100761},
{"name":"Lidl","brand":"Lidl","city":null,"address":null,"lat":43.5089645,"lon":0.4001254},
{"name":"Lidl","brand":"Lidl","city":null,"address":null,"lat":49.5401931,"lon":5.7950105},
{"name":"Lidl","brand":"Lidl","city":"Saint-Dié-des-Vosges","address":"3 Rue Antoine de Saint-Exupéry, 88100 Saint-Dié-des-Vosges","lat":48.291183,"lon":6.939343},
{"name":"Lidl","brand":"Lidl","city":null,"address":null,"lat":45.4432704,"lon":4.3780516},
{"name":"Lidl","brand":"Lidl","city":null,"address":null,"lat":47.1842113,"lon":-1.5599783},
{"name":"Lidl","brand":"Lidl","city":null,"address":null,"lat":48.9725523,"lon":0.9412109},
{"name":"Lidl","brand":"Lidl","city":null,"address":null,"lat":42.7021816,"lon":3.0217567},
{"name":"Lidl","brand":"Lidl","city":null,"address":"456 Rue Fleming","lat":50.5446719,"lon":2.6467398},
{"name":"Lidl","brand":"Lidl","city":null,"address":null,"lat":44.4098297,"lon":0.7383757},
{"name":"Lidl","brand":"Lidl","city":null,"address":null,"lat":48.6350073,"lon":2.2849668},
{"name":"Lidl","brand":"Lidl","city":null,"address":null,"lat":48.7677839,"lon":-3.0383501},
{"name":"Lidl","brand":"Lidl","city":null,"address":null,"lat":48.7349265,"lon":-0.5752711},
{"name":"Lidl","brand":"Lidl","city":null,"address":null,"lat":48.9548661,"lon":3.1417575},
{"name":"Lidl","brand":"Lidl","city":null,"address":null,"lat":43.5290139,"lon":1.4032019},
{"name":"Lidl","brand":"Lidl","city":null,"address":null,"lat":47.1641966,"lon":-1.6812565},
{"name":"Lidl","brand":"Lidl","city":null,"address":null,"lat":48.8020704,"lon":3.087909},
{"name":"Lidl","brand":"Lidl","city":"Darnétal","address":"88 Rue Sadi Carnot, 76160 Darnétal","lat":49.4413508,"lon":1.1449404},
{"name":"Lidl","brand":"Lidl","city":null,"address":null,"lat":47.8494803,"lon":3.553383},
{"name":"Lidl","brand":"Lidl","city":null,"address":"Avenue des Alliés","lat":50.869551,"lon":2.0697938},
{"name":"Lidl","brand":"Lidl","city":null,"address":null,"lat":47.3740019,"lon":0.8095258},
{"name":"Lidl","brand":"Lidl","city":null,"address":null,"lat":47.4954955,"lon":3.8971326},
{"name":"Lidl","brand":"Lidl","city":null,"address":null,"lat":49.1671638,"lon":-0.3188493},
{"name":"Lidl","brand":"Lidl","city":"Combs-la-Ville","address":"1 Rue Pablo Picasso, 77380 Combs-la-Ville","lat":48.659366,"lon":2.5641628},
{"name":"Lidl","brand":"Lidl","city":"Saint-Julien-en-Genevois","address":"4 Route de Lathoy, 74160 Saint-Julien-en-Genevois","lat":46.1410767,"lon":6.0928566},
{"name":"Lidl Pézenas","brand":"Lidl","city":null,"address":"Avenue du Général de Gaulle","lat":43.4533775,"lon":3.4121433},
{"name":"Lidl","brand":"Lidl","city":null,"address":null,"lat":46.8921958,"lon":-1.5866125},
{"name":"Lidl","brand":"Lidl","city":null,"address":null,"lat":46.7780605,"lon":-0.8481905},
{"name":"Lidl","brand":"Lidl","city":null,"address":null,"lat":45.1685082,"lon":1.5511758},
{"name":"Lidl","brand":"Lidl","city":"Pleyben","address":"Rue de Quimper, 29190 Pleyben","lat":48.2194581,"lon":-3.9754679},
{"name":"Lidl","brand":"Lidl","city":"Blaye","address":"33390 Blaye","lat":45.1293302,"lon":-0.6476791},
{"name":"Lidl","brand":"Lidl","city":null,"address":"Rue Jean Jaurès","lat":50.4575482,"lon":3.5729062},
{"name":"Lidl","brand":"Lidl","city":"Jeumont","address":"155 Rue Victor-Basch, 59460 Jeumont","lat":50.3021472,"lon":4.1029148},
{"name":"Lidl","brand":"Lidl","city":null,"address":"Boulevard de la République","lat":50.3781783,"lon":3.0801356},
{"name":"Lidl","brand":"Lidl","city":"Publier","address":"185 Rue des Vignes Rouges, 74500 Publier","lat":46.3890237,"lon":6.5205535},
{"name":"Lidl","brand":"Lidl","city":null,"address":null,"lat":46.7339181,"lon":-1.5905912},
{"name":"Lidl","brand":"Lidl","city":null,"address":"Avenue du Président John Fitzgerald Kennedy","lat":50.2877642,"lon":3.3098028},
{"name":"Lidl","brand":"Lidl","city":null,"address":null,"lat":43.1119498,"lon":0.7414316},
{"name":"Lidl","brand":"Lidl","city":null,"address":"Rue du Général de Gaulle","lat":50.1895028,"lon":3.4974277},
{"name":"Lidl","brand":"Lidl","city":null,"address":null,"lat":43.8088,"lon":4.3731576},
{"name":"Lidl","brand":"Lidl","city":null,"address":null,"lat":45.3135807,"lon":3.3748489},
{"name":"Lidl","brand":"Lidl","city":null,"address":null,"lat":45.1476923,"lon":0.5391108},
{"name":"Lidl","brand":"Lidl","city":"Carpentras","address":"310 Voie de Monteux, 84200 Carpentras","lat":44.0453919,"lon":5.0258233},
{"name":"Lidl","brand":"Lidl","city":null,"address":null,"lat":45.1188948,"lon":4.969678},
{"name":"Lidl","brand":"Lidl","city":"Bar-sur-Aube","address":"7 Rte de Chaumont, 10200 Bar-sur-Aube","lat":48.2273853,"lon":4.7203632},
{"name":"Lidl","brand":"Lidl","city":null,"address":null,"lat":47.9360862,"lon":-1.2311867},
{"name":"Lidl","brand":"Lidl","city":"Rohrbach-lès-Bitche","address":"Rue de Strasbourg, 57410 Rohrbach-lès-Bitche","lat":49.0480174,"lon":7.2877021},
{"name":"Lidl","brand":"Lidl","city":"Lempdes","address":"79 Avenue de l'Europe, 63370 Lempdes","lat":45.7760825,"lon":3.1807675},
{"name":"Lidl","brand":"Lidl","city":null,"address":null,"lat":48.7960425,"lon":2.5597984},
{"name":"Lidl","brand":"Lidl","city":null,"address":null,"lat":47.6152563,"lon":-0.711668},
{"name":"Lidl","brand":"Lidl","city":"Gainneville","address":"262 Rue de la Libération, 76700 Gainneville","lat":49.5185349,"lon":0.279685},
{"name":"Lidl","brand":"Lidl","city":"Altkirch","address":"10 Rue de l'Ill, 68130 Altkirch","lat":47.626961,"lon":7.2356955},
{"name":"Lidl","brand":"Lidl","city":"Thônes","address":"12 Rue Louis Haase, 74230 Thônes","lat":45.8829949,"lon":6.3189263},
{"name":"Lidl","brand":"Lidl","city":null,"address":"Avenue du Maréchal Leclerc de Hautecloque","lat":50.1018301,"lon":3.5585074},
{"name":"Lidl","brand":"Lidl","city":null,"address":null,"lat":45.8484388,"lon":3.5315983},
{"name":"Lidl","brand":"Lidl","city":null,"address":null,"lat":43.3929947,"lon":5.1468216},
{"name":"Lidl","brand":"Lidl","city":null,"address":null,"lat":49.3209589,"lon":-0.4557062},
{"name":"Lidl","brand":"Lidl","city":null,"address":null,"lat":48.6706205,"lon":-3.9881657},
{"name":"Lidl","brand":"Lidl","city":"Barbezieux-Saint-Hilaire","address":"123 Avenue de l'Europe, 16300 Barbezieux-Saint-Hilaire","lat":45.4751619,"lon":-0.1609763},
{"name":"Lidl","brand":"Lidl","city":null,"address":null,"lat":43.5608388,"lon":3.7977013},
{"name":"Lidl","brand":"Lidl","city":null,"address":null,"lat":44.49029,"lon":0.9663638},
{"name":"Lidl","brand":"Lidl","city":null,"address":null,"lat":48.1144936,"lon":-1.677905},
{"name":"Lidl","brand":"Lidl","city":"Pontivy","address":"Avenue des Cités Unies, 56300 Pontivy","lat":48.0558053,"lon":-2.9510389},
{"name":"Lidl","brand":"Lidl","city":null,"address":null,"lat":47.1485514,"lon":6.3304788},
{"name":"Lidl","brand":"Lidl","city":null,"address":null,"lat":47.3265739,"lon":-2.4128207},
{"name":"Lidl","brand":"Lidl","city":null,"address":null,"lat":48.3614604,"lon":2.9585388},
{"name":"Lidl","brand":"Lidl","city":null,"address":null,"lat":45.7455253,"lon":4.9331807},
{"name":"Lidl","brand":"Lidl","city":null,"address":null,"lat":45.4960148,"lon":6.0511535},
{"name":"Lidl","brand":"Lidl","city":null,"address":null,"lat":43.1175019,"lon":5.9464037},
{"name":"Lidl","brand":"Lidl","city":null,"address":null,"lat":47.6008985,"lon":1.3191972},
{"name":"Lidl","brand":"Lidl","city":null,"address":null,"lat":49.4474225,"lon":1.0266785},
{"name":"Lidl","brand":"Lidl","city":null,"address":"80 Route de Caen","lat":49.187562,"lon":-0.4229637},
{"name":"Lidl","brand":"Lidl","city":null,"address":null,"lat":48.4961995,"lon":-2.7334498},
{"name":"Lidl","brand":"Lidl","city":null,"address":null,"lat":44.8835165,"lon":-0.6337122},
{"name":"Lidl","brand":"Lidl","city":null,"address":null,"lat":45.9422768,"lon":4.718512},
{"name":"Lidl","brand":"Lidl","city":null,"address":null,"lat":47.6402353,"lon":6.912612},
{"name":"Lidl","brand":"Lidl","city":null,"address":null,"lat":49.5169512,"lon":5.7423021},
{"name":"Lidl","brand":"Lidl","city":"Sevrier","address":"508 Route d'Albertville, 74320 Sevrier","lat":45.8519459,"lon":6.1438464},
{"name":"Lidl","brand":"Lidl","city":"Thonon-les-Bains","address":"5 Avenue de Thuyset, 74200 Thonon-les-Bains","lat":46.3808179,"lon":6.4982998},
{"name":"Lidl","brand":"Lidl","city":"Vernouillet","address":"Rue Saint-Thibault, 28100 Vernouillet","lat":48.7324115,"lon":1.3448999},
{"name":"Lidl","brand":"Lidl","city":null,"address":null,"lat":50.4127489,"lon":1.6083156},
{"name":"Lidl","brand":"Lidl","city":null,"address":"Avenue du Champ Daumont","lat":48.9870099,"lon":2.3770861},
{"name":"Lidl","brand":"Lidl","city":null,"address":"8 Boulevard de Strasbourg","lat":48.8701117,"lon":2.3550628},
{"name":"Lidl","brand":"Lidl","city":null,"address":null,"lat":44.2054873,"lon":0.6340896},
{"name":"Lidl","brand":"Lidl","city":null,"address":"Z.A. Le Gueret, 53200","lat":47.8235036,"lon":-0.7123943},
{"name":"Lidl","brand":"Lidl","city":null,"address":null,"lat":48.6487972,"lon":7.7227281},
{"name":"Lidl","brand":"Lidl","city":null,"address":null,"lat":45.7674518,"lon":4.9902014},
{"name":"Lidl","brand":"Lidl","city":null,"address":"Allée des Salicornes","lat":50.1736308,"lon":1.6352953},
{"name":"Lidl","brand":"Lidl","city":null,"address":null,"lat":48.0626199,"lon":1.3344787},
{"name":"Lidl","brand":"Lidl","city":null,"address":null,"lat":45.7696706,"lon":3.1136517},
{"name":"Lidl","brand":"Lidl","city":null,"address":null,"lat":45.7843417,"lon":4.9348086},
{"name":"Lidl","brand":"Lidl","city":null,"address":null,"lat":49.1761497,"lon":6.8765951},
{"name":"Lidl","brand":"Lidl","city":null,"address":"98 Avenue de Vierzon","lat":47.5856626,"lon":2.0245782},
{"name":"Lidl","brand":"Lidl","city":null,"address":null,"lat":45.7673753,"lon":4.8939846},
{"name":"Lidl","brand":"Lidl","city":null,"address":"Rue Jean-Baptiste Lebas","lat":50.5216816,"lon":2.6339137},
{"name":"Lidl","brand":"Lidl","city":null,"address":null,"lat":49.2566873,"lon":6.1559105},
{"name":"Lidl","brand":"Lidl","city":null,"address":null,"lat":49.2177966,"lon":5.6492594},
{"name":"Lidl","brand":"Lidl","city":null,"address":null,"lat":44.1689846,"lon":0.2996448},
{"name":"Lidl","brand":"Lidl","city":null,"address":null,"lat":49.049152,"lon":6.581207},
{"name":"Lidl","brand":"Lidl","city":null,"address":null,"lat":48.9502872,"lon":4.3514638},
{"name":"Lidl","brand":"Lidl","city":null,"address":null,"lat":47.759168,"lon":0.8788995},
{"name":"Lidl","brand":"Lidl","city":null,"address":null,"lat":45.798098,"lon":5.0502965},
{"name":"Lidl","brand":"Lidl","city":"Albertville","address":"70 Rue René Cassin, 73200 Albertville","lat":45.6600915,"lon":6.3709944},
{"name":"Lidl","brand":"Lidl","city":null,"address":null,"lat":47.1132819,"lon":5.2505038},
{"name":"Lidl","brand":"Lidl","city":null,"address":null,"lat":49.3008048,"lon":6.1618953},
{"name":"Lidl","brand":"Lidl","city":null,"address":null,"lat":43.4907363,"lon":5.3566013},
{"name":"Lidl","brand":"Lidl","city":null,"address":null,"lat":48.8567081,"lon":-0.8788},
{"name":"Lidl","brand":"Lidl","city":null,"address":"2574 Quartier Les Bons Enfants","lat":43.5493092,"lon":5.1814433},
{"name":"Lidl","brand":"Lidl","city":null,"address":null,"lat":48.9424084,"lon":3.1259783},
{"name":"Lidl","brand":"Lidl","city":"Carpentras","address":"1205 Avenue Dwight Eisenhower, 84200 Carpentras","lat":44.0367974,"lon":5.050155},
{"name":"Lidl","brand":"Lidl","city":null,"address":null,"lat":45.7478543,"lon":4.855944},
{"name":"Lidl","brand":"Lidl","city":null,"address":null,"lat":45.7400734,"lon":-0.6643562},
{"name":"Lidl","brand":"Lidl","city":"Villetaneuse","address":"8 Route de Saint-Leu, 93430 Villetaneuse","lat":48.950169,"lon":2.3446161},
{"name":"Lidl","brand":"Lidl","city":null,"address":null,"lat":46.1142435,"lon":4.7358984},
{"name":"Lidl","brand":"Lidl","city":null,"address":null,"lat":43.5335776,"lon":-1.4509103},
{"name":"Lidl","brand":"Lidl","city":null,"address":null,"lat":48.6994409,"lon":6.1353974},
{"name":"Lidl","brand":"Lidl","city":null,"address":null,"lat":46.0377845,"lon":4.0783437},
{"name":"Lidl","brand":"Lidl","city":"Soulac-sur-Mer","address":"23 Route de Grayan, Soulac-sur-Mer","lat":45.5063909,"lon":-1.1179314},
{"name":"Lidl","brand":"Lidl","city":null,"address":null,"lat":49.3947876,"lon":4.6815474},
{"name":"Lidl","brand":"Lidl","city":"Drumettaz-Clarafond","address":"248 Avenue du Golf, 73420 Drumettaz-Clarafond","lat":45.6615819,"lon":5.9097142},
{"name":"Lidl","brand":"Lidl","city":null,"address":null,"lat":42.6231038,"lon":3.0118432},
{"name":"Lidl","brand":"Lidl","city":"Balma","address":"3 Passage Edgar Quinet, 31130 Balma","lat":43.6090953,"lon":1.4925403},
{"name":"Lidl","brand":"Lidl","city":null,"address":null,"lat":47.6666603,"lon":-2.0680988},
{"name":"Lidl","brand":"Lidl","city":null,"address":"Route de Lille","lat":50.4600742,"lon":2.8894273},
{"name":"Lidl","brand":"Lidl","city":null,"address":null,"lat":48.8658731,"lon":2.20234},
{"name":"Lidl","brand":"Lidl","city":"Plaisance du Touch","address":"2 Rue Bernadet, 31830 Plaisance du Touch","lat":43.5709517,"lon":1.3116816},
{"name":"Lidl","brand":"Lidl","city":"Strasbourg","address":"66 Route des Romains, 67200 Strasbourg","lat":48.5798077,"lon":7.7146627},
{"name":"Lidl","brand":"Lidl","city":null,"address":null,"lat":48.7954207,"lon":2.4586166},
{"name":"Lidl","brand":"Lidl","city":null,"address":"31490","lat":43.6002849,"lon":1.2480972},
{"name":"Lidl","brand":"Lidl","city":null,"address":null,"lat":47.6743827,"lon":6.5113126},
{"name":"Lidl","brand":"Lidl","city":null,"address":null,"lat":48.4862875,"lon":3.4863105},
{"name":"Lidl","brand":"Lidl","city":null,"address":null,"lat":43.4939083,"lon":-1.5094649},
{"name":"Lidl","brand":"Lidl","city":null,"address":null,"lat":45.8388079,"lon":4.6225681},
{"name":"Lidl","brand":"Lidl","city":null,"address":"Avenue du Bel air, 91300","lat":48.7298304,"lon":2.3017634},
{"name":"Lidl","brand":"Lidl","city":null,"address":null,"lat":43.5589251,"lon":7.0225889},
{"name":"Lidl","brand":"Lidl","city":null,"address":"90 Avenue de Rodez, 12450","lat":44.3001526,"lon":2.5572294},
{"name":"Lidl","brand":"Lidl","city":null,"address":"32 Boulevard de la Jamagne","lat":48.0756676,"lon":6.8774009},
{"name":"Lidl","brand":"Lidl","city":null,"address":"Avenue Paul Machy","lat":50.9792823,"lon":2.0469594},
{"name":"Lidl","brand":"Lidl","city":"Lisieux","address":"Avenue Georges Duval, 14107 Lisieux","lat":49.1456678,"lon":0.2715723},
{"name":"Lidl","brand":"Lidl","city":"Toulouse","address":"27 Port Saint-Sauveur, 31400 Toulouse","lat":43.5975545,"lon":1.4558294},
{"name":"Lidl","brand":"Lidl","city":null,"address":null,"lat":48.4459694,"lon":0.0985683},
{"name":"Lidl","brand":"Lidl","city":null,"address":null,"lat":43.8128954,"lon":4.6686235},
{"name":"Lidl","brand":"Lidl","city":null,"address":null,"lat":46.0151506,"lon":4.0389867},
{"name":"Lidl","brand":"Lidl","city":null,"address":"6 Rue Albert Priolet, 78100","lat":48.9000959,"lon":2.0741948},
{"name":"Lidl","brand":"Lidl","city":null,"address":null,"lat":44.3859928,"lon":5.0008458},
{"name":"Lidl","brand":"Lidl","city":null,"address":null,"lat":46.9227244,"lon":-0.7431483},
{"name":"Lidl","brand":"Lidl","city":null,"address":null,"lat":48.8791372,"lon":2.3927158},
{"name":"Lidl","brand":"Lidl","city":null,"address":"Avenue Roger Couderc","lat":50.0175754,"lon":4.0370785},
{"name":"Lidl","brand":"Lidl","city":null,"address":null,"lat":45.7528469,"lon":3.0965356},
{"name":"Lidl","brand":"Lidl","city":null,"address":null,"lat":43.3246207,"lon":5.4434176},
{"name":"Lidl","brand":"Lidl","city":null,"address":null,"lat":48.0918101,"lon":2.8034104},
{"name":"Lidl","brand":"Lidl","city":null,"address":null,"lat":45.7635565,"lon":4.8663721},
{"name":"Lidl","brand":"Lidl","city":null,"address":"Boulevard Anatole France","lat":50.3175433,"lon":3.4091305},
{"name":"Lidl","brand":"Lidl","city":null,"address":null,"lat":44.583996,"lon":-0.065529},
{"name":"Lidl","brand":"Lidl","city":null,"address":null,"lat":46.3357266,"lon":5.1231592},
{"name":"Lidl","brand":"Lidl","city":null,"address":null,"lat":45.7801592,"lon":3.0709282},
{"name":"Lidl","brand":"Lidl","city":null,"address":"38 grande rue, 92310","lat":48.8254389,"lon":2.2153437},
{"name":"Lidl","brand":"Lidl","city":null,"address":null,"lat":46.6989049,"lon":-1.4285},
{"name":"Lidl","brand":"Lidl","city":null,"address":"Rue Clemenceau","lat":50.5987315,"lon":3.0537312},
{"name":"Lidl","brand":"Lidl","city":null,"address":null,"lat":49.4381816,"lon":5.6077579},
{"name":"Lidl","brand":"Lidl","city":null,"address":null,"lat":43.666723,"lon":4.6323208},
{"name":"Lidl","brand":"Lidl","city":null,"address":null,"lat":47.8610521,"lon":1.7600146},
{"name":"Lidl","brand":"Lidl","city":null,"address":null,"lat":48.7741419,"lon":3.2917542},
{"name":"Lidl","brand":"Lidl","city":null,"address":null,"lat":43.2917345,"lon":5.3723107},
{"name":"Lidl","brand":"Lidl","city":null,"address":null,"lat":47.7264954,"lon":-3.3241442},
{"name":"Lidl","brand":"Lidl","city":null,"address":null,"lat":49.4051859,"lon":1.1549285},
{"name":"Lidl","brand":"Lidl","city":null,"address":null,"lat":48.6078055,"lon":2.4509081},
{"name":"Lidl","brand":"Lidl","city":null,"address":"81600","lat":43.9054481,"lon":1.909146},
{"name":"Lidl","brand":"Lidl","city":null,"address":null,"lat":48.8414107,"lon":2.280804},
{"name":"Lidl","brand":"Lidl","city":null,"address":null,"lat":43.9550183,"lon":4.9023239},
{"name":"Lidl","brand":"Lidl","city":null,"address":null,"lat":47.5214894,"lon":-2.7836117},
{"name":"Lidl","brand":"Lidl","city":null,"address":null,"lat":44.0449027,"lon":4.7883775},
{"name":"Lidl","brand":"Lidl","city":null,"address":"2 Rue de l'Industrie","lat":49.056103,"lon":1.1669522},
{"name":"Lidl","brand":"Lidl","city":null,"address":null,"lat":49.5010673,"lon":0.7887412},
{"name":"Lidl","brand":"Lidl","city":null,"address":null,"lat":48.3975234,"lon":0.0896032},
{"name":"Lidl","brand":"Lidl","city":"Saint-Herblain","address":"347 Route de Vannes, 44800 Saint-Herblain","lat":47.2491536,"lon":-1.6143},
{"name":"Lidl","brand":"Lidl","city":null,"address":null,"lat":47.4821062,"lon":6.7808085},
{"name":"Lidl","brand":"Lidl","city":null,"address":"73 Route de la Côte d'Amour","lat":47.2598331,"lon":-2.2430333},
{"name":"Lidl","brand":"Lidl","city":null,"address":null,"lat":45.1875489,"lon":0.7605865},
{"name":"Lidl","brand":"Lidl","city":null,"address":"Rue Notre-Dame","lat":50.7379512,"lon":2.545637},
{"name":"Lidl","brand":"Lidl","city":null,"address":null,"lat":48.8426034,"lon":2.3845997},
{"name":"Lidl","brand":"Lidl","city":null,"address":"94200","lat":48.8198511,"lon":2.3810081},
{"name":"Lidl","brand":"Lidl","city":"Le Pouliguen","address":"38 Avenue de Llantwit Major, 44510 Le Pouliguen","lat":47.2788108,"lon":-2.4353655},
{"name":"Lidl","brand":"Lidl","city":null,"address":null,"lat":43.7014351,"lon":7.2635633},
{"name":"Lidl","brand":"Lidl","city":null,"address":"Allée de la Vigne du Prince, 18200","lat":46.7296471,"lon":2.4954277},
{"name":"Lidl","brand":"Lidl","city":null,"address":null,"lat":47.9874912,"lon":-0.1650688},
{"name":"Lidl","brand":"Lidl","city":null,"address":null,"lat":48.3993822,"lon":2.9508666},
{"name":"Lidl","brand":"Lidl","city":null,"address":null,"lat":44.1384303,"lon":5.9675398},
{"name":"Lidl","brand":"Lidl","city":null,"address":null,"lat":48.8427096,"lon":2.2208828},
{"name":"Lidl","brand":"Lidl","city":null,"address":"2 Rue Gaspard Monge","lat":49.3958902,"lon":2.7881957},
{"name":"Lidl","brand":"Lidl","city":null,"address":null,"lat":45.5268969,"lon":5.5936867},
{"name":"Lidl","brand":"Lidl","city":"Marseille","address":"148, Marseille","lat":43.3081177,"lon":5.4002876},
{"name":"Lidl","brand":"Lidl","city":null,"address":null,"lat":48.9536071,"lon":4.3853339},
{"name":"Lidl","brand":"Lidl","city":"Villepinte","address":"Route de Tremblay, 93420 Villepinte","lat":48.9573621,"lon":2.5616441},
{"name":"Lidl","brand":"Lidl","city":"Châtellerault","address":"Rue de la Désirée, 86100 Châtellerault","lat":46.8358824,"lon":0.5430617},
{"name":"Lidl","brand":"Lidl","city":"Saujon","address":"Route de l'Ilate, 17600 Saujon","lat":45.6799519,"lon":-0.9295337},
{"name":"Lidl","brand":"Lidl","city":"Ozoir-la-Ferrière","address":"97 Avenue du Général Leclerc, 77330 Ozoir-la-Ferrière","lat":48.7756939,"lon":2.6775134},
{"name":"Lidl","brand":"Lidl","city":null,"address":null,"lat":43.0861189,"lon":1.629356},
{"name":"Lidl Carmaux","brand":"Lidl","city":null,"address":"Avenue de Rodez","lat":44.0546918,"lon":2.1598925},
{"name":"Lidl","brand":"Lidl","city":null,"address":null,"lat":43.5001964,"lon":4.9790806},
{"name":"Lidl","brand":"Lidl","city":null,"address":null,"lat":43.3905984,"lon":5.5981501},
{"name":"Lidl","brand":"Lidl","city":null,"address":"Rue de la Marne","lat":50.4933503,"lon":2.4854491},
{"name":"Lidl","brand":"Lidl","city":null,"address":null,"lat":48.4743237,"lon":4.7675023},
{"name":"Lidl","brand":"Lidl","city":null,"address":null,"lat":45.4390801,"lon":4.3958615},
{"name":"Lidl","brand":"Lidl","city":null,"address":null,"lat":48.5101835,"lon":3.725042},
{"name":"Lidl","brand":"Lidl","city":null,"address":"61 Route de Paris","lat":49.9119845,"lon":2.9341962},
{"name":"Lidl","brand":"Lidl","city":null,"address":null,"lat":46.1654393,"lon":2.8329438},
{"name":"Lidl","brand":"Lidl","city":null,"address":null,"lat":44.9010827,"lon":5.0089965},
{"name":"Lidl","brand":"Lidl","city":null,"address":null,"lat":43.609695,"lon":1.4495332},
{"name":"Lidl","brand":"Lidl","city":null,"address":null,"lat":46.8148,"lon":4.8567541},
{"name":"Lidl","brand":"Lidl","city":null,"address":null,"lat":44.5793694,"lon":4.7447041},
{"name":"Lidl","brand":"Lidl","city":"Montrouge","address":"74 Avenue Marx Dormoy, 92120 Montrouge","lat":48.8101603,"lon":2.3183466},
{"name":"Lidl","brand":"Lidl","city":null,"address":null,"lat":47.5007014,"lon":1.1808385},
{"name":"Lidl","brand":"Lidl","city":null,"address":null,"lat":48.8246925,"lon":2.3645687},
{"name":"Lidl","brand":"Lidl","city":null,"address":null,"lat":46.3376478,"lon":-0.4049416},
{"name":"Lidl","brand":"Lidl","city":"Villabé","address":"91540 Villabé","lat":48.5881457,"lon":2.4464103},
{"name":"Lidl","brand":"Lidl","city":null,"address":"25 Avenue de l'Europe","lat":49.4067009,"lon":2.7804956},
{"name":"Lidl","brand":"Lidl","city":null,"address":null,"lat":45.2037207,"lon":-0.753833},
{"name":"Lidl","brand":"Lidl","city":null,"address":"1 Allée de Dion-Bouton, 37320","lat":47.2999435,"lon":0.8002067},
{"name":"Lidl","brand":"Lidl","city":null,"address":null,"lat":43.2532325,"lon":0.0716417},
{"name":"Lidl","brand":"Lidl","city":null,"address":null,"lat":43.2184175,"lon":0.0566019},
{"name":"Lidl","brand":"Lidl","city":null,"address":"Rue Jean Jaurès","lat":50.3742006,"lon":3.5626056},
{"name":"Lidl","brand":"Lidl","city":null,"address":null,"lat":45.523036,"lon":4.2172038},
{"name":"Lidl","brand":"Lidl","city":null,"address":null,"lat":48.871261,"lon":3.5569063},
{"name":"Lidl","brand":"Lidl","city":"Saint-Jeoire-Prieuré","address":"70 Route Nationale 6, 73190 Saint-Jeoire-Prieuré","lat":45.5387371,"lon":5.9896572},
{"name":"Lidl","brand":"Lidl","city":null,"address":null,"lat":47.3713109,"lon":-1.9344929},
{"name":"Lidl","brand":"Lidl","city":null,"address":null,"lat":46.198314,"lon":-0.6609095},
{"name":"Lidl","brand":"Lidl","city":null,"address":null,"lat":48.7997457,"lon":2.0183637},
{"name":"Lidl","brand":"Lidl","city":null,"address":"Route du Crotoy","lat":50.2646459,"lon":1.6682092},
{"name":"Lidl","brand":"Lidl","city":null,"address":"288","lat":48.1997206,"lon":5.9399647},
{"name":"Lidl","brand":"Lidl","city":null,"address":"455","lat":47.3716451,"lon":-1.1770882},
{"name":"Lidl","brand":"Lidl","city":"Mainvilliers","address":"43 Rue du Château d'Eau, 28300 Mainvilliers","lat":48.4499247,"lon":1.4509942},
{"name":"Lidl","brand":"Lidl","city":null,"address":null,"lat":48.7373057,"lon":7.3682624},
{"name":"Lidl","brand":"Lidl","city":null,"address":"18","lat":43.291045,"lon":5.3995069},
{"name":"Lidl","brand":"Lidl","city":null,"address":null,"lat":48.8585076,"lon":2.534179},
{"name":"Lidl","brand":"Lidl","city":"Paris","address":"Paris","lat":48.8757536,"lon":2.3723476},
{"name":"Lidl","brand":"Lidl","city":"Fos-sur-Mer","address":"190 Avenue des Vallins, 13895 Fos-sur-Mer","lat":43.4516924,"lon":4.9356576},
{"name":"Lidl","brand":"Lidl","city":null,"address":null,"lat":43.1310652,"lon":6.0143922},
{"name":"Lidl","brand":"Lidl","city":null,"address":"Avenue de Saint-Juéry","lat":43.9382848,"lon":2.1819762},
{"name":"Lidl","brand":"Lidl","city":"Rennes","address":"24 Mail François Mitterrand, 35000 Rennes","lat":48.1100073,"lon":-1.6885206},
{"name":"Lidl","brand":"Lidl","city":null,"address":null,"lat":48.9621099,"lon":1.80182},
{"name":"Lidl","brand":"Lidl","city":null,"address":"Avenue Henri Barbusse","lat":50.3506647,"lon":3.5405092},
{"name":"Lidl","brand":"Lidl","city":null,"address":"Square du Docteur Salmon","lat":49.3693292,"lon":3.3244539},
{"name":"Lidl","brand":"Lidl","city":null,"address":"Rue Célestin Malo","lat":51.0295853,"lon":2.4046131},
{"name":"Lidl","brand":"Lidl","city":null,"address":null,"lat":48.652139,"lon":-1.9716281},
{"name":"Lidl","brand":"Lidl","city":null,"address":null,"lat":47.4741346,"lon":-0.5849166},
{"name":"Lidl","brand":"Lidl","city":"Mont-de-Marsan","address":"1751 Avenue du Président John F. Kennedy, 40000 Mont-de-Marsan","lat":43.8720814,"lon":-0.4906008},
{"name":"Lidl","brand":"Lidl","city":null,"address":null,"lat":44.5423067,"lon":4.7475879},
{"name":"Lidl","brand":"Lidl","city":"Cessy","address":"111 Chemin du Journans, 01170 Cessy","lat":46.3028643,"lon":6.0669261},
{"name":"Lidl","brand":"Lidl","city":"Le Havre","address":"Le Havre","lat":49.5146128,"lon":0.1662121},
{"name":"Lidl","brand":"Lidl","city":null,"address":null,"lat":48.9014309,"lon":2.2176803},
{"name":"Lidl","brand":"Lidl","city":null,"address":null,"lat":45.7596516,"lon":3.1437854},
{"name":"Lidl","brand":"Lidl","city":null,"address":null,"lat":47.8197696,"lon":-4.2867203},
{"name":"Lidl","brand":"Lidl","city":null,"address":null,"lat":48.3523539,"lon":0.3555693},
{"name":"Lidl","brand":"Lidl","city":"Saumur","address":"86 Rue de Rouen, 49400 Saumur","lat":47.2716,"lon":-0.0643069},
{"name":"Lidl","brand":"Lidl","city":null,"address":"Avenue de la Courtillière","lat":48.8684714,"lon":2.6764285},
{"name":"Lidl","brand":"Lidl","city":null,"address":"1219 Chemin de Saint-Claude","lat":43.5976739,"lon":7.1030605},
{"name":"Lidl","brand":"Lidl","city":"Verrières-en-Anjou","address":"Avenue de la Millardière, 49480 Verrières-en-Anjou","lat":47.5138566,"lon":-0.4728719},
{"name":"Lidl","brand":"Lidl","city":"La Gacilly","address":"Rue de la Châtaigneraie, 56200 La Gacilly","lat":47.7741594,"lon":-2.1395883},
{"name":"Lidl","brand":"Lidl","city":null,"address":null,"lat":44.5930388,"lon":0.348464},
{"name":"Lidl","brand":"Lidl","city":null,"address":null,"lat":45.6386621,"lon":5.1396499},
{"name":"Lidl","brand":"Lidl","city":null,"address":null,"lat":43.6328491,"lon":4.8028851},
{"name":"Lidl","brand":"Lidl","city":"Paris","address":"247 Rue de Crimée, 75019 Paris","lat":48.8943295,"lon":2.3722557},
{"name":"Lidl","brand":"Lidl","city":null,"address":null,"lat":48.9351112,"lon":2.5803203},
{"name":"Lidl","brand":"Lidl","city":null,"address":"Place de Cantorbery","lat":50.9375497,"lon":1.8114242},
{"name":"Lidl","brand":"Lidl","city":null,"address":"67 Route de Conliège","lat":46.6689651,"lon":5.5719488},
{"name":"Lidl","brand":"Lidl","city":"Marzy","address":"Le Champ d'Aviation, 58180 Marzy","lat":46.9996889,"lon":3.1065349},
{"name":"Lidl","brand":"Lidl","city":null,"address":null,"lat":46.5153162,"lon":6.026017},
{"name":"Lidl","brand":"Lidl","city":null,"address":null,"lat":49.3146643,"lon":6.1089867},
{"name":"Lidl","brand":"Lidl","city":"Soissons","address":"43 Avenue de Laon, 02200 Soissons","lat":49.3906445,"lon":3.3390827},
{"name":"Lidl","brand":"Lidl","city":null,"address":null,"lat":45.8356986,"lon":4.9997671},
{"name":"Lidl","brand":"Lidl","city":"Grenoble","address":"Avenue du Général Leclerc, 38950 Grenoble","lat":45.2169108,"lon":5.6939494},
{"name":"Lidl","brand":"Lidl","city":null,"address":null,"lat":45.5757075,"lon":4.791336},
{"name":"Lidl","brand":"Lidl","city":null,"address":null,"lat":45.0384896,"lon":3.0596286},
{"name":"Lidl","brand":"Lidl","city":null,"address":"20 Avenue Jean Jaurès","lat":48.9332372,"lon":2.4228731},
{"name":"Lidl","brand":"Lidl","city":null,"address":null,"lat":43.281826,"lon":5.4044895},
{"name":"Lidl","brand":"Lidl","city":null,"address":"Route de Chauny","lat":49.6501609,"lon":3.2760047},
{"name":"Lidl","brand":"Lidl","city":null,"address":null,"lat":48.0130534,"lon":2.7399068},
{"name":"Lidl","brand":"Lidl","city":null,"address":null,"lat":46.3109985,"lon":3.2860278},
{"name":"Lidl","brand":"Lidl","city":null,"address":"151 Avenue François Verdier","lat":43.9189368,"lon":2.1266611},
{"name":"Lidl","brand":"Lidl","city":null,"address":"50 Rue du Fief de l'Âne","lat":46.300017,"lon":-0.4330996},
{"name":"Lidl","brand":"Lidl","city":null,"address":null,"lat":45.1720868,"lon":5.7220062},
{"name":"Lidl","brand":"Lidl","city":null,"address":null,"lat":48.8699567,"lon":2.4678923},
{"name":"Lidl","brand":"Lidl","city":null,"address":null,"lat":45.6995233,"lon":5.0135502},
{"name":"Lidl","brand":"Lidl","city":null,"address":null,"lat":47.7465019,"lon":7.3682194},
{"name":"Lidl","brand":"Lidl","city":null,"address":null,"lat":48.2477395,"lon":6.4187665},
{"name":"Lidl","brand":"Lidl","city":null,"address":"43200","lat":45.146217,"lon":4.1212739},
{"name":"Lidl","brand":"Lidl","city":null,"address":null,"lat":43.6490535,"lon":1.4849343},
{"name":"Lidl","brand":"Lidl","city":null,"address":"Rue de Vernou, 41200","lat":47.3783445,"lon":1.7348722},
{"name":"Lidl","brand":"Lidl","city":null,"address":null,"lat":43.4615927,"lon":5.407107},
{"name":"Lidl","brand":"Lidl","city":null,"address":null,"lat":45.2461084,"lon":4.6749107},
{"name":"Lidl","brand":"Lidl","city":null,"address":null,"lat":43.7065381,"lon":7.2811764},
{"name":"Lidl","brand":"Lidl","city":null,"address":null,"lat":46.3377883,"lon":2.5750144},
{"name":"Lidl","brand":"Lidl","city":"Cormeilles-en-Parisis","address":"Boulevard des Bois Rochefort, 95240 Cormeilles-en-Parisis","lat":48.9556829,"lon":2.2047473},
{"name":"Lidl","brand":"Lidl","city":null,"address":null,"lat":43.1177587,"lon":3.1055369},
{"name":"Lidl","brand":"Lidl","city":null,"address":null,"lat":48.8985252,"lon":2.2911963},
{"name":"Lidl","brand":"Lidl","city":null,"address":null,"lat":47.1071525,"lon":5.5066672},
{"name":"Lidl","brand":"Lidl","city":null,"address":"10 Boulevard Pasteur, 95210","lat":48.9664753,"lon":2.2823402},
{"name":"Lidl","brand":"Lidl","city":null,"address":null,"lat":44.6890797,"lon":-0.5059575},
{"name":"Lidl","brand":"Lidl","city":"Toulouse","address":"20 Impasse de Maubec, 31000 Toulouse","lat":43.6059561,"lon":1.3965058},
{"name":"Lidl","brand":"Lidl","city":null,"address":"Avenue des Champs Elysées","lat":49.9085067,"lon":4.0927827},
{"name":"Lidl","brand":"Lidl","city":null,"address":"Avenue du 8 Mai 1945","lat":50.3384691,"lon":3.1918266},
{"name":"Lidl","brand":"Lidl","city":null,"address":"122 Avenue du Général Leclerc","lat":48.909303,"lon":2.3072614},
{"name":"Lidl","brand":"Lidl","city":null,"address":null,"lat":48.8183065,"lon":6.5145617},
{"name":"Lidl","brand":"Lidl","city":"Chanteloup-en-Brie","address":"8 Avenue de la convention, 77600 Chanteloup-en-Brie","lat":48.8566297,"lon":2.7533697},
{"name":"Lidl","brand":"Lidl","city":"Saint-André-sur-Orne","address":"6 Rue Alfred Lefèvre, 14320 Saint-André-sur-Orne","lat":49.1198697,"lon":-0.3746511},
{"name":"Lidl","brand":"Lidl","city":null,"address":null,"lat":43.2089263,"lon":2.307747},
{"name":"Lidl","brand":"Lidl","city":null,"address":null,"lat":47.8419315,"lon":5.3317461},
{"name":"Lidl","brand":"Lidl","city":null,"address":null,"lat":48.8849336,"lon":2.4855015},
{"name":"Lidl","brand":"Lidl","city":null,"address":"33650","lat":44.7221752,"lon":-0.53135},
{"name":"Lidl","brand":"Lidl","city":null,"address":"178 Avenue du Général Faidherbe","lat":50.0081818,"lon":2.6669973},
{"name":"Lidl","brand":"Lidl","city":"Fréjus","address":"Fréjus","lat":43.4706959,"lon":6.7385554},
{"name":"Lidl","brand":"Lidl","city":null,"address":null,"lat":49.6331894,"lon":1.1735602},
{"name":"Lidl","brand":"Lidl","city":null,"address":null,"lat":48.8274282,"lon":2.3745524},
{"name":"Lidl","brand":"Lidl","city":"Sablé-sur-Sarthe","address":"Route du Mans, 72300 Sablé-sur-Sarthe","lat":47.8381338,"lon":-0.3083997},
{"name":"Lidl","brand":"Lidl","city":"Angers","address":"97 Avenue Victor Châtenay, 49000 Angers","lat":47.4870733,"lon":-0.5140438},
{"name":"Lidl","brand":"Lidl","city":null,"address":null,"lat":46.7475385,"lon":5.4644937},
{"name":"Lidl","brand":"Lidl","city":null,"address":null,"lat":46.3699958,"lon":2.5714792},
{"name":"Lidl","brand":"Lidl","city":null,"address":"Rond-Point de la Croix Saint-Benoît","lat":48.9813376,"lon":2.4423253},
{"name":"Lidl","brand":"Lidl","city":"Aubervilliers","address":"34 Rue Saint-Denis, 93300 Aubervilliers","lat":48.9210011,"lon":2.3778711},
{"name":"Lidl","brand":"Lidl","city":"Drancy","address":"Rue de Stalingrad, 93700 Drancy","lat":48.9141112,"lon":2.434073},
{"name":"Lidl","brand":"Lidl","city":null,"address":null,"lat":43.682526,"lon":1.4495355},
{"name":"Lidl","brand":"Lidl","city":null,"address":"1 Route de Toulouse, 09190","lat":43.0047411,"lon":1.1293301},
{"name":"Lidl","brand":"Lidl","city":null,"address":null,"lat":47.2997429,"lon":5.0220405},
{"name":"Lidl","brand":"Lidl","city":null,"address":null,"lat":43.7796967,"lon":1.3523859},
{"name":"Lidl","brand":"Lidl","city":"La Teste-de-Buch","address":"49, 33260 La Teste-de-Buch","lat":44.6395167,"lon":-1.1552627},
{"name":"Lidl","brand":"Lidl","city":null,"address":"2 Boulevard Denis Papin","lat":48.1073795,"lon":-1.2081729},
{"name":"Lidl","brand":"Lidl","city":null,"address":"14 Route de Quarante Sous","lat":48.96358,"lon":1.8562092},
{"name":"Lidl","brand":"Lidl","city":null,"address":null,"lat":43.6515,"lon":1.3293685},
{"name":"Lidl","brand":"Lidl","city":"Évron","address":"2 Route de Neau, 53600 Évron","lat":48.1583372,"lon":-0.4124467},
{"name":"Lidl","brand":"Lidl","city":"Noirmoutier-en-l'Île","address":"85330 Noirmoutier-en-l'Île","lat":47.0047807,"lon":-2.2427398},
{"name":"Lidl","brand":"Lidl","city":null,"address":"39 Rue Tailbouis","lat":49.5115653,"lon":2.4283567},
{"name":"Lidl","brand":"Lidl","city":null,"address":null,"lat":46.5693848,"lon":4.90513},
{"name":"Lidl","brand":"Lidl","city":null,"address":null,"lat":48.2520766,"lon":7.4381867},
{"name":"Lidl","brand":"Lidl","city":"Paray-le-Monial","address":"Boulevard du Champ Bossu, 71600 Paray-le-Monial","lat":46.4645504,"lon":4.1161351},
{"name":"Lidl","brand":"Lidl","city":null,"address":"2 Rue du Maréchal Juin","lat":49.4817256,"lon":2.8721395},
{"name":"Lidl","brand":"Lidl","city":null,"address":null,"lat":48.87541,"lon":2.4220199},
{"name":"Lidl","brand":"Lidl","city":null,"address":null,"lat":43.886066,"lon":5.3739049},
{"name":"Lidl","brand":"Lidl","city":null,"address":null,"lat":43.6277928,"lon":1.4764468},
{"name":"Lidl","brand":"Lidl","city":null,"address":null,"lat":44.8133819,"lon":-0.7452246},
{"name":"Lidl","brand":"Lidl","city":null,"address":"Rue Lempereur","lat":50.2788653,"lon":3.9257887},
{"name":"Lidl","brand":"Lidl","city":"Torcy","address":"60 Route d'Autun, 71210 Torcy","lat":46.7682507,"lon":4.4497445},
{"name":"Lidl","brand":"Lidl","city":null,"address":"Rue Georges Clemenceau","lat":50.2735954,"lon":2.2896038},
{"name":"Lidl","brand":"Lidl","city":null,"address":null,"lat":45.417569,"lon":4.3999219},
{"name":"Lidl","brand":"Lidl","city":null,"address":null,"lat":48.8140675,"lon":2.3614274},
{"name":"Lidl","brand":"Lidl","city":null,"address":null,"lat":43.7180791,"lon":1.569162},
{"name":"Lidl","brand":"Lidl","city":null,"address":"Rue d'Australie","lat":49.9046765,"lon":2.2745024},
{"name":"Lidl","brand":"Lidl","city":null,"address":null,"lat":44.9183085,"lon":1.8368013},
{"name":"Lidl","brand":"Lidl","city":null,"address":"Rue Jean Jaurès","lat":50.3916121,"lon":3.4779482},
{"name":"Lidl","brand":"Lidl","city":null,"address":null,"lat":45.3483376,"lon":4.8050433},
{"name":"Lidl","brand":"Lidl","city":"Milly-la-Forêt","address":"27 Rue de Chenet, 91490 Milly-la-Forêt","lat":48.3975917,"lon":2.4206937},
{"name":"Lidl","brand":"Lidl","city":null,"address":"207 Avenue de Versailles","lat":48.8384786,"lon":2.259788},
{"name":"Lidl","brand":"Lidl","city":null,"address":null,"lat":48.8972822,"lon":2.3232347},
{"name":"Lidl","brand":"Lidl","city":null,"address":null,"lat":46.7963522,"lon":3.9793172},
{"name":"Lidl","brand":"Lidl","city":null,"address":null,"lat":43.2821046,"lon":5.42344},
{"name":"Lidl","brand":"Lidl","city":"Tarare","address":"1 Route de Feurs, 69170 Tarare","lat":45.8948454,"lon":4.4283346},
{"name":"Lidl","brand":"Lidl","city":"Le Houlme","address":"161b Rue du Général de Gaulle, 76770 Le Houlme","lat":49.5110914,"lon":1.0384533},
{"name":"Lidl","brand":"Lidl","city":"Longwy","address":"Avenue de Saintignon, 54400 Longwy","lat":49.5231009,"lon":5.7740385},
{"name":"Lidl","brand":"Lidl","city":null,"address":null,"lat":45.4090018,"lon":0.9240248},
{"name":"Lidl","brand":"Lidl","city":null,"address":"54 Rue de Dijon, 21121","lat":47.3438412,"lon":5.0001656},
{"name":"Lidl","brand":"Lidl","city":null,"address":null,"lat":48.0020462,"lon":0.245721},
{"name":"Lidl","brand":"Lidl","city":null,"address":null,"lat":45.0135513,"lon":-0.4272351},
{"name":"Lidl","brand":"Lidl","city":null,"address":"1","lat":49.2683648,"lon":4.0382659},
{"name":"Lidl","brand":"Lidl","city":null,"address":null,"lat":43.5754865,"lon":1.3474278},
{"name":"Lidl","brand":"Lidl","city":null,"address":null,"lat":46.7483156,"lon":5.9195774},
{"name":"Lidl","brand":"Lidl","city":null,"address":null,"lat":47.7794719,"lon":-3.341178},
{"name":"Lidl","brand":"Lidl","city":null,"address":null,"lat":49.1095642,"lon":0.6167575},
{"name":"Lidl","brand":"Lidl","city":null,"address":null,"lat":43.2329948,"lon":1.58474},
{"name":"Lidl","brand":"Lidl","city":null,"address":null,"lat":50.0547351,"lon":1.4238489},
{"name":"Lidl","brand":"Lidl","city":null,"address":null,"lat":45.2572246,"lon":4.6953578},
{"name":"Lidl","brand":"Lidl","city":null,"address":"Rue Auguste Bonte","lat":50.6460889,"lon":3.0151754},
{"name":"Lidl","brand":"Lidl","city":null,"address":"Avenue Pierre Mendés-France","lat":49.5810307,"lon":3.6419749},
{"name":"Lidl","brand":"Lidl","city":"Bar-le-Duc","address":"77 Rue Ernest Bradfer, 55000 Bar-le-Duc","lat":48.7655339,"lon":5.1752247},
{"name":"Lidl","brand":"Lidl","city":null,"address":null,"lat":43.6118555,"lon":1.3531544},
{"name":"Lidl","brand":"Lidl","city":null,"address":"Rue du Général Koenig","lat":50.5654366,"lon":2.92954},
{"name":"Lidl","brand":"Lidl","city":null,"address":"Rue du 4 Septembre","lat":50.4124112,"lon":2.8282034},
{"name":"Lidl","brand":"Lidl","city":null,"address":"72 Rue de la République","lat":50.1056446,"lon":2.8623541},
{"name":"Lidl","brand":"Lidl","city":null,"address":null,"lat":45.5511952,"lon":3.2573725},
{"name":"Lidl","brand":"Lidl","city":"Eaubonne","address":"328 Rue de Saint-Prix, 95600 Eaubonne","lat":48.9977281,"lon":2.2690395},
{"name":"Lidl","brand":"Lidl","city":null,"address":"Rue Constant Darras","lat":50.4231306,"lon":2.8478305},
{"name":"Lidl","brand":"Lidl","city":null,"address":null,"lat":49.0263233,"lon":3.9538547},
{"name":"Lidl","brand":"Lidl","city":"Méricourt","address":"Rue Camille Desmoulins, 62680 Méricourt","lat":50.3980221,"lon":2.8846599},
{"name":"Lidl","brand":"Lidl","city":null,"address":null,"lat":48.8297887,"lon":2.3257666},
{"name":"Lidl","brand":"Lidl","city":null,"address":"42 Rue de Chevilly, 94800","lat":48.7815742,"lon":2.3549677},
{"name":"Lidl","brand":"Lidl","city":null,"address":null,"lat":45.2478388,"lon":1.7458949},
{"name":"Lidl","brand":"Lidl","city":null,"address":null,"lat":43.8136378,"lon":4.6133314},
{"name":"Lidl","brand":"Lidl","city":null,"address":null,"lat":45.1285856,"lon":1.3266783},
{"name":"Lidl","brand":"Lidl","city":null,"address":null,"lat":45.4066983,"lon":4.3826506},
{"name":"Lidl","brand":"Lidl","city":null,"address":null,"lat":48.8485331,"lon":2.4886907},
{"name":"Lidl","brand":"Lidl","city":null,"address":null,"lat":48.6615144,"lon":-3.6253414},
{"name":"Lidl","brand":"Lidl","city":null,"address":"Avenue Ferber","lat":50.8237933,"lon":1.7057327},
{"name":"Lidl","brand":"Lidl","city":null,"address":null,"lat":43.6427354,"lon":1.4662817},
{"name":"Lidl","brand":"Lidl","city":null,"address":null,"lat":45.3426625,"lon":5.0657248},
{"name":"Lidl","brand":"Lidl","city":null,"address":null,"lat":43.6180852,"lon":3.8978022},
{"name":"Lidl","brand":"Lidl","city":"Draguignan","address":"Boulevard Léon Gambetta, 83300 Draguignan","lat":43.5459264,"lon":6.4438307},
{"name":"Lidl","brand":"Lidl","city":null,"address":null,"lat":48.8976049,"lon":2.345776},
{"name":"Lidl","brand":"Lidl","city":null,"address":null,"lat":47.1870413,"lon":5.8293565},
{"name":"Lidl","brand":"Lidl","city":null,"address":"Rue du Langhe Gracht","lat":50.9942509,"lon":2.3663121},
{"name":"Lidl","brand":"Lidl","city":null,"address":"147 Avenue Léonard de Vinci","lat":47.4036256,"lon":1.0105442},
{"name":"Lidl","brand":"Lidl","city":null,"address":null,"lat":47.9777939,"lon":2.7359278},
{"name":"Lidl","brand":"Lidl","city":null,"address":null,"lat":47.0570171,"lon":-0.8598755},
{"name":"Lidl","brand":"Lidl","city":null,"address":null,"lat":45.7463084,"lon":-0.599455},
{"name":"Lidl","brand":"Lidl","city":null,"address":null,"lat":42.7370896,"lon":2.8918242},
{"name":"Lidl","brand":"Lidl","city":null,"address":null,"lat":42.6772564,"lon":2.8497375},
{"name":"Lidl","brand":"Lidl","city":"Carcassonne","address":"Carcassonne","lat":43.2083858,"lon":2.3813343},
{"name":"Lidl","brand":"Lidl","city":null,"address":"Boulevard Faidherbe","lat":50.6824057,"lon":2.8713632},
{"name":"Lidl","brand":"Lidl","city":null,"address":null,"lat":46.6465822,"lon":-1.4346425},
{"name":"Lidl","brand":"Lidl","city":null,"address":null,"lat":43.9623451,"lon":1.2486692},
{"name":"Lidl","brand":"Lidl","city":"Taillecourt","address":"Taillecourt","lat":47.4941514,"lon":6.8420479},
{"name":"Lidl","brand":"Lidl","city":null,"address":"57 Avenue Jean Jaurès, 34600","lat":43.612983,"lon":3.1522411},
{"name":"Lidl","brand":"Lidl","city":"Trans-en-Provence","address":"1608 Route de Draguignan, 83720 Trans-en-Provence","lat":43.5152873,"lon":6.4773993},
{"name":"Lidl","brand":"Lidl","city":null,"address":null,"lat":48.989316,"lon":1.7683699},
{"name":"Lidl","brand":"Lidl","city":null,"address":null,"lat":47.228527,"lon":5.9850136},
{"name":"Lidl","brand":"Lidl","city":null,"address":null,"lat":48.0895592,"lon":-4.3488774},
{"name":"Lidl","brand":"Lidl","city":null,"address":null,"lat":48.8461668,"lon":2.3876354},
{"name":"Lidl","brand":"Lidl","city":null,"address":null,"lat":44.8582284,"lon":0.4928854},
{"name":"Lidl","brand":"Lidl","city":"Saint-Alban-Leysse","address":"450 Avenue de Chambéry, 73230 Saint-Alban-Leysse","lat":45.5725342,"lon":5.9552353},
{"name":"Lidl","brand":"Lidl","city":"Le Portel","address":"42 Avenue du Général San Martin, 62480 Le Portel","lat":50.710561,"lon":1.5833874},
{"name":"Lidl","brand":"Lidl","city":null,"address":null,"lat":42.6871024,"lon":2.9038024},
{"name":"Lidl","brand":"Lidl","city":null,"address":null,"lat":43.3269568,"lon":5.3656847},
{"name":"Lidl","brand":"Lidl","city":"Bagneux","address":"6 Place des Bas Longchamps, 92220 Bagneux","lat":48.7900342,"lon":2.3123089},
{"name":"Lidl","brand":"Lidl","city":"Rognac","address":"Le Bosquet Rn 113, 13340 Rognac","lat":43.4855626,"lon":5.2210585},
{"name":"Lidl","brand":"Lidl","city":null,"address":null,"lat":47.7965162,"lon":7.3371137},
{"name":"Lidl","brand":"Lidl","city":null,"address":null,"lat":47.8814968,"lon":6.2985001},
{"name":"Lidl","brand":"Lidl","city":null,"address":null,"lat":43.4353948,"lon":6.8095552},
{"name":"Lidl","brand":"Lidl","city":null,"address":"34 Avenue Georges Clemenceau, 94700","lat":48.8077457,"lon":2.4435666},
{"name":"Lidl","brand":"Lidl","city":"Coignières","address":"21 Voie Latérale Sud, 78310 Coignières","lat":48.7534079,"lon":1.9361758},
{"name":"Lidl","brand":"Lidl","city":null,"address":null,"lat":46.176567,"lon":-1.1108118},
{"name":"Lidl","brand":"Lidl","city":null,"address":null,"lat":42.9635983,"lon":1.8651362},
{"name":"Lidl","brand":"Lidl","city":"Bordeaux","address":"44 Rue Lucien Faure, 33000 Bordeaux","lat":44.8623688,"lon":-0.5558668},
{"name":"Lidl","brand":"Lidl","city":null,"address":null,"lat":48.5094474,"lon":3.7116567},
{"name":"Lidl","brand":"Lidl","city":null,"address":null,"lat":45.576704,"lon":4.8063477},
{"name":"Lidl","brand":"Lidl","city":null,"address":null,"lat":49.2126951,"lon":6.1210656},
{"name":"Lidl","brand":"Lidl","city":null,"address":null,"lat":48.4282758,"lon":7.6603539},
{"name":"Lidl","brand":"Lidl","city":"Fismes","address":"52 Route de Soissons, 51170 Fismes","lat":49.3089233,"lon":3.6679058},
{"name":"Lidl","brand":"Lidl","city":null,"address":null,"lat":47.799523,"lon":-3.4757198},
{"name":"Lidl","brand":"Lidl","city":null,"address":null,"lat":48.7771324,"lon":-3.244569},
{"name":"Lidl","brand":"Lidl","city":"Longpont-sur-Orge","address":"2 Chemin de Biron, 91310 Longpont-sur-Orge","lat":48.6350784,"lon":2.2850967},
{"name":"Lidl","brand":"Lidl","city":null,"address":null,"lat":49.0881064,"lon":6.1225454},
{"name":"Lidl","brand":"Lidl","city":"Saint-Quentin","address":"21 Rue du Maréchal Foch, 02100 Saint-Quentin","lat":49.8403765,"lon":3.300198},
{"name":"Lidl","brand":"Lidl","city":null,"address":null,"lat":46.7879917,"lon":0.5262367},
{"name":"Lidl","brand":"Lidl","city":null,"address":null,"lat":42.6673891,"lon":2.8965658},
{"name":"Lidl","brand":"Lidl","city":null,"address":null,"lat":48.5913081,"lon":-3.8257358},
{"name":"Lidl","brand":"Lidl","city":null,"address":null,"lat":47.7337256,"lon":-3.4299667},
{"name":"Lidl","brand":"Lidl","city":"Bruay-la-Buissière","address":"Rue Éric Tabarly, 62700 Bruay-la-Buissière","lat":50.4909973,"lon":2.5856481},
{"name":"Lidl","brand":"Lidl","city":null,"address":null,"lat":47.2640619,"lon":6.0621229},
{"name":"Lidl","brand":"Lidl","city":null,"address":null,"lat":45.1528994,"lon":1.5089598},
{"name":"Lidl","brand":"Lidl","city":null,"address":"Rue Jean Jaurès","lat":50.3122045,"lon":3.3460125},
{"name":"Lidl","brand":"Lidl","city":null,"address":null,"lat":45.6816315,"lon":0.1766355},
{"name":"Lidl","brand":"Lidl","city":"Alès","address":"173 Route de Nîmes, 30100 Alès","lat":44.1138639,"lon":4.0997135},
{"name":"Lidl","brand":"Lidl","city":null,"address":null,"lat":49.4839035,"lon":1.7320418},
{"name":"Lidl","brand":"Lidl","city":null,"address":null,"lat":48.7543733,"lon":2.4114598},
{"name":"Lidl","brand":"Lidl","city":null,"address":null,"lat":47.3961632,"lon":-0.5275959},
{"name":"Lidl","brand":"Lidl","city":null,"address":null,"lat":47.0702753,"lon":-0.8532322},
{"name":"Lidl","brand":"Lidl","city":null,"address":"Rue Maryse Bastié","lat":44.9608209,"lon":4.8850429},
{"name":"Lidl","brand":"Lidl","city":null,"address":"Rue de Béthune","lat":50.538806,"lon":2.5870925},
{"name":"Lidl","brand":"Lidl","city":"Saran","address":"Rue Nationale 20, 45770 Saran","lat":47.9535048,"lon":1.8906951},
{"name":"Lidl","brand":"Lidl","city":null,"address":null,"lat":48.7914866,"lon":1.9712657},
{"name":"Lidl","brand":"Lidl","city":null,"address":null,"lat":50.4727543,"lon":3.2337315},
{"name":"Lidl","brand":"Lidl","city":"Conflans-en-Jarnisy","address":"Rue de Verdun, 54800 Conflans-en-Jarnisy","lat":49.1648738,"lon":5.8463003},
{"name":"Lidl","brand":"Lidl","city":null,"address":null,"lat":48.8686935,"lon":2.4161245},
{"name":"Lidl","brand":"Lidl","city":null,"address":null,"lat":45.7164273,"lon":4.9585445},
{"name":"Lidl","brand":"Lidl","city":null,"address":null,"lat":48.3267164,"lon":0.8270566},
{"name":"Lidl","brand":"Lidl","city":null,"address":null,"lat":49.0805168,"lon":6.1005643},
{"name":"Lidl","brand":"Lidl","city":null,"address":null,"lat":47.1739535,"lon":-1.6246188},
{"name":"Lidl","brand":"Lidl","city":null,"address":"Route de Quarante Sous, 78630","lat":48.9313223,"lon":1.973717},
{"name":"Lidl","brand":"Lidl","city":null,"address":"8 Rue des Frères Eberts","lat":48.5536475,"lon":7.7427701},
{"name":"Lidl","brand":"Lidl","city":"Poussan","address":"71 Avenue des Lauriers, 34560 Poussan","lat":43.4739421,"lon":3.678616},
{"name":"Lidl","brand":"Lidl","city":null,"address":"2040 Route Nationale 7, 06270","lat":43.6315489,"lon":7.1339551},
{"name":"Lidl","brand":"Lidl","city":null,"address":null,"lat":48.9735931,"lon":2.4231458},
{"name":"Lidl","brand":"Lidl","city":"Paris","address":"83 Rue Saint-Maur, 75011 Paris","lat":48.8639234,"lon":2.3784106},
{"name":"Lidl","brand":"Lidl","city":null,"address":null,"lat":45.7258114,"lon":4.8639125},
{"name":"Lidl","brand":"Lidl","city":"Arpajon","address":"18-20 Route de Limours, 91290 Arpajon","lat":48.5999225,"lon":2.2412462},
{"name":"Lidl","brand":"Lidl","city":null,"address":null,"lat":44.7878984,"lon":-0.5346045},
{"name":"Lidl","brand":"Lidl","city":"Seyssinet-Pariset","address":"20 Avenue de Grenoble, 38170 Seyssinet-Pariset","lat":45.1687414,"lon":5.690715},
{"name":"Lidl","brand":"Lidl","city":null,"address":null,"lat":46.5357927,"lon":3.3456268},
{"name":"Lidl","brand":"Lidl","city":null,"address":null,"lat":45.3659279,"lon":5.5864129},
{"name":"Lidl","brand":"Lidl","city":null,"address":null,"lat":47.7033827,"lon":1.5135529},
{"name":"Lidl","brand":"Lidl","city":"Le Havre","address":"123 Rue Demidoff, 76600 Le Havre","lat":49.4974383,"lon":0.136329},
{"name":"Lidl","brand":"Lidl","city":null,"address":null,"lat":49.725143,"lon":1.4577445},
{"name":"Lidl","brand":"Lidl","city":"Nantes","address":"78 Route de Rennes, 44300 Nantes","lat":47.2536739,"lon":-1.5759375},
{"name":"Lidl","brand":"Lidl","city":null,"address":"Avenue François Mitterrand, 06300","lat":43.7092847,"lon":7.2869099},
{"name":"Lidl","brand":"Lidl","city":null,"address":null,"lat":47.515576,"lon":6.7969141},
{"name":"Lidl","brand":"Lidl","city":"Schiltigheim","address":"3 Allée Frédérique Kleinknecht, 67300 Schiltigheim","lat":48.5999619,"lon":7.7420154},
{"name":"Lidl","brand":"Lidl","city":"La Calmette","address":"2 Allée Fanfonne Guillierme, 30190 La Calmette","lat":43.9234964,"lon":4.2565197},
{"name":"Lidl","brand":"Lidl","city":null,"address":null,"lat":48.1902281,"lon":2.2452681},
{"name":"Lidl","brand":"Lidl","city":null,"address":null,"lat":43.7298746,"lon":-0.2673102},
{"name":"Lidl","brand":"Lidl","city":null,"address":null,"lat":48.6866701,"lon":2.4339733},
{"name":"Lidl","brand":"Lidl","city":null,"address":null,"lat":43.4798585,"lon":-0.7483404},
{"name":"Lidl","brand":"Lidl","city":null,"address":null,"lat":49.4837056,"lon":5.1996155},
{"name":"Lidl","brand":"Lidl","city":"Morsang-sur-Orge","address":"8 Rue Jean-Pierre Timbaud, 91390 Morsang-sur-Orge","lat":48.6618063,"lon":2.3605595},
{"name":"Lidl","brand":"Lidl","city":null,"address":null,"lat":45.7630276,"lon":4.8664467},
{"name":"Lidl","brand":"Lidl","city":null,"address":null,"lat":48.9453637,"lon":4.3914171},
{"name":"Lidl","brand":"Lidl","city":null,"address":null,"lat":48.1665564,"lon":6.4457488},
{"name":"Lidl","brand":"Lidl","city":"Longueau","address":"4 Avenue de l'Arc, 80330 Longueau","lat":49.868983,"lon":2.3718706},
{"name":"Lidl","brand":"Lidl","city":"Le Havre","address":"70 Quai Frissard, 76600 Le Havre","lat":49.4902002,"lon":0.127626},
{"name":"Lidl","brand":"Lidl","city":null,"address":"Faubourg de Cassel","lat":50.9626302,"lon":2.4316637},
{"name":"Lidl","brand":"Lidl","city":null,"address":"Route Nationale 50","lat":50.3320097,"lon":2.9775274},
{"name":"Lidl","brand":"Lidl","city":"Port-Jérôme-sur-Seine","address":"22 Rue Raoul Dufy, 76330 Port-Jérôme-sur-Seine","lat":49.4862087,"lon":0.5810355},
{"name":"Lidl","brand":"Lidl","city":null,"address":null,"lat":43.4525065,"lon":6.692247},
{"name":"Lidl","brand":"Lidl","city":null,"address":null,"lat":43.4307585,"lon":6.7453936},
{"name":"Lidl","brand":"Lidl","city":null,"address":"Rue Jean Jaurès","lat":50.390249,"lon":3.6116601},
{"name":"Lidl","brand":"Lidl","city":null,"address":null,"lat":42.5334756,"lon":2.8403041},
{"name":"Lidl","brand":"Lidl","city":null,"address":"Avenue de la Bélandrière","lat":51.0239859,"lon":2.3628104},
{"name":"Lidl","brand":"Lidl","city":"Feytiat","address":"25 Rue d'Eymoutiers, 87220 Feytiat","lat":45.817655,"lon":1.2993768},
{"name":"Lidl","brand":"Lidl","city":null,"address":null,"lat":48.9136969,"lon":2.4834182},
{"name":"Lidl","brand":"Lidl","city":null,"address":null,"lat":43.5078177,"lon":4.9876938},
{"name":"Lidl","brand":"Lidl","city":"Melun","address":"36 Avenue du Général Patton, 77000 Melun","lat":48.5479375,"lon":2.650111},
{"name":"Lidl","brand":"Lidl","city":null,"address":null,"lat":46.694972,"lon":-1.0567406},
{"name":"Lidl","brand":"Lidl","city":null,"address":null,"lat":43.3062164,"lon":6.2495483},
{"name":"Lidl","brand":"Lidl","city":null,"address":null,"lat":43.6374754,"lon":5.0757039},
{"name":"Lidl","brand":"Lidl","city":"Bischheim","address":"1 Avenue de l'Énergie, 67800 Bischheim","lat":48.6305041,"lon":7.7665081},
{"name":"Lidl","brand":"Lidl","city":null,"address":null,"lat":48.6200589,"lon":7.7317669},
{"name":"Lidl","brand":"Lidl","city":null,"address":null,"lat":43.283038,"lon":5.3886102},
{"name":"Lidl","brand":"Lidl","city":null,"address":null,"lat":48.109381,"lon":-1.6454659},
{"name":"Lidl","brand":"Lidl","city":null,"address":null,"lat":46.4302042,"lon":0.886217},
{"name":"Lidl","brand":"Lidl","city":null,"address":"ZAC du Mont Renaud","lat":49.5731965,"lon":2.9788766},
{"name":"Lidl","brand":"Lidl","city":null,"address":null,"lat":45.8265056,"lon":0.4512707},
{"name":"Lidl","brand":"Lidl","city":null,"address":null,"lat":43.6953403,"lon":7.2531746},
{"name":"Lidl","brand":"Lidl","city":null,"address":null,"lat":47.2586106,"lon":-2.2831774},
{"name":"Lidl","brand":"Lidl","city":null,"address":null,"lat":47.2895788,"lon":-2.2087034},
{"name":"Lidl","brand":"Lidl","city":"Guérande","address":"Avenue des Floralies, 44350 Guérande","lat":47.2913978,"lon":-2.3968001},
{"name":"Lidl","brand":"Lidl","city":"Bobigny","address":"2 Rue Marat, Bobigny","lat":48.916886,"lon":2.4160986},
{"name":"Lidl","brand":"Lidl","city":null,"address":"83440","lat":43.6048006,"lon":6.7556303},
{"name":"Lidl","brand":"Lidl","city":null,"address":"81 Rue de Paris","lat":49.7302179,"lon":3.0681135},
{"name":"Lidl","brand":"Lidl","city":null,"address":null,"lat":49.0830785,"lon":6.1468265},
{"name":"Lidl","brand":"Lidl","city":null,"address":null,"lat":48.8700065,"lon":2.2252652},
{"name":"Lidl","brand":"Lidl","city":"Saint-Jean-de-Braye","address":"155-157 Rue du Faubourg de Bourgogne, 45800 Saint-Jean-de-Braye","lat":47.9043111,"lon":1.934238},
{"name":"Lidl","brand":"Lidl","city":null,"address":null,"lat":48.4462009,"lon":-4.2688919},
{"name":"Lidl","brand":"Lidl","city":null,"address":null,"lat":46.0658271,"lon":4.0637331},
{"name":"Lidl","brand":"Lidl","city":null,"address":null,"lat":48.5140702,"lon":-4.0550518},
{"name":"Lidl","brand":"Lidl","city":"Mitry-Mory","address":"36 Avenue de Verdun, 77290 Mitry-Mory","lat":48.9550872,"lon":2.5977882},
{"name":"Lidl","brand":"Lidl","city":null,"address":null,"lat":43.1159735,"lon":5.8552737},
{"name":"Lidl","brand":"Lidl","city":null,"address":"46","lat":48.4820122,"lon":7.730393},
{"name":"Lidl","brand":"Lidl","city":"Haudainville","address":"55100 Haudainville","lat":49.1442343,"lon":5.4093155},
{"name":"Lidl","brand":"Lidl","city":null,"address":null,"lat":45.4453726,"lon":4.4205393},
{"name":"Lidl","brand":"Lidl","city":null,"address":null,"lat":48.6717333,"lon":2.2826797},
{"name":"Lidl","brand":"Lidl","city":null,"address":null,"lat":44.1470174,"lon":1.5238056},
{"name":"Lidl","brand":"Lidl","city":null,"address":null,"lat":43.340556,"lon":1.2562152},
{"name":"Lidl","brand":"Lidl","city":null,"address":null,"lat":49.348725,"lon":0.5173431},
{"name":"Lidl","brand":"Lidl","city":null,"address":null,"lat":43.6807846,"lon":1.4083171},
{"name":"Lidl","brand":"Lidl","city":null,"address":null,"lat":48.7366907,"lon":0.9346547},
{"name":"Lidl","brand":"Lidl","city":null,"address":null,"lat":49.3255116,"lon":1.2174162},
{"name":"Lidl","brand":"Lidl","city":null,"address":null,"lat":48.9116013,"lon":2.6068682},
{"name":"Lidl","brand":"Lidl","city":null,"address":null,"lat":48.6789972,"lon":2.528649},
{"name":"Lidl","brand":"Lidl","city":null,"address":null,"lat":48.9907669,"lon":2.3630526},
{"name":"Lidl","brand":"Lidl","city":null,"address":null,"lat":44.8438922,"lon":0.4688134},
{"name":"Lidl","brand":"Lidl","city":"Ivry-sur-Seine","address":"42 Avenue Jean Jaurès, 94205 Ivry-sur-Seine","lat":48.8112023,"lon":2.4030247},
{"name":"Lidl","brand":"Lidl","city":null,"address":null,"lat":45.8856169,"lon":3.1140494},
{"name":"Lidl","brand":"Lidl","city":null,"address":"Rue René Cassin","lat":50.3870369,"lon":2.3473776},
{"name":"Lidl","brand":"Lidl","city":"Le Havre","address":"1 Rue du Capuchet, 76620 Le Havre","lat":49.5233212,"lon":0.1038171},
{"name":"Lidl","brand":"Lidl","city":null,"address":null,"lat":43.2984292,"lon":5.3756354},
{"name":"Lidl","brand":"Lidl","city":null,"address":null,"lat":48.6884411,"lon":6.1791561},
{"name":"Lidl","brand":"Lidl","city":null,"address":null,"lat":45.5968914,"lon":5.266314},
{"name":"Lidl","brand":"Lidl","city":null,"address":null,"lat":47.4614711,"lon":6.841209},
{"name":"Lidl","brand":"Lidl","city":null,"address":null,"lat":48.9905549,"lon":1.6748115},
{"name":"Lidl","brand":"Lidl","city":null,"address":null,"lat":49.260452,"lon":3.9635419},
{"name":"Lidl","brand":"Lidl","city":"Gex","address":"22 Rue des Transporteurs, 01170 Gex","lat":46.3378429,"lon":6.0736054},
{"name":"Lidl","brand":"Lidl","city":null,"address":"Avenue du Général de Gaulle","lat":50.7281108,"lon":2.3058581},
{"name":"Lidl","brand":"Lidl","city":null,"address":null,"lat":45.5777485,"lon":-0.6803773},
{"name":"Lidl","brand":"Lidl","city":null,"address":null,"lat":48.7940313,"lon":2.417142},
{"name":"Lidl","brand":"Lidl","city":null,"address":null,"lat":45.3922044,"lon":5.2403606},
{"name":"Lidl","brand":"Lidl","city":null,"address":null,"lat":44.6129125,"lon":4.4067908},
{"name":"Lidl","brand":"Lidl","city":null,"address":null,"lat":48.5642993,"lon":-4.3459849},
{"name":"Lidl","brand":"Lidl","city":null,"address":null,"lat":44.1526582,"lon":4.647807},
{"name":"Lidl","brand":"Lidl","city":null,"address":"41 Rue des Ajoncs","lat":46.5137156,"lon":-1.7752158},
{"name":"Lidl","brand":"Lidl","city":"Château-d'Olonne","address":"85180 Château-d'Olonne","lat":46.4875028,"lon":-1.7453274},
{"name":"Lidl","brand":"Lidl","city":null,"address":null,"lat":48.8552735,"lon":2.7816649},
{"name":"Lidl","brand":"Lidl","city":null,"address":null,"lat":47.2609167,"lon":1.3590891},
{"name":"Lidl","brand":"Lidl","city":"Épagny Metz-Tessy","address":"89 Rue de l'Industrie, 74330 Épagny Metz-Tessy","lat":45.9379446,"lon":6.0803134},
{"name":"Lidl","brand":"Lidl","city":null,"address":null,"lat":43.3911484,"lon":3.3183057},
{"name":"Lidl","brand":"Lidl","city":"Orléans","address":"26 Avenue de Saint-Mesmin, 45100 Orléans","lat":47.8878207,"lon":1.8910196},
{"name":"Lidl","brand":"Lidl","city":null,"address":null,"lat":47.2420986,"lon":6.0093994},
{"name":"Lidl","brand":"Lidl","city":null,"address":null,"lat":48.3169303,"lon":2.0027196},
{"name":"Lidl","brand":"Lidl","city":null,"address":null,"lat":43.5785218,"lon":4.1894333},
{"name":"Lidl","brand":"Lidl","city":null,"address":"Rue Albert de Mun","lat":50.6817017,"lon":2.8886101},
{"name":"Lidl","brand":"Lidl","city":null,"address":"Route de Louviers","lat":49.1487403,"lon":0.9226185},
{"name":"Lidl","brand":"Lidl","city":null,"address":null,"lat":43.6843424,"lon":-1.2396406},
{"name":"Lidl","brand":"Lidl","city":"Montpellier","address":"878 Avenue des Prés d'Arènes, 34000 Montpellier","lat":43.5905484,"lon":3.8842196},
{"name":"Lidl","brand":"Lidl","city":"Caen","address":"57 Avenue de Tourville, 14000 Caen","lat":49.1849021,"lon":-0.3491861},
{"name":"Lidl","brand":"Lidl","city":null,"address":null,"lat":48.7550608,"lon":7.5595728},
{"name":"Lidl","brand":"Lidl","city":null,"address":null,"lat":47.8103033,"lon":1.0726935},
{"name":"Lidl","brand":"Lidl","city":null,"address":null,"lat":47.772473,"lon":1.620747},
{"name":"Lidl","brand":"Lidl","city":null,"address":null,"lat":47.6679166,"lon":-2.9644286},
{"name":"Lidl","brand":"Lidl","city":null,"address":null,"lat":50.6082856,"lon":3.1074422},
{"name":"Lidl","brand":"Lidl","city":null,"address":null,"lat":43.6924148,"lon":7.1834472},
{"name":"Lidl","brand":"Lidl","city":null,"address":null,"lat":43.4410796,"lon":5.2431242},
{"name":"Lidl","brand":"Lidl","city":"Plaisance du Touch","address":"2, 31830 Plaisance du Touch","lat":43.5709517,"lon":1.3116816},
{"name":"Lidl","brand":"Lidl","city":"Saint-Renan","address":"Saint-Renan","lat":48.4331586,"lon":-4.6198431},
{"name":"Lidl","brand":"Lidl","city":"Saint-Denis","address":"64 Rue de la République, 93200 Saint-Denis","lat":48.9368455,"lon":2.3524911},
{"name":"Lidl","brand":"Lidl","city":"Bois-Colombes","address":"305 Avenue d'Argenteuil, 92270 Bois-Colombes","lat":48.9234913,"lon":2.2755467},
{"name":"Lidl","brand":"Lidl","city":null,"address":null,"lat":47.0630928,"lon":2.3839007},
{"name":"Lidl","brand":"Lidl","city":null,"address":"Route d'Amiens","lat":49.8736231,"lon":2.2799443},
{"name":"Lidl","brand":"Lidl","city":null,"address":null,"lat":46.8049126,"lon":1.6966558},
{"name":"Lidl","brand":"Lidl","city":null,"address":"1 Place Poincaré, 78000","lat":48.7968764,"lon":2.1349917},
{"name":"Lidl","brand":"Lidl","city":null,"address":null,"lat":44.5392132,"lon":6.0560225},
{"name":"Lidl","brand":"Lidl","city":null,"address":null,"lat":43.442264,"lon":0.0405818},
{"name":"Lidl","brand":"Lidl","city":null,"address":"4 Boulevard Victor Hugo","lat":49.84258,"lon":3.2801477},
{"name":"Lidl","brand":"Lidl","city":null,"address":"96 Rue d'Amiens","lat":49.6389752,"lon":2.280755},
{"name":"Lidl","brand":"Lidl","city":null,"address":"Avenue de la Ferté-Milon","lat":49.2497637,"lon":3.0953386},
{"name":"Lidl","brand":"Lidl","city":null,"address":"Avenue Winston Churchill","lat":50.2992318,"lon":2.7404963},
{"name":"Lidl","brand":"Lidl","city":null,"address":"Rue Horace Vernet","lat":50.6726416,"lon":3.1859753},
{"name":"Lidl","brand":"Lidl","city":null,"address":null,"lat":46.8400706,"lon":1.707189},
{"name":"Lidl","brand":"Lidl","city":null,"address":null,"lat":47.01045,"lon":3.1506954},
{"name":"Lidl","brand":"Lidl","city":null,"address":null,"lat":45.9514927,"lon":6.633643},
{"name":"Lidl","brand":"Lidl","city":null,"address":null,"lat":43.8019279,"lon":1.5979495},
{"name":"Lidl","brand":"Lidl","city":null,"address":null,"lat":47.0550923,"lon":3.9368253},
{"name":"Lidl","brand":"Lidl","city":null,"address":null,"lat":47.3796391,"lon":0.694469},
{"name":"Lidl","brand":"Lidl","city":null,"address":null,"lat":45.4371336,"lon":-0.4515467},
{"name":"Lidl","brand":"Lidl","city":"Pringy","address":"55 Rue de Melun, 77310 Pringy","lat":48.523275,"lon":2.5612308}
]