[
{"name":"Intermarché Express","brand":"Intermarché Express","city":"Rouen","address":"39 Rue Écuyère, 76000 Rouen","lat":49.4434214,"lon":1.0901154},
{"name":"Intermarché Express","brand":"Intermarché Express","city":null,"address":null,"lat":45.7507107,"lon":4.8557839},
{"name":"Intermarché Express","brand":"Intermarché Express","city":null,"address":"14 Avenue Charles de Gaulle, 78800","lat":48.9211589,"lon":2.1860453},
{"name":"Intermarché Express","brand":"Intermarché Express","city":null,"address":null,"lat":43.6966595,"lon":7.2566105},
{"name":"Intermarché Express","brand":"Intermarché Express","city":"Dijon","address":"7 Rue de Talant, 21000 Dijon","lat":47.3270939,"lon":5.0282285},
{"name":"Intermarché Express","brand":"Intermarché Express","city":null,"address":null,"lat":45.8005125,"lon":4.8251822},
{"name":"Intermarché Express","brand":"Intermarché Express","city":"Évian-les-Bains","address":"10 Avenue Marc Francina, 74500 Évian-les-Bains","lat":46.4001133,"lon":6.5854485},
{"name":"Intermarché Express","brand":"Intermarché Express","city":null,"address":null,"lat":43.4269545,"lon":6.7679282},
{"name":"Intermarché Express","brand":"Intermarché Express","city":"Suresnes","address":"48 Avenue Jean Jaurès, 92150 Suresnes","lat":48.8635531,"lon":2.2094012},
{"name":"Intermarché Express","brand":"Intermarché Express","city":null,"address":"19 Avenue Auguste Renoir","lat":43.6641506,"lon":7.1502242},
{"name":"Intermarché Express","brand":"Intermarché Express","city":"Rueil-Malmaison","address":"14 Rue Jacques Daguerre, 92500 Rueil-Malmaison","lat":48.8889492,"lon":2.1692866},
{"name":"Intermarché Express","brand":"Intermarché Express","city":null,"address":null,"lat":49.1032902,"lon":6.1746657},
{"name":"Intermarché Express","brand":"Intermarché Express","city":null,"address":"4 Rue du Baron Fain, 91220","lat":48.6085089,"lon":2.3047195},
{"name":"Intermarché Express","brand":"Intermarché Express","city":null,"address":"65 Cours Edouard Vaillant","lat":44.8611542,"lon":-0.5585669},
{"name":"Intermarché Express","brand":"Intermarché Express","city":"Besançon","address":"20 Avenue Fontaine-Argent, 25000 Besançon","lat":47.2447504,"lon":6.0323105},
{"name":"Intermarché Express","brand":"Intermarché Express","city":null,"address":null,"lat":47.3402751,"lon":5.0449241},
{"name":"Intermarché Express","brand":"Intermarché Express","city":null,"address":null,"lat":48.1094501,"lon":-1.6737466},
{"name":"Intermarché Express","brand":"Intermarché Express","city":null,"address":null,"lat":43.698432,"lon":7.2654149},
{"name":"Intermarché Express","brand":"Intermarché Express","city":"Clamart","address":"8 Place du Panorama, 92140 Clamart","lat":48.7931964,"lon":2.271377},
{"name":"Intermarché Express","brand":"Intermarché Express","city":null,"address":null,"lat":45.7358364,"lon":4.8534232},
{"name":"Intermarché Express","brand":"Intermarché Express","city":"Cavalaire-sur-Mer","address":"Immeuble Aigue Marine Avenue Pierre et Marie Curie, 83240 Cavalaire-sur-Mer","lat":43.1716285,"lon":6.5316795},
{"name":"Intermarché Express","brand":"Intermarché Express","city":"Nice","address":"143 Boulevard de Cessole, 06100 Nice","lat":43.7236642,"lon":7.2498743},
{"name":"Intermarché Express","brand":"Intermarché Express","city":"Le Perreux-sur-Marne","address":"221 Avenue Pierre Brossolette, 94170 Le Perreux-sur-Marne","lat":48.8344399,"lon":2.5164377},
{"name":"Intermarché Express","brand":"Intermarché Express","city":null,"address":null,"lat":48.9302513,"lon":2.2830428},
{"name":"Intermarché Express","brand":"Intermarché Express","city":"Crosne","address":"4 Rue Alexandre Foudrier, 91560 Crosne","lat":48.7167218,"lon":2.4586332},
{"name":"Intermarché Express","brand":"Intermarché Express","city":null,"address":null,"lat":48.8347709,"lon":2.2283122},
{"name":"Intermarché Express","brand":"Intermarché Express","city":null,"address":null,"lat":43.2308013,"lon":0.0744723},
{"name":"Intermarché Express","brand":"Intermarché Express","city":null,"address":null,"lat":45.0174289,"lon":6.1245619},
{"name":"Intermarché Express","brand":"Intermarché Express","city":"Villefranche-sur-Mer","address":"55 Boulevard de la Corne d'Or, 06230 Villefranche-sur-Mer","lat":43.710027,"lon":7.3091766},
{"name":"Intermarché St Vincent","brand":"Intermarché Express","city":null,"address":null,"lat":49.1237443,"lon":6.1717784},
{"name":"Intermarché Express","brand":"Intermarché Express","city":"La Garenne-Colombes","address":"6 Boulevard de la République, La Garenne-Colombes","lat":48.9056486,"lon":2.254997},
{"name":"Intermarché Express","brand":"Intermarché Express","city":null,"address":"2 Grande Rue","lat":46.819374,"lon":-1.9930021},
{"name":"Intermarché Express","brand":"Intermarché Express","city":null,"address":"8 Rue Louvrier de Lajolais","lat":45.8320601,"lon":1.2544165},
{"name":"Intermarché Express","brand":"Intermarché Express","city":null,"address":null,"lat":48.6459398,"lon":2.3533069},
{"name":"Intermarché Express","brand":"Intermarché Express","city":null,"address":null,"lat":44.1038488,"lon":1.0846478}
]