[
{"name":"Aldi","brand":"Aldi","city":null,"address":"12 Rue Lénine","lat":49.2549531,"lon":2.4451373},
{"name":"Aldi","brand":"Aldi","city":null,"address":"Rue du Faubourg d'Arras / Route d'Arras","lat":50.6076207,"lon":3.0605415},
{"name":"Aldi","brand":"Aldi","city":null,"address":"67 Avenue Georges Dupont","lat":50.6137626,"lon":3.023727},
{"name":"Aldi","brand":"Aldi","city":"Pontault-Combault","address":"77340 Pontault-Combault","lat":48.7791261,"lon":2.6064901},
{"name":"ALDI","brand":"Aldi","city":null,"address":null,"lat":49.6794139,"lon":1.0350041},
{"name":"ALDI","brand":"Aldi","city":null,"address":"Rue des Entreprises","lat":43.8655133,"lon":5.8429506},
{"name":"Aldi","brand":"Aldi","city":null,"address":null,"lat":49.189865,"lon":6.6966639},
{"name":"Aldi","brand":"Aldi","city":"Cergy","address":"2/4 Les Linandes Beiges, 95000 Cergy","lat":49.0439971,"lon":2.0694799},
{"name":"Aldi","brand":"Aldi","city":null,"address":"Rue Charles de Gaulle","lat":48.9631495,"lon":1.8633398},
{"name":"ALDI","brand":"Aldi","city":null,"address":null,"lat":43.8410179,"lon":4.3889939},
{"name":"Aldi","brand":"Aldi","city":"Mont-de-Marsan","address":"Boulevard Jean Larrieu, 40000 Mont-de-Marsan","lat":43.8880075,"lon":-0.4885587},
{"name":"ALDI","brand":"Aldi","city":null,"address":null,"lat":44.914569,"lon":2.4271073},
{"name":"ALDI","brand":"Aldi","city":null,"address":"Rue de l'Allier","lat":47.1998641,"lon":-1.6674154},
{"name":"ALDI","brand":"Aldi","city":null,"address":null,"lat":48.6782765,"lon":6.156236},
{"name":"ALDI","brand":"Aldi","city":null,"address":null,"lat":48.7990398,"lon":7.8013206},
{"name":"ALDI","brand":"Aldi","city":"Castelnau-le-Lez","address":"Avenue de l'Aube Rouge, 34170 Castelnau-le-Lez","lat":43.6389837,"lon":3.9251501},
{"name":"ALDI","brand":"Aldi","city":null,"address":null,"lat":48.5721079,"lon":-4.5103124},
{"name":"ALDI","brand":"Aldi","city":null,"address":null,"lat":48.2469805,"lon":-4.4958704},
{"name":"Aldi","brand":"Aldi","city":null,"address":"Avenue du Général de Gaulle","lat":48.678584,"lon":2.3830865},
{"name":"Aldi","brand":"Aldi","city":null,"address":null,"lat":49.6100053,"lon":0.7710404},
{"name":"ALDI","brand":"Aldi","city":null,"address":null,"lat":48.4728161,"lon":7.2147802},
{"name":"ALDI","brand":"Aldi","city":"Pessac","address":"18 Rue d'Artois, 33600 Pessac","lat":44.792428,"lon":-0.6829665},
{"name":"Aldi","brand":"Aldi","city":null,"address":null,"lat":48.7416612,"lon":7.3785766},
{"name":"Aldi","brand":"Aldi","city":null,"address":null,"lat":42.71725,"lon":2.8406489},
{"name":"ALDI","brand":"Aldi","city":null,"address":null,"lat":43.2891133,"lon":-0.2723207},
{"name":"ALDI","brand":"Aldi","city":null,"address":"128 Avenue François Mitterrand","lat":47.1718892,"lon":0.2442851},
{"name":"Aldi","brand":"Aldi","city":null,"address":null,"lat":45.2895863,"lon":4.1583487},
{"name":"ALDI","brand":"Aldi","city":null,"address":null,"lat":43.4788009,"lon":-0.7647692},
{"name":"Aldi","brand":"Aldi","city":null,"address":null,"lat":45.889704,"lon":6.1135958},
{"name":"ALDI","brand":"Aldi","city":null,"address":null,"lat":43.3719824,"lon":-0.6287206},
{"name":"ALDI","brand":"Aldi","city":null,"address":null,"lat":47.8127159,"lon":3.5703888},
{"name":"Aldi","brand":"Aldi","city":null,"address":null,"lat":47.7976403,"lon":3.5568169},
{"name":"Aldi","brand":"Aldi","city":"Lunel","address":"80 Avenue des Quatre Saisons, 34400 Lunel","lat":43.6773241,"lon":4.1151906},
{"name":"Aldi","brand":"Aldi","city":null,"address":"Rue de Ris","lat":48.663688,"lon":2.4179156},
{"name":"ALDI","brand":"Aldi","city":null,"address":null,"lat":43.330133,"lon":-0.3790043},
{"name":"ALDI","brand":"Aldi","city":null,"address":null,"lat":43.3115911,"lon":-0.3517967},
{"name":"Aldi","brand":"Aldi","city":null,"address":null,"lat":45.4373008,"lon":4.4374798},
{"name":"Aldi","brand":"Aldi","city":null,"address":null,"lat":46.4189241,"lon":0.8597713},
{"name":"Aldi","brand":"Aldi","city":null,"address":"Rue Féray","lat":48.6065508,"lon":2.4737018},
{"name":"Aldi","brand":"Aldi","city":null,"address":null,"lat":43.6086624,"lon":6.9729807},
{"name":"Aldi","brand":"Aldi","city":"Gennevilliers","address":"118 Avenue Gabriel Péri, 92230 Gennevilliers","lat":48.9233583,"lon":2.2950049},
{"name":"Aldi","brand":"Aldi","city":"Saint-Denis","address":"20 Boulevard Anatole France, 93200 Saint-Denis","lat":48.9289427,"lon":2.3534283},
{"name":"ALDI","brand":"Aldi","city":null,"address":null,"lat":42.4814183,"lon":2.6794752},
{"name":"Aldi","brand":"Aldi","city":null,"address":"Avenue Jean Jaurès","lat":50.2823277,"lon":3.9571706},
{"name":"Aldi","brand":"Aldi","city":null,"address":null,"lat":47.0071404,"lon":0.0875732},
{"name":"ALDI","brand":"Aldi","city":null,"address":null,"lat":46.7891019,"lon":0.1859559},
{"name":"ALDI","brand":"Aldi","city":null,"address":null,"lat":43.1799955,"lon":-0.606779},
{"name":"Aldi","brand":"Aldi","city":null,"address":"Rue de Tournai","lat":50.6093964,"lon":3.2467557},
{"name":"ALDI","brand":"Aldi","city":null,"address":null,"lat":48.449794,"lon":5.1479814},
{"name":"Aldi","brand":"Aldi","city":null,"address":null,"lat":48.501313,"lon":4.9369792},
{"name":"Aldi","brand":"Aldi","city":null,"address":null,"lat":45.2559489,"lon":4.7013171},
{"name":"Aldi","brand":"Aldi","city":"Le Petit-Quevilly","address":"128 Avenue Jean Jaurès, 76140 Le Petit-Quevilly","lat":49.426344,"lon":1.0583806},
{"name":"ALDI","brand":"Aldi","city":null,"address":null,"lat":45.6931958,"lon":4.8049469},
{"name":"Aldi","brand":"Aldi","city":"Limoux","address":"1 Allée de la Piège, 11300 Limoux","lat":43.0748958,"lon":2.219285},
{"name":"Aldi","brand":"Aldi","city":"Saint-Dizier","address":"19 Avenue Pierre Beregovoy, 52100 Saint-Dizier","lat":48.6271782,"lon":4.9615371},
{"name":"Aldi","brand":"Aldi","city":null,"address":null,"lat":48.6474402,"lon":4.9622737},
{"name":"Aldi","brand":"Aldi","city":"Dorlisheim","address":"1 Rue du Gaentzig, 67120 Dorlisheim","lat":48.528902,"lon":7.4950332},
{"name":"ALDI","brand":"Aldi","city":null,"address":null,"lat":45.5539013,"lon":3.2485835},
{"name":"ALDI","brand":"Aldi","city":"Trans-en-Provence","address":"Route de Draguignan, 83720 Trans-en-Provence","lat":43.5076523,"lon":6.4811013},
{"name":"ALDI","brand":"Aldi","city":null,"address":"887 Route de l'Isle Jourdain","lat":43.6264836,"lon":1.1229115},
{"name":"ALDI","brand":"Aldi","city":null,"address":null,"lat":44.5277152,"lon":3.4744978},
{"name":"ALDI","brand":"Aldi","city":null,"address":null,"lat":43.5844258,"lon":5.4731973},
{"name":"Aldi","brand":"Aldi","city":null,"address":null,"lat":45.5808843,"lon":4.7402458},
{"name":"Aldi","brand":"Aldi","city":null,"address":null,"lat":48.0245357,"lon":-1.7521693},
{"name":"ALDI","brand":"Aldi","city":null,"address":null,"lat":44.0733246,"lon":1.5268497},
{"name":"ALDI","brand":"Aldi","city":"Issenheim","address":"1 Rue de Nevers, 68500 Issenheim","lat":47.9023511,"lon":7.2417491},
{"name":"ALDI","brand":"Aldi","city":null,"address":null,"lat":45.7873754,"lon":3.0925929},
{"name":"ALDI","brand":"Aldi","city":null,"address":null,"lat":45.6983193,"lon":4.8233504},
{"name":"Aldi Marché","brand":"Aldi","city":null,"address":null,"lat":48.2161031,"lon":1.1784514},
{"name":"Aldi","brand":"Aldi","city":null,"address":null,"lat":44.616062,"lon":4.4005114},
{"name":"Aldi","brand":"Aldi","city":null,"address":null,"lat":43.2346402,"lon":2.3692322},
{"name":"Aldi","brand":"Aldi","city":null,"address":null,"lat":44.8367299,"lon":0.4551652},
{"name":"ALDI","brand":"Aldi","city":null,"address":null,"lat":47.3429598,"lon":0.4511593},
{"name":"ALDI","brand":"Aldi","city":null,"address":null,"lat":47.3439558,"lon":0.7049565},
{"name":"ALDI","brand":"Aldi","city":null,"address":null,"lat":45.1843485,"lon":0.7751318},
{"name":"ALDI","brand":"Aldi","city":"Giberville","address":"Rue Pierre de Coubertin, 14730 Giberville","lat":49.1818586,"lon":-0.2778049},
{"name":"Aldi","brand":"Aldi","city":null,"address":null,"lat":43.3319072,"lon":5.4049398},
{"name":"Aldi","brand":"Aldi","city":null,"address":"74 Avenue de Compiègne","lat":49.3820982,"lon":3.3084223},
{"name":"Aldi","brand":"Aldi","city":null,"address":"142 bis Rue Pelleport, 75020","lat":48.8717119,"lon":2.3988569},
{"name":"Aldi","brand":"Aldi","city":null,"address":"Avenue de la République","lat":48.9507034,"lon":2.3277398},
{"name":"Aldi","brand":"Aldi","city":null,"address":null,"lat":48.9329482,"lon":2.2334945},
{"name":"Aldi Marché","brand":"Aldi","city":null,"address":null,"lat":43.2299304,"lon":0.0969591},
{"name":"ALDI","brand":"Aldi","city":null,"address":null,"lat":45.8381361,"lon":1.2549597},
{"name":"Aldi","brand":"Aldi","city":"Asnières-sur-Seine","address":"97 Rue du Ménil, 92600 Asnières-sur-Seine","lat":48.9206211,"lon":2.2832317},
{"name":"ALDI","brand":"Aldi","city":null,"address":null,"lat":47.3586876,"lon":0.6467711},
{"name":"ALDI","brand":"Aldi","city":null,"address":null,"lat":46.3365797,"lon":-0.4069761},
{"name":"Aldi","brand":"Aldi","city":null,"address":"Rue de Louvroil","lat":50.2532267,"lon":3.9289593},
{"name":"ALDI","brand":"Aldi","city":null,"address":null,"lat":44.42285,"lon":1.4386903},
{"name":"ALDI","brand":"Aldi","city":"Saône","address":"Rue du Chenau Blond, 25660 Saône","lat":47.2095855,"lon":6.1005057},
{"name":"Aldi","brand":"Aldi","city":null,"address":null,"lat":44.9385108,"lon":4.913069},
{"name":"Aldi","brand":"Aldi","city":null,"address":null,"lat":47.9649914,"lon":3.5210926},
{"name":"ALDI","brand":"Aldi","city":null,"address":null,"lat":46.1081011,"lon":-0.765849},
{"name":"Aldi","brand":"Aldi","city":null,"address":null,"lat":48.1843032,"lon":3.2877502},
{"name":"ALDI","brand":"Aldi","city":null,"address":"7 Rue Henri Matisse","lat":45.6240001,"lon":-1.0014472},
{"name":"Aldi","brand":"Aldi","city":null,"address":null,"lat":48.3028568,"lon":4.0635699},
{"name":"ALDI","brand":"Aldi","city":null,"address":null,"lat":48.3097044,"lon":4.0965182},
{"name":"ALDI","brand":"Aldi","city":"Ganges","address":"56 Avenue de Nîmes, 34190 Ganges","lat":43.9427563,"lon":3.7156786},
{"name":"Aldi","brand":"Aldi","city":"Romainville","address":"90 Route de Montreuil / Rue de Romainville, 93230 Romainville","lat":48.875221,"lon":2.4478913},
{"name":"Aldi","brand":"Aldi","city":null,"address":null,"lat":44.283905,"lon":4.7454086},
{"name":"Aldi","brand":"Aldi","city":null,"address":null,"lat":43.6320722,"lon":3.8216322},
{"name":"Aldi","brand":"Aldi","city":"Gourdan-Polignan","address":"Rue du Bazert, 31210 Gourdan-Polignan","lat":43.0617094,"lon":0.5929711},
{"name":"ALDI","brand":"Aldi","city":null,"address":null,"lat":48.0084884,"lon":6.607972},
{"name":"Aldi","brand":"Aldi","city":null,"address":null,"lat":43.7567322,"lon":1.303019},
{"name":"ALDI","brand":"Aldi","city":"Boucau","address":"9 Rue René Duvert, 64340 Boucau","lat":43.5224587,"lon":-1.4886931},
{"name":"ALDI","brand":"Aldi","city":null,"address":null,"lat":47.4957438,"lon":3.9075439},
{"name":"Aldi","brand":"Aldi","city":null,"address":"Rue Théodore Monod","lat":50.6453906,"lon":3.0971386},
{"name":"Aldi","brand":"Aldi","city":"Le Havre","address":"160 Rue Stendhal, 76620 Le Havre","lat":49.5197854,"lon":0.0807041},
{"name":"Aldi","brand":"Aldi","city":null,"address":null,"lat":49.490406,"lon":0.1501683},
{"name":"ALDI","brand":"Aldi","city":"Toulouse","address":"14 Avenue Maurice Bourgès-Maunoury, 31200 Toulouse","lat":43.6281722,"lon":1.446563},
{"name":"ALDI","brand":"Aldi","city":null,"address":"25 Boulevard Silvio Trentin","lat":43.6245125,"lon":1.4280295},
{"name":"ALDI","brand":"Aldi","city":null,"address":null,"lat":43.606364,"lon":1.4808032},
{"name":"Aldi","brand":"Aldi","city":null,"address":"Rue Jean Jaurès","lat":50.6674441,"lon":3.1411942},
{"name":"ALDI","brand":"Aldi","city":null,"address":null,"lat":46.5684523,"lon":3.3255548},
{"name":"ALDI","brand":"Aldi","city":null,"address":null,"lat":46.5877878,"lon":3.3161884},
{"name":"Aldi","brand":"Aldi","city":null,"address":null,"lat":44.8529696,"lon":-0.5398354},
{"name":"Aldi","brand":"Aldi","city":null,"address":null,"lat":44.5459469,"lon":-0.263646},
{"name":"Aldi","brand":"Aldi","city":"Créteil","address":"Allée Parmentier, 94000 Créteil","lat":48.786696,"lon":2.446726},
{"name":"ALDI","brand":"Aldi","city":"Orange","address":"Rue d'Italie, Orange","lat":44.1192692,"lon":4.8438896},
{"name":"ALDI","brand":"Aldi","city":null,"address":null,"lat":47.6524148,"lon":6.8510675},
{"name":"Aldi","brand":"Aldi","city":null,"address":"Avenue du Cap Horn","lat":48.6754038,"lon":2.1950475},
{"name":"Aldi","brand":"Aldi","city":null,"address":"Rue Chanzy","lat":50.6137073,"lon":3.1225178},
{"name":"Aldi","brand":"Aldi","city":null,"address":"20 Rue du Bois","lat":50.6907514,"lon":3.1686333},
{"name":"Aldi","brand":"Aldi","city":null,"address":null,"lat":48.4196429,"lon":7.6649972},
{"name":"Aldi","brand":"Aldi","city":null,"address":"Rue de la Lys","lat":50.6423797,"lon":2.7540889},
{"name":"Aldi","brand":"Aldi","city":null,"address":null,"lat":44.3611359,"lon":2.0108184},
{"name":"Aldi","brand":"Aldi","city":null,"address":null,"lat":48.1298865,"lon":-1.6401877},
{"name":"Aldi","brand":"Aldi","city":"Nogent-sur-Oise","address":"112 Avenue de l'Europe, 60180 Nogent-sur-Oise","lat":49.2703511,"lon":2.4813023},
{"name":"Aldi","brand":"Aldi","city":null,"address":"Rue Étienne Fajon","lat":48.9602775,"lon":2.3434485},
{"name":"Aldi","brand":"Aldi","city":null,"address":null,"lat":49.5147164,"lon":5.7521041},
{"name":"ALDI","brand":"Aldi","city":null,"address":null,"lat":42.6818369,"lon":2.8952123},
{"name":"Aldi","brand":"Aldi","city":null,"address":null,"lat":46.2243704,"lon":-0.1566753},
{"name":"ALDI","brand":"Aldi","city":"Vimoutiers","address":"20 Rue du Perré, 61120 Vimoutiers","lat":48.9285737,"lon":0.2013594},
{"name":"ALDI","brand":"Aldi","city":null,"address":null,"lat":43.269348,"lon":-0.1959315},
{"name":"ALDI","brand":"Aldi","city":null,"address":null,"lat":47.5088973,"lon":6.7863881},
{"name":"Aldi","brand":"Aldi","city":null,"address":"Rue Jacques Monod","lat":49.0258243,"lon":1.1793701},
{"name":"ALDI","brand":"Aldi","city":null,"address":null,"lat":47.9628433,"lon":-3.8453081},
{"name":"Aldi","brand":"Aldi","city":null,"address":"Allée du Levant","lat":43.584079,"lon":3.921479},
{"name":"Aldi","brand":"Aldi","city":null,"address":null,"lat":43.7076579,"lon":1.8175768},
{"name":"Aldi","brand":"Aldi","city":null,"address":null,"lat":48.1318448,"lon":7.3561264},
{"name":"ALDI","brand":"Aldi","city":null,"address":null,"lat":46.4472474,"lon":5.3441121},
{"name":"ALDI","brand":"Aldi","city":null,"address":"1 Route de Bain","lat":47.9537835,"lon":-1.5065444},
{"name":"ALDI","brand":"Aldi","city":null,"address":null,"lat":47.7730714,"lon":7.3622068},
{"name":"Aldi","brand":"Aldi","city":null,"address":"Avenue du Général Gallieni","lat":48.9064108,"lon":2.4806695},
{"name":"ALDI","brand":"Aldi","city":"Faulquemont","address":"6 Rue Émile Houpert, 57380 Faulquemont","lat":49.0481038,"lon":6.5978308},
{"name":"ALDI","brand":"Aldi","city":null,"address":null,"lat":46.8405319,"lon":0.5502532},
{"name":"Aldi","brand":"Aldi","city":null,"address":"Avenue Paul Vaillant-Couturier","lat":48.9252344,"lon":2.4662156},
{"name":"ALDI","brand":"Aldi","city":"Martres-Tolosane","address":"Avenue des Pyrénées, 31220 Martres-Tolosane","lat":43.1935588,"lon":0.9990644},
{"name":"ALDI","brand":"Aldi","city":"Rezé","address":"48 Rue Ernest Sauvestre, 44400 Rezé","lat":47.1654935,"lon":-1.5432963},
{"name":"Aldi","brand":"Aldi","city":"Croix","address":"215 Boulevard Émile Zola, 59170 Croix","lat":50.6799651,"lon":3.1515657},
{"name":"Aldi","brand":"Aldi","city":null,"address":null,"lat":47.4392336,"lon":5.6008808},
{"name":"Aldi","brand":"Aldi","city":null,"address":null,"lat":47.2239137,"lon":-1.597675},
{"name":"Aldi","brand":"Aldi","city":null,"address":null,"lat":49.1153523,"lon":6.7105928},
{"name":"ALDI","brand":"Aldi","city":null,"address":null,"lat":43.599958,"lon":5.0071901},
{"name":"ALDI","brand":"Aldi","city":null,"address":"Avenue des Goisses, 51100","lat":49.2162277,"lon":4.0590737},
{"name":"ALDI","brand":"Aldi","city":null,"address":null,"lat":49.2418244,"lon":3.9906799},
{"name":"ALDI","brand":"Aldi","city":null,"address":null,"lat":46.1609748,"lon":0.3106977},
{"name":"Aldi","brand":"Aldi","city":"Le Quesnoy","address":"2 Route de Bavay, 59530 Le Quesnoy","lat":50.2519291,"lon":3.6427783},
{"name":"ALDI","brand":"Aldi","city":"École-Valentin","address":"39 Rue de Châtillon, 25480 École-Valentin","lat":47.280862,"lon":5.9917555},
{"name":"Aldi","brand":"Aldi","city":null,"address":null,"lat":45.4653968,"lon":6.121442},
{"name":"ALDI","brand":"Aldi","city":null,"address":null,"lat":49.2599949,"lon":4.0091389},
{"name":"Aldi","brand":"Aldi","city":null,"address":null,"lat":44.2423649,"lon":5.0842714},
{"name":"Aldi","brand":"Aldi","city":null,"address":"36 Rue de Brienne","lat":48.5346579,"lon":4.1497941},
{"name":"Aldi","brand":"Aldi","city":null,"address":"1 Rue Abel Maroux","lat":49.3779033,"lon":2.4515138},
{"name":"Aldi","brand":"Aldi","city":null,"address":null,"lat":47.8639125,"lon":-3.5285725},
{"name":"Aldi","brand":"Aldi","city":null,"address":null,"lat":44.0321493,"lon":5.0501478},
{"name":"Aldi","brand":"Aldi","city":"Charleville-Mézières","address":"6 Boulevard Jean Delautre, 08000 Charleville-Mézières","lat":49.739799,"lon":4.719374},
{"name":"ALDI","brand":"Aldi","city":"Chateauneuf-sur-Loire","address":"117 Route d'Orléans, 45110 Chateauneuf-sur-Loire","lat":47.8602173,"lon":2.1966387},
{"name":"ALDI","brand":"Aldi","city":null,"address":null,"lat":47.253726,"lon":5.9610486},
{"name":"ALDI","brand":"Aldi","city":null,"address":null,"lat":45.8163675,"lon":3.1548425},
{"name":"Aldi","brand":"Aldi","city":null,"address":null,"lat":43.077735,"lon":0.1419455},
{"name":"Aldi","brand":"Aldi","city":null,"address":null,"lat":47.247163,"lon":6.81304},
{"name":"Aldi","brand":"Aldi","city":null,"address":null,"lat":43.2016024,"lon":2.7762679},
{"name":"Aldi","brand":"Aldi","city":null,"address":"Avenue Sadi Carnot","lat":49.2312223,"lon":2.898437},
{"name":"ALDI","brand":"Aldi","city":null,"address":null,"lat":43.4533179,"lon":5.8562271},
{"name":"Aldi","brand":"Aldi","city":null,"address":null,"lat":43.285877,"lon":5.5817455},
{"name":"ALDI","brand":"Aldi","city":null,"address":null,"lat":48.1105465,"lon":-1.2132715},
{"name":"Aldi","brand":"Aldi","city":null,"address":"6 Route de Villécloye","lat":49.5147559,"lon":5.3738129},
{"name":"ALDI","brand":"Aldi","city":"Quimper","address":"Route de Brest, 29000 Quimper","lat":48.0175014,"lon":-4.0840515},
{"name":"ALDI","brand":"Aldi","city":null,"address":null,"lat":49.7348898,"lon":4.8510908},
{"name":"Aldi","brand":"Aldi","city":null,"address":"95 Rue Simeon Guillaume de la Roque","lat":49.3877715,"lon":2.3920405},
{"name":"ALDI","brand":"Aldi","city":"Amilly","address":"Rue des Aubépines, 45200 Amilly","lat":47.979158,"lon":2.7343285},
{"name":"Aldi","brand":"Aldi","city":null,"address":null,"lat":48.5680081,"lon":7.688387},
{"name":"ALDI","brand":"Aldi","city":null,"address":"45 Rue de Strasbourg","lat":48.7432967,"lon":7.0833588},
{"name":"Aldi","brand":"Aldi","city":null,"address":null,"lat":49.1656396,"lon":5.8447417},
{"name":"ALDI","brand":"Aldi","city":null,"address":null,"lat":44.5563328,"lon":2.2676662},
{"name":"Aldi","brand":"Aldi","city":null,"address":null,"lat":43.4031715,"lon":5.0515055},
{"name":"Aldi","brand":"Aldi","city":null,"address":null,"lat":43.4108879,"lon":5.0255346},
{"name":"ALDI","brand":"Aldi","city":"Concarneau","address":"14-16 Rue Lucien Vidie, 29900 Concarneau","lat":47.8931929,"lon":-3.9153928},
{"name":"ALDI","brand":"Aldi","city":"Concarneau","address":"14-16 Rue Lucien Vidie, 29900 Concarneau","lat":47.8929376,"lon":-3.9155708},
{"name":"ALDI","brand":"Aldi","city":null,"address":null,"lat":49.8579796,"lon":4.7635108},
{"name":"ALDI","brand":"Aldi","city":null,"address":null,"lat":49.6908255,"lon":4.9610946},
{"name":"ALDI","brand":"Aldi","city":"Warcq","address":"11 Boulevard Lucien Pierquin, 08000 Warcq","lat":49.7808855,"lon":4.6913845},
{"name":"ALDI","brand":"Aldi","city":"Puttelange-aux-Lacs","address":"20 Rue Robert Schuman, Puttelange-aux-Lacs","lat":49.0555545,"lon":6.9271363},
{"name":"Aldi","brand":"Aldi","city":null,"address":"Rue Clemenceau","lat":50.5885726,"lon":3.0525442},
{"name":"Aldi","brand":"Aldi","city":"Arles","address":"Rue de Sagné, 13200 Arles","lat":43.6648131,"lon":4.6361507},
{"name":"Aldi","brand":"Aldi","city":null,"address":"Avenue de la Société des Nations","lat":48.8539585,"lon":2.7640935},
{"name":"ALDI","brand":"Aldi","city":null,"address":null,"lat":47.7634003,"lon":2.3669415},
{"name":"ALDI","brand":"Aldi","city":null,"address":null,"lat":46.2765285,"lon":4.031061},
{"name":"Aldi","brand":"Aldi","city":null,"address":"Boulevard Léon Révillon","lat":48.746234,"lon":2.5114285},
{"name":"Aldi","brand":"Aldi","city":null,"address":"Rue Edouard Dépret","lat":50.4079335,"lon":2.8245217},
{"name":"Aldi","brand":"Aldi","city":null,"address":"Route Nationale","lat":50.3372976,"lon":3.0123135},
{"name":"Aldi","brand":"Aldi","city":null,"address":"Avenue Alfred Maës","lat":50.4262045,"lon":2.803698},
{"name":"ALDI","brand":"Aldi","city":null,"address":null,"lat":47.359821,"lon":1.7380195},
{"name":"Aldi","brand":"Aldi","city":null,"address":"Avenue de la Convention","lat":48.7675495,"lon":2.4877875},
{"name":"Aldi","brand":"Aldi","city":null,"address":"Route d'Eecke","lat":50.8038052,"lon":2.5841165},
{"name":"Aldi","brand":"Aldi","city":null,"address":null,"lat":47.5359731,"lon":-0.0949332},
{"name":"Aldi","brand":"Aldi","city":null,"address":null,"lat":45.0554595,"lon":4.837562},
{"name":"Aldi","brand":"Aldi","city":null,"address":null,"lat":49.1823826,"lon":6.490084},
{"name":"Aldi","brand":"Aldi","city":null,"address":"Rue Lavoisier","lat":50.644148,"lon":3.006199},
{"name":"Aldi","brand":"Aldi","city":null,"address":null,"lat":45.5600206,"lon":5.9048566},
{"name":"ALDI","brand":"Aldi","city":null,"address":null,"lat":49.005549,"lon":6.3950045},
{"name":"Aldi","brand":"Aldi","city":null,"address":null,"lat":48.8202455,"lon":2.5298895},
{"name":"Aldi","brand":"Aldi","city":"Saint-Jean-de-Védas","address":"Allée Jean Monnet, 34430 Saint-Jean-de-Védas","lat":43.5683865,"lon":3.8379535},
{"name":"Aldi","brand":"Aldi","city":null,"address":"Rue André Chamson","lat":43.5764288,"lon":3.8319116},
{"name":"Aldi","brand":"Aldi","city":"Saint-Médard-en-Jalles","address":"33160 Saint-Médard-en-Jalles","lat":44.8851947,"lon":-0.6913782},
{"name":"ALDI","brand":"Aldi","city":null,"address":null,"lat":47.8774345,"lon":4.5637085},
{"name":"Aldi","brand":"Aldi","city":null,"address":"Rue Louis Braille","lat":50.605258,"lon":3.0974675},
{"name":"ALDI","brand":"Aldi","city":null,"address":null,"lat":45.9341411,"lon":-1.2998678},
{"name":"ALDI","brand":"Aldi","city":null,"address":null,"lat":43.324933,"lon":5.45114},
{"name":"ALDI","brand":"Aldi","city":null,"address":"2 Route de Touget","lat":43.6239301,"lon":0.885435},
{"name":"Aldi","brand":"Aldi","city":null,"address":"Rue des Frères Thibault","lat":48.5275096,"lon":2.6470493},
{"name":"Aldi","brand":"Aldi","city":null,"address":null,"lat":44.6620725,"lon":-1.1667585},
{"name":"Aldi","brand":"Aldi","city":null,"address":null,"lat":48.740296,"lon":2.7249575},
{"name":"Aldi","brand":"Aldi","city":null,"address":null,"lat":49.0091255,"lon":2.240986},
{"name":"Aldi","brand":"Aldi","city":null,"address":"Rue Marcel Sembat","lat":48.6418395,"lon":2.837314},
{"name":"Aldi","brand":"Aldi","city":null,"address":null,"lat":48.3937565,"lon":2.798585},
{"name":"Aldi","brand":"Aldi","city":null,"address":"Rue des Carreaux","lat":48.9449005,"lon":3.1288315},
{"name":"Aldi","brand":"Aldi","city":"Lognes","address":"21 Rue Mozart, 77185 Lognes","lat":48.8345435,"lon":2.6417785},
{"name":"Aldi","brand":"Aldi","city":"Guyancourt","address":"Rue Nicolas Copernic, 78280 Guyancourt","lat":48.7677487,"lon":2.0546631},
{"name":"ALDI","brand":"Aldi","city":null,"address":null,"lat":43.1261165,"lon":5.976841},
{"name":"ALDI","brand":"Aldi","city":null,"address":null,"lat":45.743697,"lon":4.7867775},
{"name":"Supermarché Aldi","brand":"Aldi","city":null,"address":null,"lat":45.7413685,"lon":4.7960805},
{"name":"ALDI","brand":"Aldi","city":null,"address":null,"lat":47.1909555,"lon":5.3907705},
{"name":"Aldi","brand":"Aldi","city":null,"address":null,"lat":47.592316,"lon":1.31458},
{"name":"Aldi","brand":"Aldi","city":null,"address":"Rue Jean-Baptiste Trystram","lat":51.033291,"lon":2.356527},
{"name":"Aldi","brand":"Aldi","city":null,"address":"14 Route de Falaise","lat":49.1476775,"lon":-0.3389465},
{"name":"ALDI","brand":"Aldi","city":null,"address":null,"lat":44.408134,"lon":0.7359095},
{"name":"Aldi","brand":"Aldi","city":null,"address":null,"lat":48.6843555,"lon":6.2194975},
{"name":"ALDI","brand":"Aldi","city":null,"address":null,"lat":45.5949135,"lon":5.2719375},
{"name":"ALDI","brand":"Aldi","city":null,"address":null,"lat":43.408566,"lon":6.057804},
{"name":"Aldi","brand":"Aldi","city":null,"address":"Route de Corbeil","lat":48.4888846,"lon":2.3529127},
{"name":"ALDI","brand":"Aldi","city":null,"address":"35 Avenue Nicéphore Niepce, 71100","lat":46.7816907,"lon":4.8474945},
{"name":"ALDI","brand":"Aldi","city":null,"address":null,"lat":46.7720375,"lon":4.8630588},
{"name":"ALDI","brand":"Aldi","city":null,"address":"16 Boulevard du Grand Marché","lat":47.3092355,"lon":5.0988255},
{"name":"ALDI","brand":"Aldi","city":null,"address":null,"lat":46.9141975,"lon":5.756575},
{"name":"Aldi","brand":"Aldi","city":null,"address":null,"lat":48.6240961,"lon":6.1790222},
{"name":"Aldi","brand":"Aldi","city":null,"address":"Rue de la Tannerie","lat":50.705432,"lon":3.0034205},
{"name":"Aldi","brand":"Aldi","city":"Wimereux","address":"Rue du Château, 62930 Wimereux","lat":50.7786235,"lon":1.6200695},
{"name":"Aldi","brand":"Aldi","city":null,"address":null,"lat":45.81611,"lon":4.891388},
{"name":"Aldi","brand":"Aldi","city":null,"address":null,"lat":46.5763917,"lon":4.9012564},
{"name":"ALDI","brand":"Aldi","city":null,"address":null,"lat":48.4371125,"lon":0.08701},
{"name":"Aldi","brand":"Aldi","city":null,"address":null,"lat":48.4193555,"lon":0.0971255},
{"name":"ALDI","brand":"Aldi","city":null,"address":"86 Rue du 13e de Ligne, 58000","lat":46.9941263,"lon":3.1379997},
{"name":"Aldi","brand":"Aldi","city":null,"address":null,"lat":49.0940183,"lon":1.4668856},
{"name":"Aldi","brand":"Aldi","city":"Saint-Maurice-de-Beynost","address":"42 Route de Genève, 01700 Saint-Maurice-de-Beynost","lat":45.8297539,"lon":4.9811315},
{"name":"Aldi","brand":"Aldi","city":null,"address":"Avenue de Lisieux","lat":50.6631545,"lon":2.9745355},
{"name":"ALDI","brand":"Aldi","city":null,"address":null,"lat":43.4559945,"lon":1.9939225},
{"name":"ALDI","brand":"Aldi","city":null,"address":null,"lat":46.5934708,"lon":4.0656296},
{"name":"Aldi","brand":"Aldi","city":null,"address":null,"lat":43.987089,"lon":1.329654},
{"name":"Aldi","brand":"Aldi","city":null,"address":null,"lat":43.6871805,"lon":4.2142905},
{"name":"ALDI","brand":"Aldi","city":null,"address":null,"lat":47.2857102,"lon":5.0177615},
{"name":"Aldi","brand":"Aldi","city":null,"address":null,"lat":43.210067,"lon":0.04613},
{"name":"Aldi","brand":"Aldi","city":null,"address":null,"lat":45.1422585,"lon":5.301437},
{"name":"Aldi","brand":"Aldi","city":null,"address":null,"lat":44.3988675,"lon":0.608809},
{"name":"Aldi","brand":"Aldi","city":null,"address":null,"lat":49.1526172,"lon":0.2249256},
{"name":"ALDI","brand":"Aldi","city":null,"address":null,"lat":43.4279818,"lon":6.7894604},
{"name":"Aldi","brand":"Aldi","city":null,"address":"Rue Jean Pierre Timbaud","lat":48.9499924,"lon":2.2009187},
{"name":"ALDI","brand":"Aldi","city":null,"address":null,"lat":48.9326985,"lon":7.749231},
{"name":"Aldi","brand":"Aldi","city":null,"address":"Rue du Général de Gaulle","lat":49.0388844,"lon":1.5936997},
{"name":"ALDI","brand":"Aldi","city":null,"address":null,"lat":44.731977,"lon":1.374414},
{"name":"ALDI","brand":"Aldi","city":"Béziers","address":"2 Avenue Jean Foucault, 34500 Béziers","lat":43.3310156,"lon":3.2495762},
{"name":"ALDI","brand":"Aldi","city":null,"address":"Rue de l'Abrivado","lat":43.6693254,"lon":3.9747175},
{"name":"Aldi","brand":"Aldi","city":null,"address":null,"lat":49.3169489,"lon":6.2915783},
{"name":"Aldi","brand":"Aldi","city":null,"address":null,"lat":47.7044607,"lon":-0.050738},
{"name":"Aldi","brand":"Aldi","city":null,"address":null,"lat":45.6353128,"lon":0.1276184},
{"name":"Aldi","brand":"Aldi","city":"Vienne","address":"2, 38200 Vienne","lat":45.5094935,"lon":4.855996},
{"name":"ALDI","brand":"Aldi","city":null,"address":"63 Boulevard de l'Ariane","lat":43.735123,"lon":7.296996},
{"name":"Aldi","brand":"Aldi","city":"Nice","address":"1 Boulevard de la Madeleine, 06000 Nice","lat":43.693913,"lon":7.243198},
{"name":"Aldi","brand":"Aldi","city":null,"address":null,"lat":46.340709,"lon":-0.4905395},
{"name":"ALDI","brand":"Aldi","city":null,"address":null,"lat":44.6930113,"lon":-0.4340806},
{"name":"Aldi","brand":"Aldi","city":null,"address":"Rue du 7e Régiment de Cuirassiers","lat":49.575072,"lon":2.9880366},
{"name":"Aldi","brand":"Aldi","city":null,"address":"Chemin du Marais de Courtaine","lat":50.421368,"lon":2.9058145},
{"name":"Aldi","brand":"Aldi","city":null,"address":"Route d'Avesnes","lat":50.2666787,"lon":3.9637344},
{"name":"Aldi","brand":"Aldi","city":null,"address":null,"lat":46.6348905,"lon":5.214352},
{"name":"Aldi","brand":"Aldi","city":null,"address":"Rue du Docteur Claude Bernard","lat":48.9509478,"lon":2.5224373},
{"name":"ALDI","brand":"Aldi","city":null,"address":null,"lat":48.1615967,"lon":2.2597333},
{"name":"Aldi Marché","brand":"Aldi","city":null,"address":null,"lat":48.6724225,"lon":5.9015275},
{"name":"Aldi","brand":"Aldi","city":null,"address":null,"lat":47.5248848,"lon":6.7987768},
{"name":"Aldi","brand":"Aldi","city":null,"address":"Rue du Dieu Lève","lat":49.9873864,"lon":3.4518815},
{"name":"Aldi","brand":"Aldi","city":null,"address":"Rue Georges Auphelle","lat":50.2885405,"lon":2.7496485},
{"name":"ALDI","brand":"Aldi","city":null,"address":null,"lat":48.9092148,"lon":6.0383872},
{"name":"Aldi","brand":"Aldi","city":"Saint-Junien","address":"Avenue Nelson Mandela, 87200 Saint-Junien","lat":45.89687,"lon":0.918469},
{"name":"ALDI","brand":"Aldi","city":null,"address":null,"lat":46.3313793,"lon":2.601921},
{"name":"ALDI","brand":"Aldi","city":null,"address":null,"lat":48.3767937,"lon":6.8755916},
{"name":"Aldi","brand":"Aldi","city":null,"address":null,"lat":48.6882748,"lon":2.3765105},
{"name":"ALDI","brand":"Aldi","city":null,"address":null,"lat":48.261227,"lon":6.410612},
{"name":"ALDI","brand":"Aldi","city":null,"address":null,"lat":45.7466345,"lon":4.932295},
{"name":"Aldi","brand":"Aldi","city":"Montgeron","address":"132 Avenue Charles de Gaulle, 91230 Montgeron","lat":48.6931526,"lon":2.445029},
{"name":"Aldi","brand":"Aldi","city":null,"address":null,"lat":47.279885,"lon":-0.0566845},
{"name":"Aldi","brand":"Aldi","city":null,"address":null,"lat":48.6839568,"lon":2.5367678},
{"name":"Aldi","brand":"Aldi","city":"Riom","address":"Avenue de Clermont, 63200 Riom","lat":45.8778655,"lon":3.1176364},
{"name":"Aldi","brand":"Aldi","city":null,"address":"Avenue Albert Forcinal","lat":49.2838295,"lon":1.790471},
{"name":"Aldi","brand":"Aldi","city":null,"address":"7 Rue A. Laurent de Lavoisier","lat":49.174649,"lon":1.3486781},
{"name":"Aldi","brand":"Aldi","city":null,"address":"Rue de Grumesnil, 60220","lat":49.6482588,"lon":1.7273852},
{"name":"ALDI","brand":"Aldi","city":null,"address":null,"lat":45.6566283,"lon":6.371234},
{"name":"ALDI","brand":"Aldi","city":"Pavie","address":"Rue du Sousson, 32550 Pavie","lat":43.6192435,"lon":0.578364},
{"name":"ALDI","brand":"Aldi","city":null,"address":null,"lat":43.366797,"lon":1.4516425},
{"name":"ALDI","brand":"Aldi","city":"Bordeaux","address":"58 Cours du Raccordement, 33000 Bordeaux","lat":44.8647757,"lon":-0.5629345},
{"name":"Aldi","brand":"Aldi","city":null,"address":null,"lat":49.5022199,"lon":4.3614051},
{"name":"ALDI","brand":"Aldi","city":null,"address":null,"lat":44.8693995,"lon":-0.6085297},
{"name":"ALDI","brand":"Aldi","city":null,"address":"Boulevard du Président Wilson","lat":44.8407605,"lon":-0.5986449},
{"name":"ALDI","brand":"Aldi","city":null,"address":"366","lat":43.259412,"lon":5.3936515},
{"name":"Aldi","brand":"Aldi","city":"Meudon","address":"16 Allée Marcel Simon, 92360 Meudon","lat":48.7870712,"lon":2.2350643},
{"name":"Aldi","brand":"Aldi","city":null,"address":null,"lat":49.2073596,"lon":-0.3685924},
{"name":"Aldi","brand":"Aldi","city":null,"address":null,"lat":49.3087915,"lon":5.7682195},
{"name":"ALDI","brand":"Aldi","city":null,"address":null,"lat":49.2845987,"lon":-0.1082927},
{"name":"ALDI","brand":"Aldi","city":null,"address":null,"lat":43.3888329,"lon":5.6019475},
{"name":"Aldi Châlons-en-Champagne","brand":"Aldi","city":"Châlons-en-Champagne","address":"2 Rue de la Planchette, 51000 Châlons-en-Champagne","lat":48.954912,"lon":4.334679},
{"name":"Aldi","brand":"Aldi","city":"Anglet","address":"2 Rue du Pont de l'Aveugle, 64600 Anglet","lat":43.4999234,"lon":-1.4936847},
{"name":"Aldi","brand":"Aldi","city":null,"address":"Boulevard Roger Salengro","lat":48.9852255,"lon":1.705524},
{"name":"Aldi","brand":"Aldi","city":null,"address":null,"lat":43.2964475,"lon":5.4231242},
{"name":"Aldi","brand":"Aldi","city":null,"address":null,"lat":45.3979217,"lon":4.779836},
{"name":"Aldi","brand":"Aldi","city":null,"address":null,"lat":45.5152545,"lon":4.2637665},
{"name":"ALDI","brand":"Aldi","city":null,"address":null,"lat":47.8036628,"lon":7.2418533},
{"name":"Aldi","brand":"Aldi","city":null,"address":"Rue Auguste Biblocq","lat":50.449442,"lon":1.614225},
{"name":"Aldi","brand":"Aldi","city":null,"address":"Avenue du Général de Gaulle","lat":49.0329578,"lon":3.3789376},
{"name":"Aldi","brand":"Aldi","city":null,"address":null,"lat":49.0811325,"lon":2.315338},
{"name":"Aldi","brand":"Aldi","city":null,"address":null,"lat":48.6514537,"lon":2.2715502},
{"name":"ALDI","brand":"Aldi","city":null,"address":null,"lat":44.7769739,"lon":-0.3513067},
{"name":"Aldi","brand":"Aldi","city":null,"address":null,"lat":49.310592,"lon":3.670466},
{"name":"ALDI","brand":"Aldi","city":null,"address":null,"lat":44.9229615,"lon":-0.370252},
{"name":"ALDI","brand":"Aldi","city":null,"address":null,"lat":44.8452037,"lon":-0.6440576},
{"name":"Aldi","brand":"Aldi","city":null,"address":"Rue des Oliviers","lat":48.8620423,"lon":1.4556773},
{"name":"Aldi","brand":"Aldi","city":null,"address":null,"lat":44.8348773,"lon":-0.6691527},
{"name":"ALDI","brand":"Aldi","city":"Manosque","address":"457 Avenue Joseph Cugnot, 04100 Manosque","lat":43.8216461,"lon":5.7990135},
{"name":"ALDI Marché","brand":"Aldi","city":null,"address":null,"lat":46.919177,"lon":4.749373},
{"name":"Aldi","brand":"Aldi","city":"Locminé","address":"Rue Duguesclin, 56500 Locminé","lat":47.8871384,"lon":-2.8302514},
{"name":"Aldi","brand":"Aldi","city":null,"address":"Avenue de la Libération","lat":49.0725495,"lon":2.6716639},
{"name":"ALDI","brand":"Aldi","city":null,"address":null,"lat":48.3590713,"lon":6.3050547},
{"name":"Aldi","brand":"Aldi","city":null,"address":null,"lat":48.7097859,"lon":4.5891307},
{"name":"Aldi","brand":"Aldi","city":null,"address":"Rue du Tilloy","lat":50.491644,"lon":2.9638965},
{"name":"Aldi","brand":"Aldi","city":null,"address":null,"lat":47.5871211,"lon":7.2575959},
{"name":"ALDI","brand":"Aldi","city":null,"address":null,"lat":47.0050944,"lon":5.1498354},
{"name":"Aldi","brand":"Aldi","city":null,"address":"Boulevard des Corneilles","lat":48.7863155,"lon":2.4918013},
{"name":"ALDI","brand":"Aldi","city":null,"address":null,"lat":43.5713097,"lon":1.5004347},
{"name":"Aldi","brand":"Aldi","city":"Tourcoing","address":"25 Rue du Brun Pain, 59200 Tourcoing","lat":50.7246827,"lon":3.1447082},
{"name":"ALDI","brand":"Aldi","city":null,"address":null,"lat":49.4300667,"lon":5.6142113},
{"name":"Aldi","brand":"Aldi","city":"Cléon","address":"Rue Alain Colas, 76410 Cléon","lat":49.3089565,"lon":1.03663},
{"name":"Aldi","brand":"Aldi","city":null,"address":null,"lat":44.735577,"lon":-0.6594338},
{"name":"Aldi","brand":"Aldi","city":null,"address":null,"lat":48.7072291,"lon":7.801685},
{"name":"Aldi","brand":"Aldi","city":null,"address":null,"lat":45.502579,"lon":5.1264958},
{"name":"ALDI","brand":"Aldi","city":null,"address":null,"lat":43.6209808,"lon":3.4516796},
{"name":"Aldi","brand":"Aldi","city":null,"address":null,"lat":45.9798755,"lon":5.595224},
{"name":"Aldi","brand":"Aldi","city":null,"address":null,"lat":47.5733498,"lon":1.372147},
{"name":"ALDI","brand":"Aldi","city":null,"address":null,"lat":49.3487209,"lon":6.0396101},
{"name":"ALDI","brand":"Aldi","city":"Dreux","address":"103 Avenue du Général Leclerc, 28100 Dreux","lat":48.743127,"lon":1.387487},
{"name":"Aldi","brand":"Aldi","city":"Fresse-sur-Moselle","address":"36ter Rue de Lorraine, 88160 Fresse-sur-Moselle","lat":47.8777347,"lon":6.7791387},
{"name":"Aldi","brand":"Aldi","city":"Estrablin","address":"84 Rue de Vezonne, Estrablin","lat":45.5160118,"lon":4.9645172},
{"name":"Aldi","brand":"Aldi","city":null,"address":null,"lat":42.560693,"lon":3.0072484},
{"name":"ALDI","brand":"Aldi","city":null,"address":null,"lat":48.5092541,"lon":0.5635147},
{"name":"ALDI","brand":"Aldi","city":null,"address":null,"lat":46.0303605,"lon":4.0967905},
{"name":"Aldi","brand":"Aldi","city":null,"address":null,"lat":49.072779,"lon":0.57968},
{"name":"Aldi","brand":"Aldi","city":null,"address":null,"lat":50.5676888,"lon":2.4633773},
{"name":"ALDI","brand":"Aldi","city":null,"address":null,"lat":46.182286,"lon":5.2043769},
{"name":"Aldi","brand":"Aldi","city":null,"address":null,"lat":47.537311,"lon":6.3861505},
{"name":"Aldi","brand":"Aldi","city":null,"address":"Rue du Cateau","lat":50.0194475,"lon":3.7703805},
{"name":"ALDI","brand":"Aldi","city":null,"address":null,"lat":44.4868605,"lon":0.9740235},
{"name":"ALDI","brand":"Aldi","city":null,"address":null,"lat":49.9002815,"lon":1.07618},
{"name":"Aldi","brand":"Aldi","city":null,"address":null,"lat":44.621098,"lon":-0.7851755},
{"name":"Aldi","brand":"Aldi","city":null,"address":null,"lat":50.4627317,"lon":2.556734},
{"name":"Aldi","brand":"Aldi","city":"Barentin","address":"14 Boulevard de Normandie, 76360 Barentin","lat":49.5395724,"lon":0.9622683},
{"name":"Aldi","brand":"Aldi","city":null,"address":"Rue des Faïenciers Fauquez","lat":50.441886,"lon":3.4228665},
{"name":"Aldi","brand":"Aldi","city":"Raismes","address":"189 Bis Rue Henri Durre, 59590 Raismes","lat":50.384656,"lon":3.492734},
{"name":"ALDI","brand":"Aldi","city":null,"address":null,"lat":44.1601494,"lon":4.0957235},
{"name":"Aldi","brand":"Aldi","city":null,"address":null,"lat":44.0621495,"lon":3.9714905},
{"name":"ALDI","brand":"Aldi","city":"Audenge","address":"28, 33980 Audenge","lat":44.678228,"lon":-1.008824},
{"name":"ALDI","brand":"Aldi","city":"Le Trait","address":"Le Trait","lat":49.4684994,"lon":0.8169378},
{"name":"Aldi","brand":"Aldi","city":null,"address":"Route de Bonsecours","lat":50.463923,"lon":3.5956695},
{"name":"Aldi","brand":"Aldi","city":null,"address":null,"lat":45.842682,"lon":3.513497},
{"name":"ALDI","brand":"Aldi","city":"Sessenheim","address":"Route de Drusenheim, 67770 Sessenheim","lat":48.7895764,"lon":7.9847664},
{"name":"Aldi","brand":"Aldi","city":null,"address":null,"lat":45.0491541,"lon":-0.1178522},
{"name":"Aldi","brand":"Aldi","city":null,"address":"Rue Victor Hugo","lat":50.4509594,"lon":2.6367673},
{"name":"Aldi","brand":"Aldi","city":"Guînes","address":"75 Rue Aristide Briand, 62340 Guînes","lat":50.8747164,"lon":1.8691734},
{"name":"ALDI","brand":"Aldi","city":null,"address":null,"lat":47.4912343,"lon":2.4384524},
{"name":"ALDI","brand":"Aldi","city":null,"address":null,"lat":48.5551357,"lon":-3.127173},
{"name":"ALDI","brand":"Aldi","city":null,"address":null,"lat":47.6984142,"lon":2.618479},
{"name":"Aldi","brand":"Aldi","city":null,"address":null,"lat":43.1252585,"lon":6.073794},
{"name":"Aldi","brand":"Aldi","city":null,"address":null,"lat":48.0261593,"lon":0.235961},
{"name":"Aldi","brand":"Aldi","city":null,"address":null,"lat":45.5938069,"lon":5.6084051},
{"name":"Aldi","brand":"Aldi","city":null,"address":null,"lat":43.3309371,"lon":-1.0367776},
{"name":"ALDI","brand":"Aldi","city":null,"address":"35","lat":44.0328025,"lon":1.121413},
{"name":"Aldi","brand":"Aldi","city":null,"address":null,"lat":43.4340745,"lon":1.432239},
{"name":"Aldi","brand":"Aldi","city":null,"address":null,"lat":45.369014,"lon":0.6479155},
{"name":"Aldi","brand":"Aldi","city":null,"address":null,"lat":50.2442935,"lon":2.667574},
{"name":"Aldi","brand":"Aldi","city":null,"address":null,"lat":50.9732652,"lon":2.5861164},
{"name":"Aldi","brand":"Aldi","city":null,"address":"Route Nationale","lat":50.190034,"lon":3.3851987},
{"name":"Aldi","brand":"Aldi","city":null,"address":"Rue Pillard Soulain","lat":48.8452625,"lon":0.9194805},
{"name":"Aldi","brand":"Aldi","city":null,"address":null,"lat":43.4987632,"lon":4.9779138},
{"name":"ALDI","brand":"Aldi","city":null,"address":null,"lat":49.8604323,"lon":0.6969179},
{"name":"Aldi","brand":"Aldi","city":"Chanteloup-les-Vignes","address":"104 Rue d'Alentours, 78570 Chanteloup-les-Vignes","lat":48.971462,"lon":2.0387228},
{"name":"ALDI","brand":"Aldi","city":null,"address":null,"lat":44.9220752,"lon":5.7825308},
{"name":"Aldi","brand":"Aldi","city":"Pont-de-l'Arche","address":"44 Rue du Général de Gaulle, 27340 Pont-de-l'Arche","lat":49.305291,"lon":1.1499847},
{"name":"Aldi","brand":"Aldi","city":null,"address":null,"lat":48.2766287,"lon":6.963468},
{"name":"ALDI","brand":"Aldi","city":"Pessac","address":"Rue de l'Horloge, 33600 Pessac","lat":44.7904561,"lon":-0.6333067},
{"name":"Aldi","brand":"Aldi","city":null,"address":null,"lat":48.5916872,"lon":6.8413975},
{"name":"Aldi","brand":"Aldi","city":null,"address":null,"lat":44.2037771,"lon":-1.2281511},
{"name":"Aldi","brand":"Aldi","city":null,"address":null,"lat":44.7822422,"lon":-0.6294297},
{"name":"Aldi","brand":"Aldi","city":null,"address":null,"lat":49.2972075,"lon":-0.3800695},
{"name":"Aldi","brand":"Aldi","city":null,"address":null,"lat":44.6392321,"lon":-0.3228309},
{"name":"Aldi Marché","brand":"Aldi","city":null,"address":null,"lat":48.972209,"lon":6.2960795},
{"name":"ALDI","brand":"Aldi","city":null,"address":null,"lat":43.1182476,"lon":0.3707022},
{"name":"ALDI","brand":"Aldi","city":null,"address":null,"lat":43.746231,"lon":4.2512245},
{"name":"ALDI","brand":"Aldi","city":"La Ferté-Bernard","address":"116 Avenue de Verdun, 72400 La Ferté-Bernard","lat":48.192733,"lon":0.663777},
{"name":"ALDI","brand":"Aldi","city":null,"address":null,"lat":49.4118932,"lon":5.9478245},
{"name":"Aldi","brand":"Aldi","city":null,"address":"Rue Albert Einstein","lat":48.4075164,"lon":3.2468518},
{"name":"Aldi","brand":"Aldi","city":null,"address":null,"lat":45.3249645,"lon":4.807676},
{"name":"ALDI","brand":"Aldi","city":null,"address":null,"lat":47.3932222,"lon":0.7865836},
{"name":"Aldi","brand":"Aldi","city":"Évron","address":"Boulevard Saint-Anne, 53600 Évron","lat":48.1468183,"lon":-0.4030255},
{"name":"ALDI","brand":"Aldi","city":null,"address":"Avenue de Limoges","lat":46.101261,"lon":1.361701},
{"name":"Aldi","brand":"Aldi","city":null,"address":null,"lat":49.2831777,"lon":-0.7247105},
{"name":"Aldi","brand":"Aldi","city":null,"address":null,"lat":48.9324483,"lon":7.0895264},
{"name":"ALDI","brand":"Aldi","city":null,"address":null,"lat":47.401817,"lon":-0.7573225},
{"name":"ALDI","brand":"Aldi","city":null,"address":null,"lat":48.3674255,"lon":5.700858},
{"name":"ALDI","brand":"Aldi","city":null,"address":null,"lat":46.9549494,"lon":2.005415},
{"name":"Aldi","brand":"Aldi","city":null,"address":null,"lat":47.614571,"lon":-0.453432},
{"name":"Aldi","brand":"Aldi","city":null,"address":null,"lat":50.5932365,"lon":2.098294},
{"name":"Aldi","brand":"Aldi","city":null,"address":"Rue d'Oignies","lat":50.4753755,"lon":3.0020075},
{"name":"Aldi","brand":"Aldi","city":null,"address":null,"lat":45.387916,"lon":3.3221775},
{"name":"Aldi","brand":"Aldi","city":null,"address":"Rue Édouard Vaillant","lat":50.4190604,"lon":2.870102},
{"name":"Aldi","brand":"Aldi","city":null,"address":"Avenue François Mitterrand","lat":50.282499,"lon":2.545032},
{"name":"Aldi","brand":"Aldi","city":null,"address":null,"lat":45.8457609,"lon":5.0666923},
{"name":"ALDI","brand":"Aldi","city":"Narbonne","address":"16 Route de Lunes, 11100 Narbonne","lat":43.177958,"lon":3.0045841},
{"name":"ALDI","brand":"Aldi","city":null,"address":null,"lat":48.1010515,"lon":6.582316},
{"name":"Aldi","brand":"Aldi","city":null,"address":"Route d'Abbeville","lat":50.2289711,"lon":2.1084333},
{"name":"Aldi","brand":"Aldi","city":"Longfossé","address":"Impasse la Faïencerie, 62240 Longfossé","lat":50.6627146,"lon":1.8313915},
{"name":"Aldi","brand":"Aldi","city":null,"address":null,"lat":43.3186065,"lon":-0.4307054},
{"name":"Aldi","brand":"Aldi","city":null,"address":null,"lat":45.7367339,"lon":4.8674522},
{"name":"ALDI","brand":"Aldi","city":null,"address":"71","lat":49.1196999,"lon":6.2139274},
{"name":"ALDI","brand":"Aldi","city":null,"address":null,"lat":48.555683,"lon":6.4154895},
{"name":"Aldi","brand":"Aldi","city":null,"address":null,"lat":49.223289,"lon":6.0049445},
{"name":"Aldi","brand":"Aldi","city":"Bron","address":"Avenue Saint-Exupéry, 69500 Bron","lat":45.7261442,"lon":4.9146895},
{"name":"ALDI","brand":"Aldi","city":null,"address":null,"lat":48.5394623,"lon":-2.989799},
{"name":"Aldi","brand":"Aldi","city":null,"address":"Route de Doullens","lat":50.1079725,"lon":1.85061},
{"name":"ALDI","brand":"Aldi","city":"Saint-Genis-Pouilly","address":"6 Rue du Mont Rond, 01630 Saint-Genis-Pouilly","lat":46.2561187,"lon":6.0272674},
{"name":"ALDI","brand":"Aldi","city":null,"address":null,"lat":42.6923143,"lon":2.8476603},
{"name":"Aldi","brand":"Aldi","city":null,"address":"5 Avenue de l'Europe","lat":45.3756853,"lon":-1.1440865},
{"name":"ALDI Marché","brand":"Aldi","city":null,"address":null,"lat":43.2477087,"lon":2.9196706},
{"name":"ALDI","brand":"Aldi","city":null,"address":null,"lat":43.3848666,"lon":3.1143832},
{"name":"Aldi","brand":"Aldi","city":null,"address":"Place du Gros Chêne","lat":48.1263712,"lon":-1.6638744},
{"name":"Aldi","brand":"Aldi","city":null,"address":null,"lat":47.7081695,"lon":-1.3835},
{"name":"Aldi","brand":"Aldi","city":"Breteuil","address":"80 Rue d'Amiens, 60120 Breteuil","lat":49.640134,"lon":2.281541},
{"name":"Aldi","brand":"Aldi","city":null,"address":null,"lat":48.7105785,"lon":6.1718468},
{"name":"Aldi","brand":"Aldi","city":"Varennes-Vauzelles","address":"Rue Henri Bouquillard, 58640 Varennes-Vauzelles","lat":46.9965256,"lon":3.1247749},
{"name":"ALDI","brand":"Aldi","city":null,"address":null,"lat":48.760779,"lon":0.6164644},
{"name":"Aldi","brand":"Aldi","city":null,"address":null,"lat":48.108676,"lon":4.3744185},
{"name":"Aldi","brand":"Aldi","city":"Saint-Paul-lès-Dax","address":"5 Rue du 22 Août 1944, 40990 Saint-Paul-lès-Dax","lat":43.7358894,"lon":-1.0518902},
{"name":"ALDI","brand":"Aldi","city":null,"address":null,"lat":48.3363872,"lon":4.0245077},
{"name":"Aldi","brand":"Aldi","city":null,"address":null,"lat":48.4225888,"lon":2.7388091},
{"name":"Aldi","brand":"Aldi","city":null,"address":null,"lat":43.6847487,"lon":5.500465},
{"name":"ALDI","brand":"Aldi","city":null,"address":null,"lat":43.2675552,"lon":3.2808116},
{"name":"Aldi Marché","brand":"Aldi","city":null,"address":"1 Route du Martinet","lat":44.5482133,"lon":-0.8766395},
{"name":"Aldi","brand":"Aldi","city":"Noisy-le-Grand","address":"12 Rue de l'Université, 93160 Noisy-le-Grand","lat":48.8368308,"lon":2.5604005},
{"name":"ALDI","brand":"Aldi","city":null,"address":null,"lat":43.3092814,"lon":3.4173705},
{"name":"Aldi","brand":"Aldi","city":null,"address":"Route du Chapeau Rouge","lat":51.0309651,"lon":2.4242516},
{"name":"Aldi","brand":"Aldi","city":null,"address":null,"lat":43.0983179,"lon":5.8975408},
{"name":"Aldi","brand":"Aldi","city":"Saint-Étienne-de-Maurs","address":"Route d'Aurillac, 15600 Saint-Étienne-de-Maurs","lat":44.7157948,"lon":2.2027129},
{"name":"Aldi","brand":"Aldi","city":null,"address":null,"lat":46.1543743,"lon":4.1632743},
{"name":"Aldi","brand":"Aldi","city":"Le Sequestre","address":"Avenue des Marranes, 81990 Le Sequestre","lat":43.9152258,"lon":2.108531},
{"name":"ALDI","brand":"Aldi","city":null,"address":null,"lat":46.1761479,"lon":1.8996243},
{"name":"ALDI","brand":"Aldi","city":"Boulogne-sur-Gesse","address":"Avenue Charles Suran, 31350 Boulogne-sur-Gesse","lat":43.2853815,"lon":0.6503495},
{"name":"Aldi","brand":"Aldi","city":"Rochechouart","address":"18 Rue de la Gare, 87600 Rochechouart","lat":45.8329291,"lon":0.8320804},
{"name":"Aldi","brand":"Aldi","city":null,"address":null,"lat":47.9936744,"lon":7.3778991},
{"name":"Aldi","brand":"Aldi","city":null,"address":null,"lat":47.0625981,"lon":-1.5171678},
{"name":"Aldi","brand":"Aldi","city":null,"address":null,"lat":48.188017,"lon":-2.755612},
{"name":"ALDI","brand":"Aldi","city":null,"address":"45","lat":49.075589,"lon":6.0969415},
{"name":"Aldi","brand":"Aldi","city":"Saint-Denis-lès-Sens","address":"1 Rue des Wagons, 89100 Saint-Denis-lès-Sens","lat":48.2128135,"lon":3.2740105},
{"name":"ALDI","brand":"Aldi","city":null,"address":null,"lat":48.466202,"lon":-2.5300965},
{"name":"ALDI","brand":"Aldi","city":null,"address":null,"lat":49.0467415,"lon":-0.983899},
{"name":"ALDI","brand":"Aldi","city":null,"address":null,"lat":44.0421087,"lon":2.1578612},
{"name":"Aldi","brand":"Aldi","city":"Plaisance-du-Touch","address":"Rue Antoine Laurent de Lavoisier, 31830 Plaisance-du-Touch","lat":43.59688,"lon":1.2927135},
{"name":"Aldi","brand":"Aldi","city":null,"address":"Route de Coivrel","lat":49.553293,"lon":2.5343955},
{"name":"ALDI","brand":"Aldi","city":"Neufchâtel-en-Bray","address":"76270 Neufchâtel-en-Bray","lat":49.7314685,"lon":1.4349165},
{"name":"Aldi","brand":"Aldi","city":null,"address":"Place Pinel","lat":48.8332905,"lon":2.3609723},
{"name":"Aldi","brand":"Aldi","city":"Commercy","address":"Rue du Port, 55200 Commercy","lat":48.7626094,"lon":5.5973331},
{"name":"Aldi","brand":"Aldi","city":null,"address":null,"lat":47.6221325,"lon":4.3526935},
{"name":"ALDI","brand":"Aldi","city":"La Loupe","address":"Avenue du Thymerais, 28240 La Loupe","lat":48.478668,"lon":1.024572},
{"name":"Aldi","brand":"Aldi","city":null,"address":"Rue des Chevrettes","lat":49.0094436,"lon":1.8998817},
{"name":"Aldi Marché","brand":"Aldi","city":null,"address":null,"lat":48.897434,"lon":5.5317587},
{"name":"Aldi","brand":"Aldi","city":null,"address":null,"lat":48.4712782,"lon":6.2962679},
{"name":"Aldi","brand":"Aldi","city":null,"address":"Avenue Marie et Pierre Curie","lat":50.0626206,"lon":1.4016735},
{"name":"Aldi","brand":"Aldi","city":"Villers-sous-Saint-Leu","address":"1 Impasse des Colombes, 60340 Villers-sous-Saint-Leu","lat":49.2064475,"lon":2.3898877},
{"name":"Aldi","brand":"Aldi","city":null,"address":null,"lat":46.003075,"lon":5.0321184},
{"name":"Aldi","brand":"Aldi","city":null,"address":null,"lat":46.3020425,"lon":2.732705},
{"name":"ALDI","brand":"Aldi","city":null,"address":null,"lat":47.9782619,"lon":0.2057796},
{"name":"Aldi","brand":"Aldi","city":null,"address":null,"lat":49.0838471,"lon":3.6529004},
{"name":"Aldi","brand":"Aldi","city":null,"address":null,"lat":46.3666324,"lon":2.5671721},
{"name":"ALDI","brand":"Aldi","city":"Saint-Aunès","address":"250 Avenue des Romarins, 34130 Saint-Aunès","lat":43.6513406,"lon":3.975714},
{"name":"ALDI","brand":"Aldi","city":null,"address":null,"lat":43.8633034,"lon":0.6585121},
{"name":"ALDI","brand":"Aldi","city":null,"address":null,"lat":48.06538,"lon":2.423842},
{"name":"Aldi","brand":"Aldi","city":null,"address":null,"lat":43.5247993,"lon":5.4272867},
{"name":"ALDI","brand":"Aldi","city":null,"address":null,"lat":45.7426683,"lon":4.0180999},
{"name":"Aldi","brand":"Aldi","city":null,"address":"Rue Théodore Bullier","lat":48.991754,"lon":2.3710165},
{"name":"ALDI","brand":"Aldi","city":"Bain-de-Bretagne","address":"9 Rue des Estuaires, 35470 Bain-de-Bretagne","lat":47.8550205,"lon":-1.6905933},
{"name":"Aldi","brand":"Aldi","city":"Saint-Maximin","address":"31 Rue des Montagnards, 60740 Saint-Maximin","lat":49.2350105,"lon":2.466569},
{"name":"Aldi","brand":"Aldi","city":null,"address":null,"lat":43.6323651,"lon":5.0975081},
{"name":"Aldi","brand":"Aldi","city":null,"address":null,"lat":48.530518,"lon":2.042633},
{"name":"Aldi","brand":"Aldi","city":null,"address":null,"lat":47.1324132,"lon":0.9815043},
{"name":"Aldi","brand":"Aldi","city":"Parentis-en-Born","address":"Avenue Nicolas Brémontier, 40160 Parentis-en-Born","lat":44.3480565,"lon":-1.0651549},
{"name":"ALDI","brand":"Aldi","city":null,"address":null,"lat":45.0951225,"lon":-0.3882125},
{"name":"Aldi","brand":"Aldi","city":null,"address":"Route de Baillon","lat":49.1239738,"lon":2.4262115},
{"name":"ALDI","brand":"Aldi","city":null,"address":null,"lat":48.5923231,"lon":7.6976629},
{"name":"Aldi","brand":"Aldi","city":null,"address":null,"lat":45.3589877,"lon":5.4937234},
{"name":"Aldi Marché Lannion","brand":"Aldi","city":null,"address":null,"lat":48.7231153,"lon":-3.4790211},
{"name":"Aldi","brand":"Aldi","city":null,"address":null,"lat":46.0818662,"lon":3.1995186},
{"name":"Aldi","brand":"Aldi","city":null,"address":null,"lat":50.5110098,"lon":2.628468},
{"name":"Aldi","brand":"Aldi","city":null,"address":"Boulevard Clemenceau","lat":48.974208,"lon":2.1876645},
{"name":"Aldi","brand":"Aldi","city":null,"address":null,"lat":49.1566809,"lon":2.2640131},
{"name":"Aldi","brand":"Aldi","city":"Massieux","address":"177 Avenue Lavoisier, 01600 Massieux","lat":45.9042858,"lon":4.8183774},
{"name":"ALDI","brand":"Aldi","city":null,"address":null,"lat":49.930146,"lon":4.5301814},
{"name":"ALDI","brand":"Aldi","city":null,"address":null,"lat":48.7220346,"lon":4.5971133},
{"name":"Aldi","brand":"Aldi","city":"Nangis","address":"5 Rue des Aubépines, 77370 Nangis","lat":48.5563176,"lon":3.0250511},
{"name":"Aldi","brand":"Aldi","city":null,"address":"Rue de la Gondole","lat":49.1279643,"lon":2.2451493},
{"name":"ALDI","brand":"Aldi","city":null,"address":null,"lat":43.3071295,"lon":3.1667953},
{"name":"Aldi","brand":"Aldi","city":null,"address":null,"lat":47.7955469,"lon":7.1731367},
{"name":"Aldi","brand":"Aldi","city":null,"address":null,"lat":46.421483,"lon":0.250396},
{"name":"Aldi","brand":"Aldi","city":null,"address":"Rue Saint-Maur","lat":48.8689224,"lon":2.3747761},
{"name":"Aldi","brand":"Aldi","city":null,"address":"331 Avenue Victor Hugo","lat":44.9160567,"lon":4.8859711},
{"name":"ALDI","brand":"Aldi","city":null,"address":null,"lat":48.2276779,"lon":4.713119},
{"name":"Aldi","brand":"Aldi","city":null,"address":"Rue Pierre Mendes France","lat":50.54078,"lon":2.6053795},
{"name":"Aldi","brand":"Aldi","city":null,"address":null,"lat":45.5430255,"lon":3.7278297},
{"name":"ALDI","brand":"Aldi","city":null,"address":null,"lat":48.4009487,"lon":4.5178503},
{"name":"ALDI","brand":"Aldi","city":"Béziers","address":"9073F Boulevard Colette Besson, 34500 Béziers","lat":43.3604511,"lon":3.2250435},
{"name":"Aldi","brand":"Aldi","city":null,"address":null,"lat":43.4247455,"lon":5.2691089},
{"name":"ALDI","brand":"Aldi","city":"Magalas","address":"Rue de l'Audacieuse 2, 34480 Magalas","lat":43.4689489,"lon":3.2055441},
{"name":"ALDI","brand":"Aldi","city":null,"address":null,"lat":45.1449527,"lon":1.4713784},
{"name":"Aldi","brand":"Aldi","city":null,"address":null,"lat":45.6410291,"lon":5.136412},
{"name":"Aldi","brand":"Aldi","city":null,"address":null,"lat":43.9549539,"lon":2.8539545},
{"name":"ALDI","brand":"Aldi","city":null,"address":null,"lat":43.5489099,"lon":1.4211665},
{"name":"ALDI","brand":"Aldi","city":null,"address":null,"lat":43.6473492,"lon":5.1013551},
{"name":"ALDI","brand":"Aldi","city":"Cazères","address":"Rue du Mont Vallier, 31220 Cazères","lat":43.2093283,"lon":1.0928381},
{"name":"Aldi","brand":"Aldi","city":null,"address":null,"lat":48.0058162,"lon":3.7282358},
{"name":"Aldi","brand":"Aldi","city":null,"address":null,"lat":45.4203871,"lon":0.9241308},
{"name":"Aldi","brand":"Aldi","city":null,"address":"Route de Bouglainval","lat":48.5812361,"lon":1.5687913},
{"name":"ALDI","brand":"Aldi","city":null,"address":null,"lat":45.6799601,"lon":4.948425},
{"name":"Aldi","brand":"Aldi","city":null,"address":null,"lat":47.894011,"lon":1.8490191},
{"name":"Aldi","brand":"Aldi","city":null,"address":null,"lat":45.9490298,"lon":-0.9082646},
{"name":"Aldi","brand":"Aldi","city":"Elne","address":"2 Rue Pierre Curiezai, 66200 Elne","lat":42.6129298,"lon":2.9775704},
{"name":"ALDI","brand":"Aldi","city":null,"address":null,"lat":43.0143263,"lon":3.0372356},
{"name":"ALDI","brand":"Aldi","city":null,"address":null,"lat":43.618998,"lon":3.7896702},
{"name":"Aldi","brand":"Aldi","city":null,"address":"Rue des Hauts Bois","lat":50.4023007,"lon":3.659505},
{"name":"Aldi","brand":"Aldi","city":"Le Havre","address":"35, 76600 Le Havre","lat":49.5138576,"lon":0.1601488},
{"name":"ALDI","brand":"Aldi","city":null,"address":"12 Rue Victor Hugo","lat":48.7645581,"lon":1.2119271},
{"name":"Aldi","brand":"Aldi","city":null,"address":null,"lat":49.3431128,"lon":3.5526912},
{"name":"ALDI","brand":"Aldi","city":"Bellerive-sur-Allier","address":"Avenue du Général de Gaulle, 03700 Bellerive-sur-Allier","lat":46.1159202,"lon":3.4145568},
{"name":"Aldi","brand":"Aldi","city":null,"address":"16 Rue Louis Braille, 75012","lat":48.8395966,"lon":2.4017107},
{"name":"Aldi","brand":"Aldi","city":null,"address":null,"lat":43.4587377,"lon":1.3340964},
{"name":"Aldi","brand":"Aldi","city":null,"address":"Avenue de Verdun","lat":50.6857454,"lon":3.2009533},
{"name":"Aldi","brand":"Aldi","city":null,"address":null,"lat":45.0857994,"lon":1.9458206},
{"name":"ALDI","brand":"Aldi","city":null,"address":null,"lat":48.5876609,"lon":6.5097992},
{"name":"ALDI","brand":"Aldi","city":"Montpellier","address":"Rue Lejzer Zamenhof, 34080 Montpellier","lat":43.6160438,"lon":3.8253452},
{"name":"ALDI","brand":"Aldi","city":null,"address":null,"lat":43.6831316,"lon":3.8075693},
{"name":"Aldi","brand":"Aldi","city":null,"address":"77 Rue de Flers","lat":50.3846032,"lon":3.0612551},
{"name":"ALDI","brand":"Aldi","city":null,"address":null,"lat":45.3937413,"lon":2.4921871},
{"name":"Aldi","brand":"Aldi","city":null,"address":null,"lat":46.7935373,"lon":4.8274864},
{"name":"Aldi","brand":"Aldi","city":null,"address":"Route d'Ozoir","lat":48.7810405,"lon":2.6577926},
{"name":"ALDI","brand":"Aldi","city":null,"address":null,"lat":43.4502941,"lon":5.4770065},
{"name":"ALDI","brand":"Aldi","city":null,"address":"234 Avenue de Rodez","lat":44.3127202,"lon":2.5584141},
{"name":"Aldi","brand":"Aldi","city":"Wattrelos","address":"60 Rue des Patriotes, 59150 Wattrelos","lat":50.7061911,"lon":3.1989477},
{"name":"Aldi","brand":"Aldi","city":null,"address":"Rue du Baou","lat":44.6317394,"lon":-1.1548539},
{"name":"Aldi","brand":"Aldi","city":null,"address":null,"lat":46.2411729,"lon":1.4994759},
{"name":"Aldi","brand":"Aldi","city":null,"address":null,"lat":45.1787604,"lon":-1.0541641},
{"name":"ALDI","brand":"Aldi","city":null,"address":"1 Rue de Vendée, 03200","lat":46.1307946,"lon":3.4351506},
{"name":"Aldi","brand":"Aldi","city":"Sedan","address":"22 Avenue de la Marne, 08200 Sedan","lat":49.6991529,"lon":4.9239907},
{"name":"ALDI","brand":"Aldi","city":null,"address":null,"lat":45.2183313,"lon":-0.8708839},
{"name":"Aldi","brand":"Aldi","city":null,"address":"Pâtis du Pont","lat":45.3361568,"lon":1.0660616},
{"name":"Aldi","brand":"Aldi","city":"Toulouse","address":"37 Avenue de Lardenne, 31100 Toulouse","lat":43.5924576,"lon":1.4039325},
{"name":"Aldi","brand":"Aldi","city":null,"address":"34 Rue du 7e Bataillon de Chasseurs Alpins","lat":49.4941202,"lon":3.4498227},
{"name":"Aldi","brand":"Aldi","city":null,"address":"Route d’Étaples","lat":50.4808472,"lon":1.762061},
{"name":"ALDI","brand":"Aldi","city":null,"address":null,"lat":43.4140419,"lon":1.1287791},
{"name":"Aldi","brand":"Aldi","city":null,"address":null,"lat":43.3989652,"lon":1.7048155},
{"name":"ALDI","brand":"Aldi","city":"Caissargues","address":"Avenue de la Vistrenque, 30132 Caissargues","lat":43.7962845,"lon":4.3831845},
{"name":"ALDI","brand":"Aldi","city":null,"address":null,"lat":43.8230999,"lon":4.3656246},
{"name":"Aldi","brand":"Aldi","city":"Val-de-Reuil","address":"Avenue des Falaises, 27100 Val-de-Reuil","lat":49.2673466,"lon":1.204752},
{"name":"Aldi","brand":"Aldi","city":null,"address":null,"lat":43.507726,"lon":2.3767429},
{"name":"Aldi","brand":"Aldi","city":null,"address":"4 Rue du Fouillet","lat":47.9748675,"lon":0.2389307},
{"name":"Aldi","brand":"Aldi","city":null,"address":null,"lat":48.0123066,"lon":2.7195094},
{"name":"Aldi","brand":"Aldi","city":"Hénin-Beaumont","address":"777 Boulevard Jacques Piette, 62110 Hénin-Beaumont","lat":50.4135259,"lon":2.9661454},
{"name":"ALDI","brand":"Aldi","city":"Nanterre","address":"Place des Muguets, 92000 Nanterre","lat":48.9107645,"lon":2.2211037},
{"name":"Aldi","brand":"Aldi","city":null,"address":null,"lat":49.5330817,"lon":0.1810425},
{"name":"Aldi","brand":"Aldi","city":null,"address":null,"lat":43.463538,"lon":1.3957819},
{"name":"Aldi","brand":"Aldi","city":null,"address":null,"lat":43.7664133,"lon":1.6632911},
{"name":"Aldi","brand":"Aldi","city":null,"address":null,"lat":47.8656116,"lon":3.976399},
{"name":"Aldi","brand":"Aldi","city":null,"address":null,"lat":46.5062704,"lon":6.0281635},
{"name":"Aldi","brand":"Aldi","city":null,"address":null,"lat":49.6247941,"lon":5.1814943},
{"name":"ALDI","brand":"Aldi","city":"Pontarlier","address":"29 Rocade Georges Pompidou, 25300 Pontarlier","lat":46.900781,"lon":6.3446174},
{"name":"ALDI","brand":"Aldi","city":null,"address":"60","lat":48.5979716,"lon":7.7356622},
{"name":"ALDI","brand":"Aldi","city":"Marseillan","address":"15 Avenue de l'Industrie, 34340 Marseillan","lat":43.3578966,"lon":3.5221184},
{"name":"Aldi","brand":"Aldi","city":null,"address":"Rue de Neuilly, 92110","lat":48.9024465,"lon":2.3028385},
{"name":"ALDI","brand":"Aldi","city":null,"address":null,"lat":45.2623909,"lon":1.4074581},
{"name":"Aldi","brand":"Aldi","city":null,"address":null,"lat":47.0761675,"lon":2.3618472},
{"name":"Aldi","brand":"Aldi","city":"La Courneuve","address":"Rue de Saint-Denis, 93120 La Courneuve","lat":48.9309068,"lon":2.3836322},
{"name":"ALDI","brand":"Aldi","city":null,"address":null,"lat":43.3458808,"lon":6.0851188},
{"name":"Aldi","brand":"Aldi","city":null,"address":"2 Avenue de la Croix des Mailles","lat":45.19703,"lon":4.8153734},
{"name":"Aldi","brand":"Aldi","city":null,"address":null,"lat":43.9484608,"lon":2.1535615},
{"name":"Aldi","brand":"Aldi","city":null,"address":null,"lat":46.0571711,"lon":4.072225},
{"name":"Aldi","brand":"Aldi","city":"Harnes","address":"100 Rue de l'Abbaye, 62440 Harnes","lat":50.4466764,"lon":2.8663364},
{"name":"Aldi","brand":"Aldi","city":null,"address":null,"lat":48.0956769,"lon":5.1439345},
{"name":"ALDI","brand":"Aldi","city":"Montmorot","address":"Rue Jean-Baptiste Billon, 39570 Montmorot","lat":46.6743382,"lon":5.53072},
{"name":"ALDI","brand":"Aldi","city":null,"address":null,"lat":43.1027536,"lon":1.6279353},
{"name":"Aldi","brand":"Aldi","city":null,"address":"Route d'Ostreville","lat":50.385477,"lon":2.3498414},
{"name":"Aldi","brand":"Aldi","city":null,"address":"Rue de Bruay","lat":50.4852867,"lon":2.5009678},
{"name":"ALDI","brand":"Aldi","city":"Riom","address":"93 Avenue de Chatel-Guyon, 63200 Riom","lat":45.9041896,"lon":3.1013418},
{"name":"ALDI","brand":"Aldi","city":null,"address":null,"lat":48.2961909,"lon":4.1346503},
{"name":"ALDI","brand":"Aldi","city":null,"address":null,"lat":48.0342294,"lon":5.349637},
{"name":"Aldi","brand":"Aldi","city":null,"address":"56 Faubourg de Cambrai","lat":50.1067609,"lon":3.5311065},
{"name":"Aldi","brand":"Aldi","city":null,"address":null,"lat":42.7738813,"lon":3.0121982},
{"name":"Aldi","brand":"Aldi","city":null,"address":null,"lat":48.4200671,"lon":1.4661264},
{"name":"ALDI","brand":"Aldi","city":null,"address":null,"lat":43.7911285,"lon":4.4322621},
{"name":"Aldi","brand":"Aldi","city":null,"address":null,"lat":48.4496301,"lon":2.1754862},
{"name":"Aldi","brand":"Aldi","city":null,"address":null,"lat":43.8670743,"lon":5.1504184},
{"name":"Aldi","brand":"Aldi","city":null,"address":"Avenue Albert Schweitzer","lat":50.3438139,"lon":3.5523646},
{"name":"Aldi","brand":"Aldi","city":null,"address":"5 Route de Guise","lat":50.1199477,"lon":3.6951371},
{"name":"Aldi","brand":"Aldi","city":null,"address":"59 Boulevard de Bad Kostritz","lat":49.6175414,"lon":3.204617},
{"name":"Aldi","brand":"Aldi","city":null,"address":null,"lat":44.034815,"lon":1.3533766},
{"name":"Aldi","brand":"Aldi","city":null,"address":"Avenue du Hurepoix","lat":48.625952,"lon":2.3459209},
{"name":"Aldi","brand":"Aldi","city":null,"address":null,"lat":47.6297931,"lon":6.1696166},
{"name":"Aldi","brand":"Aldi","city":"Sézanne","address":"5 Avenue Jean Jaurès, 51120 Sézanne","lat":48.7097743,"lon":3.7345345},
{"name":"Aldi","brand":"Aldi","city":null,"address":null,"lat":44.1579668,"lon":4.0830599},
{"name":"Aldi","brand":"Aldi","city":null,"address":"Avenue de Valvins","lat":48.4225888,"lon":2.7388091},
{"name":"Aldi","brand":"Aldi","city":null,"address":null,"lat":47.4016319,"lon":2.9287157},
{"name":"Aldi","brand":"Aldi","city":null,"address":null,"lat":45.7491007,"lon":5.17012},
{"name":"Aldi","brand":"Aldi","city":null,"address":"Rue Fidèle Lhermite","lat":50.6102139,"lon":2.9744127},
{"name":"Aldi","brand":"Aldi","city":null,"address":"Avenue Maurice Tilloy","lat":50.4610567,"lon":2.9413333},
{"name":"Aldi","brand":"Aldi","city":"Pézenas","address":"Boulevard du Général de Gaulle, 34120 Pézenas","lat":43.4535331,"lon":3.4150168},
{"name":"ALDI","brand":"Aldi","city":null,"address":null,"lat":46.2750822,"lon":4.7995169},
{"name":"Aldi","brand":"Aldi","city":null,"address":"93 Rue de Verdun","lat":50.9504393,"lon":1.8344148},
{"name":"Aldi","brand":"Aldi","city":null,"address":null,"lat":50.2919596,"lon":2.7948679},
{"name":"ALDI","brand":"Aldi","city":null,"address":null,"lat":45.7935412,"lon":3.2270364},
{"name":"Aldi","brand":"Aldi","city":"La Seyne sur Mer","address":"Boulevard de l'Europe, 83500 La Seyne sur Mer","lat":43.114843,"lon":5.8559199},
{"name":"Aldi","brand":"Aldi","city":null,"address":"60 Rue de l'Europe","lat":49.9055679,"lon":3.6466649},
{"name":"Aldi","brand":"Aldi","city":null,"address":"63 Rue du Milieu","lat":50.717739,"lon":2.5463073},
{"name":"Aldi","brand":"Aldi","city":null,"address":null,"lat":45.2620478,"lon":0.343419},
{"name":"ALDI","brand":"Aldi","city":null,"address":null,"lat":44.7235315,"lon":-0.530285},
{"name":"Aldi","brand":"Aldi","city":null,"address":"Rue de Belfort","lat":48.9021175,"lon":2.3172568},
{"name":"ALDI","brand":"Aldi","city":"Beaune","address":"129 Route de Dijon, 21200 Beaune","lat":47.0335666,"lon":4.8435489},
{"name":"ALDI","brand":"Aldi","city":null,"address":null,"lat":48.1894265,"lon":5.88375},
{"name":"Aldi","brand":"Aldi","city":null,"address":"Rue de Cambrai","lat":50.3584898,"lon":3.0816277},
{"name":"ALDI","brand":"Aldi","city":null,"address":null,"lat":49.3058891,"lon":1.6037901},
{"name":"Aldi","brand":"Aldi","city":null,"address":null,"lat":47.6731389,"lon":-3.0005506},
{"name":"ALDI","brand":"Aldi","city":null,"address":null,"lat":49.3484546,"lon":0.5416285},
{"name":"Aldi","brand":"Aldi","city":null,"address":null,"lat":49.4087974,"lon":0.2524695},
{"name":"Aldi","brand":"Aldi","city":null,"address":null,"lat":45.6660051,"lon":3.2078735},
{"name":"Aldi","brand":"Aldi","city":null,"address":null,"lat":47.9162624,"lon":0.7608789},
{"name":"Aldi","brand":"Aldi","city":null,"address":null,"lat":47.9780632,"lon":3.3787991},
{"name":"ALDI","brand":"Aldi","city":null,"address":"112 bis Route d'Auxerre","lat":48.2734391,"lon":4.0556565},
{"name":"Aldi","brand":"Aldi","city":null,"address":"Rue de Menin","lat":50.6743103,"lon":3.0778817},
{"name":"ALDI","brand":"Aldi","city":null,"address":null,"lat":45.0040997,"lon":-0.4358881},
{"name":"Aldi","brand":"Aldi","city":null,"address":null,"lat":48.6140252,"lon":6.0930832},
{"name":"Aldi","brand":"Aldi","city":"Outreau","address":"Rue Jules Massenet, 62230 Outreau","lat":50.6978716,"lon":1.5793674},
{"name":"ALDI","brand":"Aldi","city":null,"address":null,"lat":46.6711191,"lon":0.3757776},
{"name":"ALDI","brand":"Aldi","city":null,"address":null,"lat":44.1839589,"lon":0.6318473},
{"name":"Aldi","brand":"Aldi","city":null,"address":null,"lat":44.361028,"lon":4.6954748},
{"name":"Aldi","brand":"Aldi","city":null,"address":null,"lat":44.1795201,"lon":0.6776457},
{"name":"ALDI","brand":"Aldi","city":null,"address":null,"lat":44.1946528,"lon":0.6013142},
{"name":"ALDI","brand":"Aldi","city":"Sézanne","address":"5 Avenue Jean Jaurès, 51120 Sézanne","lat":48.7162657,"lon":3.7256582},
{"name":"ALDI","brand":"Aldi","city":null,"address":null,"lat":45.8106712,"lon":1.2750569},
{"name":"Aldi","brand":"Aldi","city":null,"address":null,"lat":43.5467227,"lon":1.4776493},
{"name":"ALDI","brand":"Aldi","city":"Lure","address":"25 Route de Belfort, 70200 Lure","lat":47.6756214,"lon":6.520295},
{"name":"Aldi","brand":"Aldi","city":null,"address":"60 Rue de Maubeuge","lat":50.2075927,"lon":3.8562079},
{"name":"Aldi","brand":"Aldi","city":null,"address":"1 Rue Gustave Eiffel","lat":49.0222407,"lon":2.4660787},
{"name":"Aldi","brand":"Aldi","city":null,"address":null,"lat":47.6281417,"lon":6.8448395},
{"name":"Aldi","brand":"Aldi","city":null,"address":"11 Avenue Commandos d'Afrique","lat":47.6566829,"lon":6.862978},
{"name":"Aldi","brand":"Aldi","city":"Aubencheul-au-Bac","address":"38 Rue Nationale, Aubencheul-au-Bac","lat":50.2529392,"lon":3.1614727},
{"name":"Aldi","brand":"Aldi","city":null,"address":"Carrière Dorée","lat":50.4741506,"lon":3.2324873},
{"name":"Aldi","brand":"Aldi","city":null,"address":null,"lat":45.8484016,"lon":5.9530368},
{"name":"Aldi","brand":"Aldi","city":null,"address":"Rue François Mitterrand","lat":50.7150548,"lon":2.2337685},
{"name":"Aldi","brand":"Aldi","city":null,"address":null,"lat":47.4310493,"lon":1.4334996},
{"name":"Aldi","brand":"Aldi","city":null,"address":"127 Rue Paul Bert","lat":50.3281425,"lon":3.3449373},
{"name":"Aldi","brand":"Aldi","city":null,"address":"14 Route Nationale","lat":50.2641409,"lon":3.323345},
{"name":"Aldi","brand":"Aldi","city":null,"address":"Allée de l'Étang","lat":50.6223435,"lon":2.3949966},
{"name":"Aldi","brand":"Aldi","city":null,"address":null,"lat":45.7499671,"lon":4.220674},
{"name":"Aldi","brand":"Aldi","city":null,"address":null,"lat":47.5203147,"lon":5.1223302},
{"name":"Aldi","brand":"Aldi","city":null,"address":"48 Rue du Général Delestraint","lat":50.334824,"lon":3.2536963},
{"name":"Aldi","brand":"Aldi","city":null,"address":"Boulevard du 8 Mai 1945","lat":50.1262828,"lon":3.4237122},
{"name":"Aldi","brand":"Aldi","city":"Cambrai","address":"7-9 Avenue François Mitterrand, 59400 Cambrai","lat":50.1769818,"lon":3.2163442},
{"name":"Aldi","brand":"Aldi","city":null,"address":null,"lat":44.9054095,"lon":-0.2259635},
{"name":"ALDI","brand":"Aldi","city":null,"address":"3 Rue de Strasbourg, 57370","lat":48.7722203,"lon":7.2418175},
{"name":"Aldi","brand":"Aldi","city":null,"address":"Rue Germain Delebecque","lat":50.4291523,"lon":2.7748609},
{"name":"Aldi","brand":"Aldi","city":null,"address":null,"lat":45.8458921,"lon":6.1499709},
{"name":"ALDI","brand":"Aldi","city":"La Haye","address":"38 Avenue de la Cote des Isles, 50250 La Haye","lat":49.2936034,"lon":-1.5556083},
{"name":"Aldi","brand":"Aldi","city":null,"address":null,"lat":43.5354802,"lon":1.4809474},
{"name":"Aldi","brand":"Aldi","city":null,"address":"Boulevard Marcel Cachin","lat":50.3948362,"lon":3.5336708},
{"name":"Aldi","brand":"Aldi","city":null,"address":"Rue du Grand Mont","lat":50.4468477,"lon":2.8000478},
{"name":"ALDI","brand":"Aldi","city":null,"address":null,"lat":44.0271219,"lon":4.9713263},
{"name":"Aldi","brand":"Aldi","city":null,"address":null,"lat":47.1336978,"lon":4.9629875},
{"name":"Aldi","brand":"Aldi","city":null,"address":null,"lat":47.817534,"lon":6.3912145},
{"name":"Aldi","brand":"Aldi","city":null,"address":"Chemin des Poissonniers","lat":50.3686683,"lon":2.0301267},
{"name":"Aldi","brand":"Aldi","city":null,"address":"Rue Albert Camus","lat":49.8703724,"lon":2.2593309},
{"name":"Aldi","brand":"Aldi","city":null,"address":null,"lat":47.516341,"lon":6.8216805},
{"name":"Aldi","brand":"Aldi","city":null,"address":"Boulevard Auguste Huguet","lat":50.7147948,"lon":1.5893792},
{"name":"Aldi","brand":"Aldi","city":"La Mulatière","address":"260 Chemin de Fontanières, 69350 La Mulatière","lat":45.7268308,"lon":4.8115521},
{"name":"ALDI","brand":"Aldi","city":null,"address":null,"lat":43.3416986,"lon":5.3594668},
{"name":"ALDI","brand":"Aldi","city":null,"address":null,"lat":49.1679494,"lon":5.3838595},
{"name":"ALDI","brand":"Aldi","city":"Épinal","address":"59 Rue de Remiremont, 88000 Épinal","lat":48.1610524,"lon":6.4498044},
{"name":"Aldi","brand":"Aldi","city":null,"address":null,"lat":48.1915687,"lon":6.4312225},
{"name":"Aldi","brand":"Aldi","city":null,"address":null,"lat":47.2320623,"lon":5.2341718},
{"name":"ALDI","brand":"Aldi","city":null,"address":null,"lat":49.51886,"lon":5.7722397},
{"name":"Aldi","brand":"Aldi","city":"Margencel","address":"631 Route du Crêt Gojon, 74200 Margencel","lat":46.3454107,"lon":6.4212077},
{"name":"ALDI","brand":"Aldi","city":null,"address":null,"lat":48.4741496,"lon":-2.0420981},
{"name":"Aldi","brand":"Aldi","city":null,"address":"Rue de Toufflers","lat":50.6710723,"lon":3.229124},
{"name":"Aldi","brand":"Aldi","city":"Avignon","address":"84000 Avignon","lat":43.9244376,"lon":4.8592815},
{"name":"ALDI","brand":"Aldi","city":null,"address":null,"lat":43.9193887,"lon":5.0333857},
{"name":"ALDI","brand":"Aldi","city":"Castres","address":"8 Rue Ignace Schabaver, 81100 Castres","lat":43.5936147,"lon":2.2649557},
{"name":"ALDI","brand":"Aldi","city":null,"address":null,"lat":48.7313599,"lon":1.3420295},
{"name":"Aldi","brand":"Aldi","city":null,"address":"5 Quartier de la Fabrique","lat":50.0280093,"lon":3.2853051},
{"name":"Aldi","brand":"Aldi","city":null,"address":"Avenue Anthony Caro","lat":50.9503653,"lon":2.1905626},
{"name":"Aldi","brand":"Aldi","city":null,"address":"Boulevard Saint-Antoine","lat":48.8186512,"lon":2.1207732},
{"name":"ALDI","brand":"Aldi","city":"Bétheny","address":"rue de la Ferme Pierquin, 51450 Bétheny","lat":49.2854908,"lon":4.0317625},
{"name":"Aldi","brand":"Aldi","city":null,"address":"Rue Eugène Thoison","lat":48.2688884,"lon":2.7071489},
{"name":"Aldi","brand":"Aldi","city":null,"address":"Rue Jules Ferry","lat":50.4087988,"lon":3.0089539},
{"name":"ALDI","brand":"Aldi","city":"Sarreguemines","address":"42 Rue des Frères Rémy, 57200 Sarreguemines","lat":49.1134921,"lon":7.1001618},
{"name":"ALDI","brand":"Aldi","city":null,"address":null,"lat":47.1073458,"lon":6.1399131},
{"name":"Aldi","brand":"Aldi","city":null,"address":"Rue Lafarge","lat":48.9894051,"lon":1.7491017},
{"name":"Aldi","brand":"Aldi","city":null,"address":"44 Route d'Amiens","lat":49.8696304,"lon":2.506832},
{"name":"Aldi","brand":"Aldi","city":"Wingles","address":"Rue des Alouettes, 62410 Wingles","lat":50.4856732,"lon":2.8413763},
{"name":"Aldi","brand":"Aldi","city":null,"address":"Route de Mantes","lat":49.1466521,"lon":1.7890991},
{"name":"ALDI","brand":"Aldi","city":null,"address":null,"lat":48.6938631,"lon":6.1292243},
{"name":"ALDI","brand":"Aldi","city":null,"address":null,"lat":50.1489283,"lon":4.8226302},
{"name":"Aldi","brand":"Aldi","city":null,"address":null,"lat":43.3950622,"lon":5.1352404},
{"name":"Aldi","brand":"Aldi","city":null,"address":"2 ZA Hellieule","lat":48.2914584,"lon":6.9334656},
{"name":"Aldi","brand":"Aldi","city":null,"address":null,"lat":47.4263758,"lon":2.930966},
{"name":"Aldi","brand":"Aldi","city":null,"address":"Rue Léona-Occre","lat":50.3496101,"lon":2.5782649},
{"name":"Aldi","brand":"Aldi","city":null,"address":"Rue Georges-Despret","lat":50.2905113,"lon":4.0244307},
{"name":"Aldi","brand":"Aldi","city":"Autingues","address":"ZAC du Plat d'Or, 62610 Autingues","lat":50.8511522,"lon":1.98711},
{"name":"Aldi","brand":"Aldi","city":null,"address":"Avenue du Rivage Gayant","lat":50.3829509,"lon":3.0977809},
{"name":"Aldi","brand":"Aldi","city":null,"address":"2 Route d'Izel","lat":50.3913132,"lon":2.9097685},
{"name":"Aldi","brand":"Aldi","city":"Gignac","address":"ZA Les Armillières, 34150 Gignac","lat":43.6556251,"lon":3.554195},
{"name":"Aldi","brand":"Aldi","city":"Anould","address":"1752 bis Rue de Saint-Dié, 88650 Anould","lat":48.201951,"lon":6.9457733},
{"name":"Aldi","brand":"Aldi","city":null,"address":null,"lat":45.6620408,"lon":0.4949392},
{"name":"ALDI","brand":"Aldi","city":null,"address":null,"lat":44.9068538,"lon":-0.5163262},
{"name":"Aldi","brand":"Aldi","city":"Marquise","address":"Avenue Ferber, 62250 Marquise","lat":50.8201438,"lon":1.7038074},
{"name":"ALDI","brand":"Aldi","city":null,"address":null,"lat":45.5997138,"lon":4.0718475},
{"name":"ALDI","brand":"Aldi","city":"Beaumont","address":"Rue des Frères Lumière, 63110 Beaumont","lat":45.746904,"lon":3.0929532},
{"name":"Aldi","brand":"Aldi","city":null,"address":null,"lat":45.1676226,"lon":1.5536559},
{"name":"Aldi","brand":"Aldi","city":null,"address":null,"lat":48.9306705,"lon":7.9005365},
{"name":"ALDI","brand":"Aldi","city":null,"address":null,"lat":47.7975809,"lon":1.0514743},
{"name":"ALDI","brand":"Aldi","city":null,"address":null,"lat":45.8576833,"lon":4.7061548},
{"name":"Aldi","brand":"Aldi","city":null,"address":"1 Avenue de Honhoué, 38130","lat":45.1519117,"lon":5.7091793},
{"name":"Aldi","brand":"Aldi","city":null,"address":"Rue Jean Jaurès","lat":50.3809155,"lon":3.5824556},
{"name":"Aldi","brand":"Aldi","city":null,"address":"Rue de l'Europe","lat":50.0621682,"lon":3.1424877},
{"name":"ALDI","brand":"Aldi","city":null,"address":null,"lat":47.8451414,"lon":3.5555734},
{"name":"Aldi","brand":"Aldi","city":"Villeneuve-la-Garenne","address":"300 Boulevard Charles de Gaulle, 92390 Villeneuve-la-Garenne","lat":48.9440685,"lon":2.3143417},
{"name":"ALDI","brand":"Aldi","city":"Vire-Normandie","address":"Route de Caen, 14500 Vire-Normandie","lat":48.8588498,"lon":-0.8755036},
{"name":"Aldi","brand":"Aldi","city":"Charleville-Mézières","address":"3 Rue du Theux, 08000 Charleville-Mézières","lat":49.7591139,"lon":4.7307651},
{"name":"Aldi","brand":"Aldi","city":null,"address":null,"lat":47.8435973,"lon":-0.9684507},
{"name":"Aldi","brand":"Aldi","city":null,"address":"59 Avenue du Chasselas","lat":44.1110633,"lon":1.1041545},
{"name":"Aldi","brand":"Aldi","city":null,"address":"Boulevard de Charonne","lat":48.8568769,"lon":2.3944657},
{"name":"Aldi","brand":"Aldi","city":null,"address":"8 Rue de l'Ancienne Gare","lat":50.1179219,"lon":3.9375908},
{"name":"ALDI","brand":"Aldi","city":null,"address":null,"lat":47.8723337,"lon":5.3240498},
{"name":"ALDI","brand":"Aldi","city":null,"address":null,"lat":43.1192948,"lon":5.9419745},
{"name":"Aldi","brand":"Aldi","city":null,"address":"86 Rue Jean Mermoz","lat":49.8443221,"lon":3.5054793},
{"name":"Aldi","brand":"Aldi","city":null,"address":"Rue Roger Salengro","lat":49.3251163,"lon":2.3268355},
{"name":"Aldi","brand":"Aldi","city":null,"address":null,"lat":48.1200467,"lon":-0.0106384},
{"name":"Aldi","brand":"Aldi","city":null,"address":"75 Boulevard Gabriel Péri","lat":48.8777204,"lon":2.4734625},
{"name":"ALDI","brand":"Aldi","city":null,"address":null,"lat":45.74215,"lon":6.4230355},
{"name":"Aldi","brand":"Aldi","city":null,"address":null,"lat":45.2383241,"lon":5.6701387},
{"name":"ALDI","brand":"Aldi","city":null,"address":null,"lat":49.4860925,"lon":1.7285525},
{"name":"Aldi","brand":"Aldi","city":"Saint-Louis","address":"123 Rue de Mulhouse, 68300 Saint-Louis","lat":47.5977045,"lon":7.5531287},
{"name":"ALDI","brand":"Aldi","city":null,"address":null,"lat":43.8544917,"lon":7.2320147},
{"name":"ALDI","brand":"Aldi","city":null,"address":null,"lat":49.1736705,"lon":-0.336807},
{"name":"Aldi","brand":"Aldi","city":null,"address":"Boulevard de Ménilmontant","lat":48.8647366,"lon":2.3858705},
{"name":"Aldi","brand":"Aldi","city":null,"address":null,"lat":42.8844591,"lon":2.1917239},
{"name":"ALDI","brand":"Aldi","city":null,"address":null,"lat":47.4720603,"lon":3.5139033},
{"name":"Aldi","brand":"Aldi","city":null,"address":"Avenue du Général de Gaulle","lat":48.9766592,"lon":2.3940792},
{"name":"ALDI","brand":"Aldi","city":null,"address":null,"lat":47.7620803,"lon":7.2959039},
{"name":"Aldi","brand":"Aldi","city":null,"address":null,"lat":49.0415787,"lon":2.6818305},
{"name":"ALDI","brand":"Aldi","city":null,"address":null,"lat":46.248682,"lon":5.6434488},
{"name":"ALDI","brand":"Aldi","city":null,"address":null,"lat":46.3154935,"lon":4.8311199},
{"name":"ALDI","brand":"Aldi","city":null,"address":null,"lat":43.4375929,"lon":3.7401064},
{"name":"ALDI","brand":"Aldi","city":null,"address":null,"lat":48.6275544,"lon":4.9578081},
{"name":"ALDI","brand":"Aldi","city":null,"address":null,"lat":49.0877676,"lon":4.8806787},
{"name":"ALDI","brand":"Aldi","city":null,"address":null,"lat":47.7914845,"lon":7.3122763},
{"name":"Aldi","brand":"Aldi","city":null,"address":"Rue de Vauvillers","lat":49.8240854,"lon":2.7133735},
{"name":"ALDI","brand":"Aldi","city":null,"address":null,"lat":46.4858851,"lon":3.9911478},
{"name":"Aldi","brand":"Aldi","city":null,"address":"Rue Jean Jaurès","lat":50.4286342,"lon":3.5679472},
{"name":"ALDI","brand":"Aldi","city":null,"address":null,"lat":49.5125549,"lon":5.7349802},
{"name":"ALDI","brand":"Aldi","city":null,"address":null,"lat":46.646131,"lon":-0.220682},
{"name":"Aldi","brand":"Aldi","city":null,"address":"Rue de l'Ancienne Sucrerie","lat":48.3750911,"lon":2.9563808},
{"name":"ALDI","brand":"Aldi","city":null,"address":null,"lat":48.6788578,"lon":-1.3441446},
{"name":"Aldi","brand":"Aldi","city":null,"address":"Rue d'Haspres","lat":50.2481367,"lon":3.4374398},
{"name":"ALDI","brand":"Aldi","city":null,"address":null,"lat":46.4514868,"lon":5.345372},
{"name":"Aldi","brand":"Aldi","city":"Trosly-Breuil","address":"2 Rue Pierre Thiant, 60350 Trosly-Breuil","lat":49.4014299,"lon":2.9932583},
{"name":"Aldi","brand":"Aldi","city":null,"address":"Avenue Paul Langevin","lat":49.0077875,"lon":2.16732},
{"name":"ALDI","brand":"Aldi","city":null,"address":null,"lat":43.4182259,"lon":6.4234997},
{"name":"ALDI","brand":"Aldi","city":null,"address":null,"lat":47.8216791,"lon":-1.8088887},
{"name":"ALDI","brand":"Aldi","city":null,"address":null,"lat":49.7775814,"lon":4.6958944},
{"name":"ALDI","brand":"Aldi","city":null,"address":"7","lat":49.1301337,"lon":6.1601411},
{"name":"Aldi","brand":"Aldi","city":"Saint-Lô","address":"Avenue de Paris, 50000 Saint-Lô","lat":49.1166603,"lon":-1.0592988},
{"name":"Aldi","brand":"Aldi","city":null,"address":null,"lat":43.6546141,"lon":6.9308536},
{"name":"ALDI","brand":"Aldi","city":null,"address":null,"lat":43.1945763,"lon":1.0018988},
{"name":"Aldi","brand":"Aldi","city":null,"address":null,"lat":49.1807356,"lon":6.890527},
{"name":"ALDI","brand":"Aldi","city":null,"address":null,"lat":45.7527814,"lon":4.8512308},
{"name":"Aldi","brand":"Aldi","city":"Cambrai","address":"30 Avenue de Valenciennes, 59400 Cambrai","lat":50.1806131,"lon":3.2493985},
{"name":"Aldi","brand":"Aldi","city":"Rambouillet","address":"Rue de la Louvière, 78120 Rambouillet","lat":48.6458825,"lon":1.8452674},
{"name":"ALDI","brand":"Aldi","city":null,"address":"16 Rue des Bas Buissons","lat":48.7488042,"lon":1.3497188},
{"name":"ALDI","brand":"Aldi","city":null,"address":null,"lat":47.4639081,"lon":6.8558597},
{"name":"ALDI","brand":"Aldi","city":null,"address":null,"lat":45.0577198,"lon":1.1541769},
{"name":"ALDI","brand":"Aldi","city":"Châtenois","address":"13Bis Rue Pierre de Coubertin, 88170 Châtenois","lat":48.2989345,"lon":5.844876},
{"name":"Aldi","brand":"Aldi","city":null,"address":"Avenue Antoine de Saint-Exupéry","lat":50.9474955,"lon":1.92114},
{"name":"ALDI","brand":"Aldi","city":null,"address":null,"lat":44.1634345,"lon":4.6260015},
{"name":"Aldi","brand":"Aldi","city":null,"address":"Rue des Déportés","lat":50.6874928,"lon":2.8951009},
{"name":"ALDI","brand":"Aldi","city":null,"address":null,"lat":47.2494775,"lon":3.6796287},
{"name":"Aldi","brand":"Aldi","city":null,"address":null,"lat":48.7357427,"lon":1.3856711},
{"name":"ALDI","brand":"Aldi","city":null,"address":null,"lat":48.426128,"lon":-4.5709911},
{"name":"ALDI","brand":"Aldi","city":null,"address":null,"lat":43.5199832,"lon":1.5431302},
{"name":"Aldi","brand":"Aldi","city":"Domont","address":"35 Avenue Jean Jaurès, 95330 Domont","lat":49.0316026,"lon":2.3351033},
{"name":"ALDI","brand":"Aldi","city":"Lemberg","address":"Rue de Sarreguemines, 57620 Lemberg","lat":48.9993935,"lon":7.3695694},
{"name":"ALDI","brand":"Aldi","city":null,"address":null,"lat":43.2071081,"lon":2.3132021},
{"name":"ALDI","brand":"Aldi","city":"Bagnols-sur-Cèze","address":"Chemin du Faché, 30200 Bagnols-sur-Cèze","lat":44.1781103,"lon":4.6185417},
{"name":"Aldi","brand":"Aldi","city":null,"address":null,"lat":43.9853458,"lon":4.8858949},
{"name":"Aldi","brand":"Aldi","city":null,"address":"139 Route Nationale","lat":50.2094078,"lon":3.0960272},
{"name":"Aldi","brand":"Aldi","city":"Saint-Léonard de Noblat","address":"9 Avenue Jean Moulin, 87400 Saint-Léonard de Noblat","lat":45.8332774,"lon":1.4977041},
{"name":"Aldi","brand":"Aldi","city":null,"address":null,"lat":49.1315562,"lon":4.5339079},
{"name":"ALDI","brand":"Aldi","city":null,"address":null,"lat":45.9330455,"lon":4.7139058},
{"name":"ALDI","brand":"Aldi","city":null,"address":null,"lat":44.544582,"lon":3.286853},
{"name":"Aldi","brand":"Aldi","city":"Couzeix","address":"4 Rue Germain Couyaud, 87270 Couzeix","lat":45.8676488,"lon":1.2596108},
{"name":"Aldi","brand":"Aldi","city":null,"address":null,"lat":45.0138687,"lon":-0.0154294},
{"name":"ALDI","brand":"Aldi","city":"Flers","address":"101, 61100 Flers","lat":48.7446307,"lon":-0.5785786},
{"name":"Aldi","brand":"Aldi","city":null,"address":null,"lat":49.3711802,"lon":1.9867676},
{"name":"ALDI","brand":"Aldi","city":null,"address":null,"lat":47.6769546,"lon":7.4994684},
{"name":"Aldi","brand":"Aldi","city":null,"address":"218 Route de Pichelèbe","lat":43.9165054,"lon":-1.3054673},
{"name":"ALDI","brand":"Aldi","city":null,"address":null,"lat":47.4931942,"lon":4.3487262},
{"name":"Aldi","brand":"Aldi","city":null,"address":"Route de Maubeuge","lat":50.2965957,"lon":3.809483},
{"name":"ALDI","brand":"Aldi","city":null,"address":null,"lat":49.522171,"lon":4.3689293},
{"name":"Aldi","brand":"Aldi","city":null,"address":null,"lat":47.9815332,"lon":6.8336085},
{"name":"Aldi","brand":"Aldi","city":null,"address":null,"lat":46.4515171,"lon":-0.810265},
{"name":"Aldi","brand":"Aldi","city":null,"address":null,"lat":46.9679486,"lon":-0.2100612},
{"name":"Aldi","brand":"Aldi","city":null,"address":"Avenue Lénine / Rue de Paris","lat":48.883085,"lon":2.4260777},
{"name":"Aldi","brand":"Aldi","city":null,"address":"Rue du Général Leclerc","lat":49.0459238,"lon":2.1062081},
{"name":"ALDI","brand":"Aldi","city":null,"address":null,"lat":46.550745,"lon":3.3389938},
{"name":"Aldi","brand":"Aldi","city":null,"address":"Chaussée de Fontaine","lat":49.8431809,"lon":3.9058886},
{"name":"Aldi","brand":"Aldi","city":"Gérardmer","address":"13 Rue Charles de Gaulle, 88400 Gérardmer","lat":48.0688377,"lon":6.8730324},
{"name":"ALDI","brand":"Aldi","city":null,"address":null,"lat":47.2266159,"lon":-1.532266},
{"name":"Aldi","brand":"Aldi","city":null,"address":null,"lat":47.9524903,"lon":5.7575378},
{"name":"Aldi","brand":"Aldi","city":null,"address":null,"lat":45.4665534,"lon":4.3752366},
{"name":"Aldi","brand":"Aldi","city":null,"address":null,"lat":44.9600493,"lon":4.9369099},
{"name":"Aldi","brand":"Aldi","city":null,"address":null,"lat":48.6563726,"lon":-0.9372733},
{"name":"ALDI","brand":"Aldi","city":null,"address":null,"lat":43.3118292,"lon":1.9660892},
{"name":"Aldi","brand":"Aldi","city":null,"address":"Rue Albert Rémy","lat":48.6566554,"lon":2.4088008},
{"name":"Aldi","brand":"Aldi","city":null,"address":null,"lat":44.3863187,"lon":5.0003845},
{"name":"Aldi","brand":"Aldi","city":null,"address":null,"lat":46.7963995,"lon":4.4285391},
{"name":"Aldi","brand":"Aldi","city":null,"address":null,"lat":46.0269954,"lon":4.3146346},
{"name":"Aldi","brand":"Aldi","city":null,"address":null,"lat":46.5837096,"lon":3.0646189},
{"name":"Aldi","brand":"Aldi","city":null,"address":"Rue Charles Péguy","lat":49.5488759,"lon":3.6177151},
{"name":"Aldi","brand":"Aldi","city":null,"address":"93 Avenue Pierre Mendés-France","lat":49.5753913,"lon":3.6359724},
{"name":"Aldi","brand":"Aldi","city":null,"address":"Rue Adolphe Pajeaud","lat":48.7411511,"lon":2.2823578},
{"name":"Aldi","brand":"Aldi","city":null,"address":"Rue de la Lys","lat":50.7806018,"lon":3.1052044},
{"name":"ALDI","brand":"Aldi","city":null,"address":"99 Cours Albert 1er, 33800","lat":44.813746,"lon":-0.5676044},
{"name":"Aldi","brand":"Aldi","city":null,"address":null,"lat":46.2962042,"lon":-0.990552},
{"name":"Aldi","brand":"Aldi","city":null,"address":"Rue de Vaugirard","lat":48.8391782,"lon":2.2998895},
{"name":"Aldi","brand":"Aldi","city":null,"address":null,"lat":44.0769912,"lon":6.1856994},
{"name":"Aldi","brand":"Aldi","city":null,"address":"Rue de Clignancourt","lat":48.8846545,"lon":2.3473544},
{"name":"Aldi","brand":"Aldi","city":null,"address":null,"lat":48.2317797,"lon":0.1226563},
{"name":"Aldi","brand":"Aldi","city":"Levallois-Perret","address":"86 Edouard Vaillant, 92300 Levallois-Perret","lat":48.8974057,"lon":2.2880062},
{"name":"Aldi","brand":"Aldi","city":null,"address":null,"lat":44.3753906,"lon":4.6982274},
{"name":"Aldi","brand":"Aldi","city":"Charolles","address":"Ancienne Avenue de la Gare, 71120 Charolles","lat":46.4353261,"lon":4.2794747},
{"name":"Aldi Montady","brand":"Aldi","city":null,"address":null,"lat":43.3341989,"lon":3.1319456},
{"name":"ALDI","brand":"Aldi","city":null,"address":null,"lat":47.2897672,"lon":4.2334589},
{"name":"ALDI","brand":"Aldi","city":null,"address":null,"lat":44.1439755,"lon":0.3317277},
{"name":"Aldi","brand":"Aldi","city":"Pantin","address":"216 Avenue Jean Lolive, 93500 Pantin","lat":48.8952673,"lon":2.425951},
{"name":"ALDI","brand":"Aldi","city":null,"address":null,"lat":49.4061355,"lon":1.1539026},
{"name":"Aldi","brand":"Aldi","city":null,"address":"Rue du Poteau","lat":48.8970628,"lon":2.337963},
{"name":"ALDI","brand":"Aldi","city":"Gaillac","address":"84 Avenue Charles de Gaulle, 81600 Gaillac","lat":43.9063989,"lon":1.9134161},
{"name":"ALDI","brand":"Aldi","city":null,"address":null,"lat":43.8954844,"lon":1.8835194},
{"name":"Aldi","brand":"Aldi","city":null,"address":null,"lat":43.1898852,"lon":5.648818},
{"name":"Aldi","brand":"Aldi","city":"Épinay-sous-Sénart","address":"55 Rue Sainte-Geneviève, 91860 Épinay-sous-Sénart","lat":48.6937788,"lon":2.5129405},
{"name":"ALDI","brand":"Aldi","city":null,"address":null,"lat":42.7319635,"lon":3.025043},
{"name":"Aldi","brand":"Aldi","city":"Montrouge","address":"11bis Rue Marcel Sembat, 92120 Montrouge","lat":48.815778,"lon":2.3075339},
{"name":"Aldi","brand":"Aldi","city":null,"address":"Rue Francisco Goya","lat":43.9338252,"lon":2.1676026},
{"name":"Aldi","brand":"Aldi","city":null,"address":"Rue des Mourinoux","lat":48.9316805,"lon":2.2755392},
{"name":"ALDI","brand":"Aldi","city":null,"address":null,"lat":43.9546351,"lon":4.9012458},
{"name":"ALDI","brand":"Aldi","city":"Mulhouse","address":"24 Boulevard des Nations, 68200 Mulhouse","lat":47.7372141,"lon":7.3023148},
{"name":"Aldi","brand":"Aldi","city":null,"address":"Rue Mouraud","lat":48.8565397,"lon":2.40824},
{"name":"Aldi","brand":"Aldi","city":null,"address":null,"lat":47.6754223,"lon":-3.1868942},
{"name":"ALDI","brand":"Aldi","city":"Velaux","address":"Centre Commercial de la Colline, Allée Claude Debussy, 13880 Velaux","lat":43.5340688,"lon":5.2525411},
{"name":"ALDI","brand":"Aldi","city":null,"address":null,"lat":43.4392294,"lon":5.0347021},
{"name":"ALDI","brand":"Aldi","city":null,"address":null,"lat":46.8070994,"lon":1.6769309},
{"name":"Aldi","brand":"Aldi","city":null,"address":null,"lat":48.8682508,"lon":2.433075},
{"name":"Aldi","brand":"Aldi","city":null,"address":null,"lat":47.6899684,"lon":-0.8936342},
{"name":"Aldi","brand":"Aldi","city":null,"address":null,"lat":48.2017495,"lon":2.9891808},
{"name":"ALDI","brand":"Aldi","city":null,"address":null,"lat":44.5271781,"lon":4.744532},
{"name":"Aldi","brand":"Aldi","city":null,"address":null,"lat":48.7376811,"lon":0.9183246},
{"name":"Aldi","brand":"Aldi","city":null,"address":"63200","lat":45.8886137,"lon":3.0732674},
{"name":"Aldi","brand":"Aldi","city":null,"address":null,"lat":47.2984412,"lon":-2.2102425},
{"name":"Aldi","brand":"Aldi","city":null,"address":"74, 18200","lat":46.7208518,"lon":2.5190903},
{"name":"ALDI","brand":"Aldi","city":null,"address":null,"lat":46.7230953,"lon":2.465085},
{"name":"Aldi","brand":"Aldi","city":null,"address":"Rue de Mouvaux","lat":50.6954117,"lon":3.1486331},
{"name":"Aldi","brand":"Aldi","city":null,"address":"63/67 Rue Eugène Eichenberger, 92800","lat":48.8825079,"lon":2.238563},
{"name":"ALDI","brand":"Aldi","city":null,"address":null,"lat":43.2814051,"lon":5.4432442},
{"name":"Aldi","brand":"Aldi","city":"Le Vésinet","address":"129-131 Boulevard Carnot, 78110 Le Vésinet","lat":48.8977445,"lon":2.1130349},
{"name":"ALDI","brand":"Aldi","city":null,"address":null,"lat":45.1564738,"lon":0.0075536},
{"name":"Aldi","brand":"Aldi","city":null,"address":null,"lat":47.8440974,"lon":7.0691179},
{"name":"Aldi","brand":"Aldi","city":"Gentilly","address":"25 Avenue Raspail, 94250 Gentilly","lat":48.8149182,"lon":2.3523297},
{"name":"Aldi","brand":"Aldi","city":null,"address":null,"lat":48.512703,"lon":3.714882},
{"name":"Aldi","brand":"Aldi","city":null,"address":null,"lat":44.03049,"lon":4.9779534},
{"name":"Aldi","brand":"Aldi","city":"Chartres","address":"31-33 Rue du Général Georges Patton, 28000 Chartres","lat":48.4410531,"lon":1.4743677},
{"name":"Aldi","brand":"Aldi","city":null,"address":null,"lat":48.4754471,"lon":4.7737527},
{"name":"Aldi","brand":"Aldi","city":null,"address":null,"lat":43.6869186,"lon":4.4294447},
{"name":"ALDI","brand":"Aldi","city":null,"address":null,"lat":46.2979913,"lon":4.8280995},
{"name":"Aldi","brand":"Aldi","city":null,"address":null,"lat":46.0514109,"lon":4.0665936},
{"name":"Aldi","brand":"Aldi","city":null,"address":"Rue du Docteur Schweitzer","lat":50.7396683,"lon":3.1808939},
{"name":"Aldi","brand":"Aldi","city":null,"address":null,"lat":48.5771275,"lon":1.2428909},
{"name":"Aldi","brand":"Aldi","city":null,"address":null,"lat":48.5092651,"lon":3.7309091},
{"name":"ALDI","brand":"Aldi","city":null,"address":null,"lat":49.2406809,"lon":6.1717221},
{"name":"Aldi Marché","brand":"Aldi","city":null,"address":null,"lat":48.8443028,"lon":-0.5529769},
{"name":"Aldi","brand":"Aldi","city":null,"address":null,"lat":43.7939049,"lon":4.8239185},
{"name":"Aldi","brand":"Aldi","city":"Bordeaux","address":"7 Rue de la Merci, 33000 Bordeaux","lat":44.8389772,"lon":-0.5736215},
{"name":"Aldi","brand":"Aldi","city":null,"address":"Avenue Paul Vaillant-Couturier","lat":48.8023773,"lon":2.338015},
{"name":"ALDI","brand":"Aldi","city":null,"address":null,"lat":47.3569319,"lon":5.0294098},
{"name":"Aldi","brand":"Aldi","city":null,"address":null,"lat":47.7680048,"lon":1.6166075},
{"name":"Aldi","brand":"Aldi","city":null,"address":null,"lat":49.985172,"lon":4.6925886},
{"name":"Aldi","brand":"Aldi","city":"Grenoble","address":"2 Rue Hoche, 38000 Grenoble","lat":45.1860106,"lon":5.7284128},
{"name":"Aldi Marché","brand":"Aldi","city":null,"address":null,"lat":48.5702572,"lon":-1.0932528},
{"name":"Aldi","brand":"Aldi","city":null,"address":null,"lat":45.5880449,"lon":5.8833664},
{"name":"ALDI","brand":"Aldi","city":null,"address":null,"lat":45.6714,"lon":-0.9249263},
{"name":"Aldi","brand":"Aldi","city":"Wervicq-Sud","address":"Rue de l'Industrie, 59117 Wervicq-Sud","lat":50.7718058,"lon":3.0465482},
{"name":"Aldi","brand":"Aldi","city":"Saint-Lizier","address":"Route de Toulouse, 09190 Saint-Lizier","lat":43.0022731,"lon":1.1307523},
{"name":"Aldi","brand":"Aldi","city":null,"address":"Rue Poncelet","lat":48.8790449,"lon":2.2970432},
{"name":"Aldi","brand":"Aldi","city":null,"address":null,"lat":48.0961927,"lon":7.3679361},
{"name":"Aldi","brand":"Aldi","city":null,"address":"43 Rue Cler","lat":48.856729,"lon":2.3065898},
{"name":"ALDI","brand":"Aldi","city":null,"address":"Rue Pierre et Marie Curie","lat":45.820738,"lon":1.245782},
{"name":"Aldi","brand":"Aldi","city":null,"address":null,"lat":45.8365514,"lon":1.2710194},
{"name":"Aldi","brand":"Aldi","city":null,"address":null,"lat":44.9137288,"lon":0.9256621},
{"name":"Aldi","brand":"Aldi","city":"Ligné","address":"531 Route de Nort-Sur-Erdre, 44850 Ligné","lat":47.4128567,"lon":-1.3898256},
{"name":"ALDI","brand":"Aldi","city":null,"address":null,"lat":49.0265325,"lon":3.9456733},
{"name":"Aldi","brand":"Aldi","city":null,"address":null,"lat":45.5670853,"lon":5.4383657},
{"name":"Aldi","brand":"Aldi","city":null,"address":null,"lat":44.9120647,"lon":2.4361396},
{"name":"Aldi","brand":"Aldi","city":"Paris","address":"85-87 Rue de Meaux, 75019 Paris","lat":48.8832253,"lon":2.3761429},
{"name":"Aldi","brand":"Aldi","city":null,"address":"Rue Georges Clemenceau","lat":50.0183297,"lon":2.0849127},
{"name":"Aldi","brand":"Aldi","city":null,"address":"Route d'Hilbert, 62630","lat":50.5100497,"lon":1.6564746},
{"name":"Aldi","brand":"Aldi","city":null,"address":null,"lat":43.7622209,"lon":1.9748703},
{"name":"Aldi","brand":"Aldi","city":null,"address":null,"lat":43.4912783,"lon":5.5299432},
{"name":"Aldi","brand":"Aldi","city":null,"address":null,"lat":45.9858191,"lon":4.7308608},
{"name":"Aldi","brand":"Aldi","city":null,"address":null,"lat":47.8394724,"lon":5.913616},
{"name":"Aldi","brand":"Aldi","city":null,"address":null,"lat":43.3588473,"lon":-0.3825549},
{"name":"ALDI","brand":"Aldi","city":"Saran","address":"Rue André Marie Ampère, 45770 Saran","lat":47.9655771,"lon":1.8848095},
{"name":"Aldi","brand":"Aldi","city":null,"address":null,"lat":47.4483576,"lon":-2.315051},
{"name":"Aldi","brand":"Aldi","city":null,"address":"Boulevard Pasteur","lat":50.3501667,"lon":3.1379054},
{"name":"Aldi","brand":"Aldi","city":"Sainte-Sigolène","address":"Zone Commerciale de Chanibeau, 43600 Sainte-Sigolène","lat":45.2489973,"lon":4.2174676},
{"name":"Aldi","brand":"Aldi","city":null,"address":"50","lat":48.2039107,"lon":6.721987},
{"name":"Aldi","brand":"Aldi","city":null,"address":null,"lat":49.4748161,"lon":5.9564417},
{"name":"ALDI","brand":"Aldi","city":null,"address":null,"lat":48.7790219,"lon":6.1318146},
{"name":"Aldi","brand":"Aldi","city":null,"address":"3","lat":48.7467526,"lon":6.1497122},
{"name":"ALDI","brand":"Aldi","city":"Colomiers","address":"31770 Colomiers","lat":43.6132732,"lon":1.3060736},
{"name":"Aldi","brand":"Aldi","city":null,"address":null,"lat":48.5218541,"lon":7.6919221},
{"name":"Aldi","brand":"Aldi","city":null,"address":null,"lat":48.501643,"lon":-2.7784627},
{"name":"Aldi","brand":"Aldi","city":null,"address":null,"lat":44.8910718,"lon":-0.6679176},
{"name":"Aldi","brand":"Aldi","city":null,"address":"2 Rue de la Malnoury","lat":49.1007071,"lon":2.7536419},
{"name":"ALDI","brand":"Aldi","city":null,"address":null,"lat":48.6031508,"lon":-1.9785436},
{"name":"ALDI","brand":"Aldi","city":"Carbonne","address":"10 Avenue de Toulouse, 31390 Carbonne","lat":43.2980393,"lon":1.2257444},
{"name":"ALDI","brand":"Aldi","city":null,"address":null,"lat":44.9050871,"lon":1.2072796},
{"name":"Aldi","brand":"Aldi","city":null,"address":null,"lat":43.7641281,"lon":-0.0324075},
{"name":"Aldi","brand":"Aldi","city":null,"address":"Rue Mollien","lat":50.9556833,"lon":1.8661204},
{"name":"ALDI","brand":"Aldi","city":"Saint-Pierre-du-Mont","address":"25 Avenue de la Chesnaie, 40280 Saint-Pierre-du-Mont","lat":43.8872446,"lon":-0.517502},
{"name":"Aldi","brand":"Aldi","city":null,"address":"Rue Jacques Brel","lat":49.3666923,"lon":3.3142557},
{"name":"Aldi","brand":"Aldi","city":null,"address":null,"lat":48.933,"lon":6.6507747},
{"name":"Aldi","brand":"Aldi","city":null,"address":"Chaussée Jules Ferry","lat":49.8779661,"lon":2.3426347},
{"name":"ALDI","brand":"Aldi","city":null,"address":null,"lat":45.9521325,"lon":-0.9810338},
{"name":"Aldi","brand":"Aldi","city":null,"address":null,"lat":43.3152618,"lon":6.0748317},
{"name":"Aldi","brand":"Aldi","city":null,"address":"Rue Jacques Monod","lat":49.0272825,"lon":1.1795154},
{"name":"Aldi","brand":"Aldi","city":null,"address":null,"lat":48.7393137,"lon":2.2893195},
{"name":"Aldi","brand":"Aldi","city":null,"address":null,"lat":45.759103,"lon":5.6971802},
{"name":"Aldi","brand":"Aldi","city":null,"address":"Avenue de la Courtillière","lat":48.8674623,"lon":2.6759521},
{"name":"ALDI","brand":"Aldi","city":"Saint-Flour","address":"Avenue du 11 Novembre, 15100 Saint-Flour","lat":45.031779,"lon":3.0997194},
{"name":"ALDI","brand":"Aldi","city":null,"address":null,"lat":49.2538591,"lon":5.9481319},
{"name":"ALDI","brand":"Aldi","city":null,"address":null,"lat":49.109182,"lon":6.2315615},
{"name":"Aldi","brand":"Aldi","city":null,"address":"14 Avenue Blaise Pascal","lat":49.4169268,"lon":2.1134151},
{"name":"Aldi Marché","brand":"Aldi","city":null,"address":null,"lat":43.2556128,"lon":0.0726979},
{"name":"ALDI","brand":"Aldi","city":null,"address":null,"lat":48.4848631,"lon":-2.661311},
{"name":"Aldi","brand":"Aldi","city":"Dreuil-lès-Amiens","address":"520 Avenue Louis Pasteur, 80470 Dreuil-lès-Amiens","lat":49.9141983,"lon":2.2369286},
{"name":"Aldi","brand":"Aldi","city":null,"address":null,"lat":48.5320743,"lon":-2.7558132},
{"name":"ALDI","brand":"Aldi","city":null,"address":"Avenue du 8 Mai 1945","lat":43.4138756,"lon":5.22385},
{"name":"Aldi","brand":"Aldi","city":null,"address":"Route de Marly","lat":49.0570384,"lon":2.5011971},
{"name":"Aldi","brand":"Aldi","city":null,"address":"Boulevard de Magenta","lat":48.8782302,"lon":2.353994},
{"name":"ALDI","brand":"Aldi","city":null,"address":null,"lat":47.4225165,"lon":0.701522},
{"name":"ALDI","brand":"Aldi","city":null,"address":null,"lat":49.4816892,"lon":5.2015703},
{"name":"Aldi","brand":"Aldi","city":null,"address":null,"lat":49.2178377,"lon":4.0205215},
{"name":"Aldi","brand":"Aldi","city":null,"address":null,"lat":43.271242,"lon":5.4277059},
{"name":"Aldi","brand":"Aldi","city":null,"address":"36 Avenue du Colonel Fabien","lat":48.9457171,"lon":2.3502734},
{"name":"ALDI","brand":"Aldi","city":null,"address":null,"lat":43.2682218,"lon":5.4197637},
{"name":"Aldi","brand":"Aldi","city":null,"address":null,"lat":45.434507,"lon":4.3359263},
{"name":"Aldi","brand":"Aldi","city":null,"address":"Rue Félix Carré","lat":47.1219205,"lon":4.4825634},
{"name":"Aldi","brand":"Aldi","city":"Viry-Noureuil","address":"Route de Chauny, Viry-Noureuil","lat":49.6426604,"lon":3.262663},
{"name":"Aldi","brand":"Aldi","city":null,"address":"Rue du Courtil","lat":50.1619837,"lon":4.0106601},
{"name":"Aldi Brioude","brand":"Aldi","city":null,"address":null,"lat":45.3140457,"lon":3.3731932},
{"name":"Aldi","brand":"Aldi","city":null,"address":"166 Rue Théophile Legrand","lat":50.0273004,"lon":4.0333133},
{"name":"Aldi","brand":"Aldi","city":"Chamant","address":"Avenue du Poteau, 60300 Chamant","lat":49.2173606,"lon":2.5959773},
{"name":"Aldi","brand":"Aldi","city":null,"address":null,"lat":44.7331233,"lon":5.0116451},
{"name":"Aldi","brand":"Aldi","city":null,"address":null,"lat":45.046669,"lon":3.9210339},
{"name":"Aldi","brand":"Aldi","city":"Villiers-le-Bel","address":"128 Avenue Pierre Semard, 95400 Villiers-le-Bel","lat":48.9984583,"lon":2.4142134},
{"name":"Aldi","brand":"Aldi","city":null,"address":null,"lat":47.4220638,"lon":0.9842213},
{"name":"Aldi","brand":"Aldi","city":"Le Coudray","address":"9 Rue de la Maladrerie, 28630 Le Coudray","lat":48.428544,"lon":1.5130508},
{"name":"Aldi","brand":"Aldi","city":"Fontenay-aux-Roses","address":"52 Rue Marx Dormoy, 92260 Fontenay-aux-Roses","lat":48.7931827,"lon":2.2971735},
{"name":"Aldi","brand":"Aldi","city":null,"address":"Rue de Lille","lat":50.5795588,"lon":2.9318021},
{"name":"Aldi","brand":"Aldi","city":null,"address":null,"lat":48.6810264,"lon":6.2043638},
{"name":"ALDI","brand":"Aldi","city":null,"address":null,"lat":47.0615857,"lon":5.4513003},
{"name":"ALDI","brand":"Aldi","city":null,"address":"Route d'Oudalle","lat":49.5040042,"lon":0.2062378},
{"name":"Aldi","brand":"Aldi","city":null,"address":null,"lat":45.4783995,"lon":4.4441635},
{"name":"Aldi","brand":"Aldi","city":null,"address":"Avenue de Paris","lat":48.9897684,"lon":2.2900298},
{"name":"Aldi","brand":"Aldi","city":null,"address":"Rue de Paris","lat":49.0045815,"lon":2.3523467},
{"name":"ALDI","brand":"Aldi","city":null,"address":null,"lat":47.3281713,"lon":5.0572085},
{"name":"Aldi","brand":"Aldi","city":null,"address":null,"lat":48.3350174,"lon":6.6353313},
{"name":"ALDI","brand":"Aldi","city":null,"address":null,"lat":47.0959577,"lon":2.4527598},
{"name":"ALDI","brand":"Aldi","city":null,"address":null,"lat":49.2546261,"lon":6.1318509},
{"name":"Aldi","brand":"Aldi","city":null,"address":null,"lat":43.4510237,"lon":5.6828988},
{"name":"Aldi","brand":"Aldi","city":null,"address":null,"lat":42.6771372,"lon":2.6356359},
{"name":"Aldi","brand":"Aldi","city":null,"address":"Avenue de Choisy","lat":48.8232556,"lon":2.3619796},
{"name":"Aldi","brand":"Aldi","city":"Ayzac-Ost","address":"35 Rue de la Mairie, 65400 Ayzac-Ost","lat":43.019822,"lon":-0.0956487},
{"name":"Aldi","brand":"Aldi","city":null,"address":null,"lat":45.6868351,"lon":4.9359501},
{"name":"Aldi","brand":"Aldi","city":null,"address":"61 Rue d'Hesdin, 62310","lat":50.5076175,"lon":2.1329814},
{"name":"Aldi","brand":"Aldi","city":null,"address":"Rue de l'Abondance","lat":49.0472378,"lon":2.0338901},
{"name":"Aldi","brand":"Aldi","city":null,"address":"Rue de la Goutte d'Or","lat":48.8851029,"lon":2.3534462},
{"name":"Aldi","brand":"Aldi","city":"Breuil-le-Vert","address":"364 Rue de Paris, 60600 Breuil-le-Vert","lat":49.3652795,"lon":2.4190068},
{"name":"ALDI","brand":"Aldi","city":null,"address":null,"lat":44.8755684,"lon":-0.5176338},
{"name":"ALDI","brand":"Aldi","city":"Talange","address":"Zone de la Ponte, 57525 Talange","lat":49.242193,"lon":6.1752079},
{"name":"Aldi","brand":"Aldi","city":null,"address":null,"lat":48.0462024,"lon":6.3987913},
{"name":"Aldi","brand":"Aldi","city":null,"address":"214 Rue de Crimée","lat":48.8926393,"lon":2.3747952},
{"name":"ALDI","brand":"Aldi","city":null,"address":null,"lat":43.7077023,"lon":7.2596007},
{"name":"Aldi","brand":"Aldi","city":null,"address":"Rue du Kruysbellaert","lat":51.0220293,"lon":2.3189002},
{"name":"ALDI","brand":"Aldi","city":null,"address":null,"lat":46.6866241,"lon":-1.9116266},
{"name":"ALDI","brand":"Aldi","city":null,"address":"15","lat":45.1483802,"lon":4.1280446},
{"name":"Aldi","brand":"Aldi","city":null,"address":null,"lat":43.4329404,"lon":6.7489139},
{"name":"Aldi","brand":"Aldi","city":null,"address":"Avenue de Poissy","lat":48.9431448,"lon":2.1283659},
{"name":"Aldi","brand":"Aldi","city":null,"address":"154 Rue de Solférino","lat":50.6312657,"lon":3.0544625},
{"name":"Aldi","brand":"Aldi","city":null,"address":null,"lat":49.8035349,"lon":2.6959654},
{"name":"Aldi","brand":"Aldi","city":"Nice","address":"78 Boulevard Virgile Barel, 06300 Nice","lat":43.7165512,"lon":7.2927292},
{"name":"Aldi","brand":"Aldi","city":null,"address":"Avenue du Maréchal Leclerc","lat":50.1571387,"lon":2.3501782},
{"name":"Aldi","brand":"Aldi","city":null,"address":null,"lat":49.3515853,"lon":6.1382652},
{"name":"Aldi","brand":"Aldi","city":null,"address":null,"lat":46.1025487,"lon":-1.0965224},
{"name":"Aldi","brand":"Aldi","city":null,"address":"Boulevard de la République","lat":48.8450843,"lon":2.2125096},
{"name":"Aldi","brand":"Aldi","city":null,"address":null,"lat":49.0672729,"lon":6.1456355},
{"name":"Aldi","brand":"Aldi","city":"Bruay-la-Buissière","address":"Avenue de la Libération, Bruay-la-Buissière","lat":50.4919758,"lon":2.5661538},
{"name":"ALDI","brand":"Aldi","city":null,"address":"160 Rue d'Authie","lat":49.1946925,"lon":-0.4017924},
{"name":"Aldi","brand":"Aldi","city":null,"address":null,"lat":48.0011542,"lon":6.7183757},
{"name":"Aldi","brand":"Aldi","city":null,"address":"Rue du Faubourg de Paris","lat":50.3526864,"lon":3.5108627},
{"name":"Aldi","brand":"Aldi","city":null,"address":null,"lat":46.2853621,"lon":4.2997169},
{"name":"Aldi","brand":"Aldi","city":"Paris","address":"101 Avenue du Général Leclerc, 75014 Paris","lat":48.825893,"lon":2.3266261},
{"name":"Aldi","brand":"Aldi","city":null,"address":null,"lat":45.0423489,"lon":5.0587166},
{"name":"Aldi","brand":"Aldi","city":"Chelles","address":"Route de Montfermeil, 77500 Chelles","lat":48.8932426,"lon":2.5792831},
{"name":"ALDI","brand":"Aldi","city":null,"address":null,"lat":49.6078968,"lon":1.5550082},
{"name":"Aldi","brand":"Aldi","city":null,"address":"1 Avenue Mercuria, 51470","lat":48.9462997,"lon":4.385241},
{"name":"Aldi","brand":"Aldi","city":null,"address":"6 Boulevard de Metz","lat":50.7016869,"lon":3.1842216},
{"name":"Aldi","brand":"Aldi","city":"Toulouse","address":"63 Chemin du Séminaire, 31200 Toulouse","lat":43.6413201,"lon":1.4331003},
{"name":"Aldi Marché","brand":"Aldi","city":null,"address":null,"lat":43.4183121,"lon":5.357863},
{"name":"Aldi","brand":"Aldi","city":null,"address":"Rue de Beauvais","lat":49.656104,"lon":1.9414894},
{"name":"ALDI","brand":"Aldi","city":null,"address":null,"lat":43.4779318,"lon":5.1692111},
{"name":"Aldi","brand":"Aldi","city":null,"address":null,"lat":43.4684213,"lon":0.9202879},
{"name":"Aldi","brand":"Aldi","city":null,"address":"194 Avenue du Général Faidherbe","lat":50.0081556,"lon":2.6696968},
{"name":"ALDI","brand":"Aldi","city":null,"address":null,"lat":43.1133449,"lon":0.7783195},
{"name":"Aldi","brand":"Aldi","city":null,"address":"Quai des Carrières","lat":48.8197403,"lon":2.4059629},
{"name":"ALDI","brand":"Aldi","city":null,"address":null,"lat":49.2061593,"lon":-0.3239764},
{"name":"Aldi","brand":"Aldi","city":null,"address":null,"lat":45.9003151,"lon":5.1941025},
{"name":"Aldi","brand":"Aldi","city":null,"address":null,"lat":47.4555554,"lon":5.5875624},
{"name":"Aldi","brand":"Aldi","city":null,"address":"Rue des Résistants","lat":50.690659,"lon":2.8729663},
{"name":"Aldi","brand":"Aldi","city":null,"address":null,"lat":46.9624108,"lon":4.3087847},
{"name":"ALDI","brand":"Aldi","city":null,"address":null,"lat":43.8154555,"lon":4.6199947},
{"name":"Aldi","brand":"Aldi","city":null,"address":null,"lat":43.7048209,"lon":1.3754212},
{"name":"Aldi","brand":"Aldi","city":null,"address":null,"lat":47.6923272,"lon":0.4279631},
{"name":"Aldi","brand":"Aldi","city":null,"address":null,"lat":48.6151515,"lon":1.6912597},
{"name":"Aldi","brand":"Aldi","city":"Toulouse","address":"41 Avenue Jean Moulin, 31400 Toulouse","lat":43.57836,"lon":1.4406156},
{"name":"Aldi","brand":"Aldi","city":null,"address":"14 Rue Victor Hugo","lat":50.3597241,"lon":3.3039588},
{"name":"Aldi","brand":"Aldi","city":"Herblay-sur-Seine","address":"427 Route de Conflans, 95220 Herblay-sur-Seine","lat":49.0044116,"lon":2.1255981},
{"name":"ALDI","brand":"Aldi","city":null,"address":"71 Avenue de la Trillade","lat":43.9337899,"lon":4.8209797},
{"name":"ALDI","brand":"Aldi","city":null,"address":null,"lat":49.0519008,"lon":6.577202},
{"name":"ALDI","brand":"Aldi","city":null,"address":null,"lat":46.1782063,"lon":-1.1033401},
{"name":"Aldi","brand":"Aldi","city":null,"address":"Rue aux Raisins","lat":50.4032914,"lon":1.5781529},
{"name":"Aldi","brand":"Aldi","city":null,"address":null,"lat":42.9428972,"lon":1.8559921},
{"name":"Aldi","brand":"Aldi","city":"Blaye","address":"112 Rue de l'Hôpital, 33390 Blaye","lat":45.1377603,"lon":-0.6554479},
{"name":"Aldi","brand":"Aldi","city":null,"address":null,"lat":44.9440733,"lon":4.8583813},
{"name":"ALDI","brand":"Aldi","city":null,"address":null,"lat":45.1304034,"lon":1.2839663},
{"name":"ALDI","brand":"Aldi","city":null,"address":null,"lat":47.0378596,"lon":3.0912624},
{"name":"Aldi","brand":"Aldi","city":null,"address":null,"lat":47.8262572,"lon":-0.6857704},
{"name":"ALDI","brand":"Aldi","city":null,"address":null,"lat":48.4175936,"lon":-4.4615085},
{"name":"Aldi","brand":"Aldi","city":"Bourbon-Lancy","address":"ZA les Alouettes - avenue du Fourneau, 71140 Bourbon-Lancy","lat":46.6283669,"lon":3.7354908},
{"name":"ALDI","brand":"Aldi","city":null,"address":"Boulevard Saint-Maurice","lat":47.1801821,"lon":3.0228681},
{"name":"Aldi","brand":"Aldi","city":"Sains-en-Gohelle","address":"Avenue François Mitterrand, Sains-en-Gohelle","lat":50.4607022,"lon":2.680089},
{"name":"ALDI","brand":"Aldi","city":"Ploërmel","address":"Rue de la Moriçais, 56800 Ploërmel","lat":47.9302086,"lon":-2.3884294},
{"name":"ALDI","brand":"Aldi","city":null,"address":null,"lat":43.684487,"lon":-0.9949306},
{"name":"ALDI","brand":"Aldi","city":"Bar-le-Duc","address":"71 Rue Ernest Bradfer, 55000 Bar-le-Duc","lat":48.7674789,"lon":5.1742078},
{"name":"ALDI","brand":"Aldi","city":null,"address":null,"lat":49.7318167,"lon":4.7550215},
{"name":"Aldi","brand":"Aldi","city":null,"address":null,"lat":43.3178026,"lon":5.3814232},
{"name":"Aldi","brand":"Aldi","city":null,"address":null,"lat":44.8711309,"lon":-0.5652741},
{"name":"ALDI","brand":"Aldi","city":null,"address":null,"lat":48.1917166,"lon":1.3950223},
{"name":"Aldi","brand":"Aldi","city":null,"address":null,"lat":48.0549315,"lon":0.4835245},
{"name":"ALDI","brand":"Aldi","city":null,"address":null,"lat":43.4727438,"lon":6.7403849},
{"name":"Aldi","brand":"Aldi","city":"Ligny-en-Barrois","address":"55500 Ligny-en-Barrois","lat":48.6757532,"lon":5.3249064},
{"name":"Aldi","brand":"Aldi","city":null,"address":"Rue Marivaux","lat":49.9097661,"lon":2.3260339},
{"name":"Aldi","brand":"Aldi","city":null,"address":"33 bis Avenue François Mitterrand","lat":48.7011667,"lon":2.3705234},
{"name":"Aldi","brand":"Aldi","city":null,"address":null,"lat":45.6979688,"lon":5.0125281},
{"name":"ALDI","brand":"Aldi","city":null,"address":null,"lat":43.8141994,"lon":4.3102431},
{"name":"Aldi","brand":"Aldi","city":"L'Horme","address":"4 Avenue Pasteur, 42152 L'Horme","lat":45.4879693,"lon":4.544445},
{"name":"ALDI","brand":"Aldi","city":"Villenave-d'Ornon","address":"539 Route de Toulouse, 33140 Villenave-d'Ornon","lat":44.7843271,"lon":-0.5669814},
{"name":"ALDI","brand":"Aldi","city":null,"address":"26B Boulevard de Groslay, 35300","lat":48.3519105,"lon":-1.1862234},
{"name":"ALDI","brand":"Aldi","city":null,"address":"3 Rue Simone Veil","lat":48.069784,"lon":-0.7981912},
{"name":"Aldi","brand":"Aldi","city":null,"address":null,"lat":47.8821345,"lon":6.292832},
{"name":"Aldi","brand":"Aldi","city":null,"address":"Boulevard Davout","lat":48.8577268,"lon":2.4095027},
{"name":"Aldi","brand":"Aldi","city":null,"address":null,"lat":43.5918661,"lon":2.211449},
{"name":"Aldi","brand":"Aldi","city":null,"address":null,"lat":47.4379547,"lon":6.5838817},
{"name":"Aldi","brand":"Aldi","city":null,"address":null,"lat":45.7715337,"lon":4.9596535},
{"name":"Aldi","brand":"Aldi","city":null,"address":"Boulevard de la Paix","lat":50.4961643,"lon":2.4822718},
{"name":"ALDI","brand":"Aldi","city":null,"address":null,"lat":47.9816532,"lon":2.732174},
{"name":"Aldi","brand":"Aldi","city":"Saint-Étienne-du-Rouvray","address":"Avenue Maryse Bastié, 76800 Saint-Étienne-du-Rouvray","lat":49.3910853,"lon":1.0709363},
{"name":"ALDI","brand":"Aldi","city":null,"address":null,"lat":46.5778285,"lon":5.7469949},
{"name":"ALDI","brand":"Aldi","city":null,"address":null,"lat":47.5184471,"lon":7.0026826},
{"name":"Aldi","brand":"Aldi","city":null,"address":null,"lat":45.7780382,"lon":3.0955909},
{"name":"Aldi","brand":"Aldi","city":"Montceau-les-Mines","address":"Avenue Maréchal Leclerc, 71300 Montceau-les-Mines","lat":46.681427,"lon":4.369731},
{"name":"ALDI","brand":"Aldi","city":null,"address":null,"lat":47.0568362,"lon":-0.8585854},
{"name":"Aldi","brand":"Aldi","city":null,"address":"Rue Jacques Duclos","lat":48.8281642,"lon":1.9775037},
{"name":"ALDI","brand":"Aldi","city":"Benesse Maremne","address":"40230 Benesse Maremne","lat":43.6369273,"lon":-1.3538356},
{"name":"Aldi","brand":"Aldi","city":null,"address":null,"lat":45.7128723,"lon":4.8546001},
{"name":"ALDI","brand":"Aldi","city":null,"address":null,"lat":49.0977182,"lon":6.1810669},
{"name":"Aldi","brand":"Aldi","city":null,"address":"4 Avenue des Droits de l'Homme et du Citoyen","lat":49.2276139,"lon":2.1304545},
{"name":"Aldi","brand":"Aldi","city":null,"address":null,"lat":50.5481233,"lon":2.8267758},
{"name":"ALDI","brand":"Aldi","city":null,"address":null,"lat":48.308489,"lon":-0.605329},
{"name":"Aldi","brand":"Aldi","city":null,"address":null,"lat":44.9038141,"lon":-0.4914146},
{"name":"Aldi","brand":"Aldi","city":null,"address":null,"lat":47.7686899,"lon":7.0049979},
{"name":"Aldi","brand":"Aldi","city":null,"address":null,"lat":48.1965588,"lon":6.4650653},
{"name":"Aldi","brand":"Aldi","city":null,"address":"Rue Dauge","lat":50.2703632,"lon":3.9281139},
{"name":"Aldi","brand":"Aldi","city":null,"address":null,"lat":44.4024568,"lon":0.6800416},
{"name":"Aldi","brand":"Aldi","city":null,"address":null,"lat":45.7651493,"lon":4.8727945},
{"name":"Aldi","brand":"Aldi","city":null,"address":"Route de Bergues","lat":51.0212319,"lon":2.3745852},
{"name":"Aldi","brand":"Aldi","city":"Nogent-le-Rotrou","address":"14 Avenue des Prés, 28400 Nogent-le-Rotrou","lat":48.3279971,"lon":0.8209712},
{"name":"Aldi","brand":"Aldi","city":null,"address":null,"lat":48.6092208,"lon":-2.0685571},
{"name":"Aldi","brand":"Aldi","city":null,"address":null,"lat":49.9425968,"lon":2.9307801},
{"name":"Aldi","brand":"Aldi","city":"Versailles","address":"60 Rue des Chantiers, 78000 Versailles","lat":48.7933282,"lon":2.1429753},
{"name":"ALDI","brand":"Aldi","city":null,"address":null,"lat":46.246443,"lon":3.6149489},
{"name":"Aldi","brand":"Aldi","city":null,"address":null,"lat":46.7471221,"lon":5.9135968},
{"name":"Aldi","brand":"Aldi","city":null,"address":null,"lat":47.4788485,"lon":-0.5204706},
{"name":"ALDI","brand":"Aldi","city":null,"address":null,"lat":43.4406649,"lon":1.3129778},
{"name":"ALDI","brand":"Aldi","city":"Rouen","address":"Boulevard de l'Europe, 76100 Rouen","lat":49.4264094,"lon":1.0870294},
{"name":"Aldi","brand":"Aldi","city":"Le Havre","address":"40 Rue de Fleurus, 76600 Le Havre","lat":49.4931641,"lon":0.137682},
{"name":"Aldi","brand":"Aldi","city":null,"address":"37-41 Rue Pierre Semard","lat":48.9342149,"lon":2.4765178},
{"name":"ALDI","brand":"Aldi","city":null,"address":null,"lat":49.1153131,"lon":6.1815634},
{"name":"Aldi","brand":"Aldi","city":null,"address":null,"lat":44.5416769,"lon":4.7459251},
{"name":"Aldi","brand":"Aldi","city":null,"address":"Rue Arthur Lamendin","lat":50.5141662,"lon":2.6836404},
{"name":"Aldi","brand":"Aldi","city":"Caen","address":"114 Avenue Henry Chéron, 14000 Caen","lat":49.1718116,"lon":-0.398246},
{"name":"Nom inconnu","brand":"Aldi","city":null,"address":null,"lat":47.233355,"lon":2.0849562},
{"name":"Aldi","brand":"Aldi","city":null,"address":"Rue du Château d'Eau","lat":50.0022887,"lon":2.3144775},
{"name":"Aldi","brand":"Aldi","city":null,"address":null,"lat":43.2093994,"lon":2.3857623},
{"name":"Aldi","brand":"Aldi","city":null,"address":null,"lat":49.2975153,"lon":0.9140763},
{"name":"ALDI","brand":"Aldi","city":null,"address":null,"lat":43.4995408,"lon":-1.4563544},
{"name":"Aldi","brand":"Aldi","city":null,"address":"Rue du Commandant Crognier","lat":50.0123531,"lon":2.1955699},
{"name":"Aldi","brand":"Aldi","city":"Epône","address":"Route de Nezel, 78680 Epône","lat":48.9551677,"lon":1.8319866},
{"name":"Aldi","brand":"Aldi","city":"Nanterre","address":"27 Rue de la Paix, 92000 Nanterre","lat":48.8881615,"lon":2.2233685},
{"name":"Aldi","brand":"Aldi","city":null,"address":"Rue du Château d'Eau","lat":50.8723851,"lon":2.0669009},
{"name":"ALDI","brand":"Aldi","city":null,"address":null,"lat":43.6025716,"lon":7.0620881},
{"name":"ALDI","brand":"Aldi","city":null,"address":null,"lat":43.7030589,"lon":7.2873751},
{"name":"ALDI","brand":"Aldi","city":null,"address":null,"lat":48.3766703,"lon":7.5913998},
{"name":"Aldi","brand":"Aldi","city":null,"address":null,"lat":48.759074,"lon":1.9348074},
{"name":"Aldi","brand":"Aldi","city":null,"address":null,"lat":43.9464109,"lon":4.8447981},
{"name":"Aldi","brand":"Aldi","city":"Pantin","address":"66 Avenue Jean Jaurès, 93500 Pantin","lat":48.9030413,"lon":2.3917409},
{"name":"ALDI","brand":"Aldi","city":null,"address":null,"lat":47.6498876,"lon":-2.7245416},
{"name":"Aldi","brand":"Aldi","city":null,"address":"Place de Beauval","lat":48.953266,"lon":2.9147487},
{"name":"ALDI","brand":"Aldi","city":null,"address":null,"lat":43.6604221,"lon":1.306724},
{"name":"ALDI","brand":"Aldi","city":null,"address":null,"lat":44.8148652,"lon":-0.526239},
{"name":"ALDI","brand":"Aldi","city":null,"address":null,"lat":44.8669235,"lon":1.8818733},
{"name":"Aldi","brand":"Aldi","city":null,"address":null,"lat":46.4600852,"lon":-1.1416499},
{"name":"Aldi","brand":"Aldi","city":null,"address":"Rue de Lille","lat":50.7342909,"lon":2.7432843},
{"name":"ALDI","brand":"Aldi","city":null,"address":null,"lat":46.0169271,"lon":4.0413679},
{"name":"ALDI","brand":"Aldi","city":null,"address":null,"lat":48.1033368,"lon":-1.4128612},
{"name":"ALDI","brand":"Aldi","city":"Colomiers","address":"31770 Colomiers","lat":43.6094171,"lon":1.3442636},
{"name":"ALDI","brand":"Aldi","city":null,"address":null,"lat":43.4196235,"lon":5.3569258},
{"name":"ALDI","brand":"Aldi","city":"Besançon","address":"2 Place du Maréchal Leclerc, 25000 Besançon","lat":47.2420059,"lon":6.0139948},
{"name":"ALDI","brand":"Aldi","city":null,"address":null,"lat":45.9606729,"lon":1.7386524},
{"name":"Aldi","brand":"Aldi","city":null,"address":"59 Avenue du Général Gallieni","lat":48.8201609,"lon":2.4810022},
{"name":"ALDI","brand":"Aldi","city":"La Chapelle-Saint-Aubin","address":"Rue Louis Delage, 72650 La Chapelle-Saint-Aubin","lat":48.0361776,"lon":0.1719175},
{"name":"Aldi","brand":"Aldi","city":null,"address":null,"lat":42.7265121,"lon":2.901662},
{"name":"ALDI","brand":"Aldi","city":null,"address":null,"lat":43.4530661,"lon":6.6925319},
{"name":"ALDI","brand":"Aldi","city":null,"address":null,"lat":43.3937286,"lon":6.3296016},
{"name":"ALDI","brand":"Aldi","city":null,"address":null,"lat":44.1251008,"lon":4.1067409},
{"name":"ALDI","brand":"Aldi","city":null,"address":"15","lat":49.3924541,"lon":4.6890082},
{"name":"Aldi","brand":"Aldi","city":"Sainnt-Quentin","address":"177 Rue du Président J.F. Kennedy, 02100 Sainnt-Quentin","lat":49.8585404,"lon":3.2769223},
{"name":"Aldi","brand":"Aldi","city":null,"address":null,"lat":48.9958054,"lon":2.2203854},
{"name":"Aldi","brand":"Aldi","city":null,"address":"Route de Laigneville","lat":49.310363,"lon":2.442222},
{"name":"Aldi","brand":"Aldi","city":null,"address":null,"lat":43.1622913,"lon":2.9846884},
{"name":"Aldi","brand":"Aldi","city":null,"address":null,"lat":49.6352659,"lon":-1.6149881},
{"name":"Aldi","brand":"Aldi","city":null,"address":null,"lat":43.7241159,"lon":3.3225092},
{"name":"Aldi","brand":"Aldi","city":null,"address":"78 Rue des Couteliers, 05100","lat":44.8838112,"lon":6.625914},
{"name":"Aldi","brand":"Aldi","city":null,"address":"Route de Quarante Sous","lat":48.9284617,"lon":1.9796205},
{"name":"ALDI","brand":"Aldi","city":null,"address":null,"lat":45.7569132,"lon":3.1513703},
{"name":"Aldi","brand":"Aldi","city":null,"address":null,"lat":48.5545508,"lon":2.635206},
{"name":"ALDI","brand":"Aldi","city":"Marseille","address":"182 Avenue Jules Cantini, 13008 Marseille","lat":43.2789913,"lon":5.3961222},
{"name":"Aldi","brand":"Aldi","city":null,"address":"Avenue des Champs Elysées","lat":49.909082,"lon":4.0915692},
{"name":"ALDI","brand":"Aldi","city":"Saran","address":"9 Allée de Bel Air, 45770 Saran","lat":47.9380691,"lon":1.8922974},
{"name":"ALDI","brand":"Aldi","city":"Cugnaux","address":"13 Chemin Petit Jean, 31270 Cugnaux","lat":43.547664,"lon":1.351235},
{"name":"Aldi","brand":"Aldi","city":null,"address":"Avenue du Capitaine N'Tchoréré","lat":49.9695971,"lon":1.9409326},
{"name":"Aldi","brand":"Aldi","city":"Annœullin","address":"60 bis Rue de Touraine, 59112 Annœullin","lat":50.5201473,"lon":2.9304121},
{"name":"Aldi","brand":"Aldi","city":null,"address":"Route de Thiernu","lat":49.7501037,"lon":3.7713575},
{"name":"Aldi","brand":"Aldi","city":null,"address":"Rue Voltaire","lat":50.0768446,"lon":1.550547},
{"name":"ALDI","brand":"Aldi","city":null,"address":null,"lat":44.607994,"lon":2.0151867},
{"name":"ALDI","brand":"Aldi","city":"Sainte-Maxime","address":"Route du Plan de la Tour, 83120 Sainte-Maxime","lat":43.3272609,"lon":6.6055713},
{"name":"Aldi Marché","brand":"Aldi","city":null,"address":null,"lat":48.6688649,"lon":6.188435},
{"name":"Aldi","brand":"Aldi","city":null,"address":null,"lat":48.6204699,"lon":2.5451138},
{"name":"ALDI","brand":"Aldi","city":"Essey-lès-Nancy","address":"2 Rue Jacques Brel, 54270 Essey-lès-Nancy","lat":48.7090015,"lon":6.2449543},
{"name":"Aldi","brand":"Aldi","city":null,"address":null,"lat":46.8579265,"lon":-1.0102915},
{"name":"Aldi","brand":"Aldi","city":null,"address":"Rue Louis Petit","lat":50.3232956,"lon":3.3833019},
{"name":"Aldi","brand":"Aldi","city":"Saint-Chamond","address":"2 Rue Maurice Bonnevialle, 42400 Saint-Chamond","lat":45.471836,"lon":4.5077306},
{"name":"Aldi","brand":"Aldi","city":null,"address":"Rue de Paris","lat":49.7331109,"lon":3.069171},
{"name":"ALDI","brand":"Aldi","city":null,"address":"134 Rue Henri Desbals","lat":43.5810892,"lon":1.4134876},
{"name":"ALDI","brand":"Aldi","city":null,"address":null,"lat":43.8533081,"lon":5.0269049},
{"name":"Aldi","brand":"Aldi","city":null,"address":"Rue du Galibot","lat":50.3763385,"lon":3.1769928},
{"name":"ALDI","brand":"Aldi","city":"Orléans","address":"228 Rue des Murlins, 45000 Orléans","lat":47.9252442,"lon":1.8899494},
{"name":"ALDI","brand":"Aldi","city":null,"address":null,"lat":43.6442447,"lon":4.8194546},
{"name":"ALDI","brand":"Aldi","city":null,"address":null,"lat":47.643858,"lon":3.0632789},
{"name":"Aldi","brand":"Aldi","city":null,"address":"1 Rue Galilée","lat":48.7006007,"lon":2.601783},
{"name":"Aldi","brand":"Aldi","city":null,"address":"Rue de Calais","lat":50.7606642,"lon":2.2282116},
{"name":"ALDI","brand":"Aldi","city":"Saint-Jean-de-Braye","address":"27, 45800 Saint-Jean-de-Braye","lat":47.9080974,"lon":1.9621541},
{"name":"Aldi","brand":"Aldi","city":null,"address":"Route de Bapaume","lat":50.275926,"lon":2.7824968},
{"name":"Aldi","brand":"Aldi","city":"Unieux","address":"17 Rue Charles de Gaulle, 42240 Unieux","lat":45.3925488,"lon":4.2674602},
{"name":"Aldi","brand":"Aldi","city":null,"address":"Boulevard de Roncq","lat":50.7708228,"lon":3.1241351},
{"name":"ALDI","brand":"Aldi","city":"Ronchamp","address":"29 Rue de Belfort, 70250 Ronchamp","lat":47.6962572,"lon":6.6479426},
{"name":"ALDI","brand":"Aldi","city":null,"address":null,"lat":46.1740931,"lon":-1.1657078},
{"name":"Aldi","brand":"Aldi","city":"Champs-sur-Marne","address":"15 Boulevard Newton, 77420 Champs-sur-Marne","lat":48.8429203,"lon":2.5856644},
{"name":"ALDI","brand":"Aldi","city":null,"address":null,"lat":45.7753597,"lon":4.8034685},
{"name":"Aldi","brand":"Aldi","city":null,"address":null,"lat":42.6917217,"lon":2.8448957},
{"name":"ALDI","brand":"Aldi","city":null,"address":null,"lat":45.6893986,"lon":0.1818599},
{"name":"ALDI","brand":"Aldi","city":null,"address":null,"lat":43.5809115,"lon":7.0065358},
{"name":"ALDI","brand":"Aldi","city":null,"address":null,"lat":49.3188841,"lon":6.1087576},
{"name":"Aldi","brand":"Aldi","city":null,"address":"18 Rue Félix Merlin","lat":48.9560531,"lon":2.2995971},
{"name":"ALDI","brand":"Aldi","city":null,"address":null,"lat":45.291092,"lon":-0.6072251},
{"name":"Aldi","brand":"Aldi","city":null,"address":"Avenue Maximilien Robespierre","lat":48.7905439,"lon":2.3886144},
{"name":"Aldi","brand":"Aldi","city":null,"address":"Rue Eugène Massé","lat":48.9245695,"lon":2.544953},
{"name":"ALDI","brand":"Aldi","city":null,"address":null,"lat":46.0698751,"lon":6.5527375},
{"name":"ALDI","brand":"Aldi","city":null,"address":null,"lat":46.5642863,"lon":0.3555058},
{"name":"ALDI","brand":"Aldi","city":null,"address":null,"lat":46.224072,"lon":5.2028146},
{"name":"ALDI","brand":"Aldi","city":null,"address":null,"lat":43.7747599,"lon":7.1921994},
{"name":"Aldi","brand":"Aldi","city":"Villiers-le-Bel","address":"13 Avenue des Entrepreneurs, 95400 Villiers-le-Bel","lat":48.9997166,"lon":2.3936141},
{"name":"Aldi","brand":"Aldi","city":null,"address":"Rue Saint-Médard","lat":49.7028601,"lon":2.7789534},
{"name":"Aldi","brand":"Aldi","city":null,"address":"Route de Thennes","lat":49.7819441,"lon":2.471086},
{"name":"ALDI","brand":"Aldi","city":null,"address":null,"lat":43.7770013,"lon":7.487877},
{"name":"Aldi","brand":"Aldi","city":null,"address":"Place Miss Cavell","lat":50.7223652,"lon":3.1633676},
{"name":"ALDI","brand":"Aldi","city":"Orléans","address":"Avenue Roger Secrétain, 45100 Orléans","lat":47.8826937,"lon":1.8989427},
{"name":"ALDI","brand":"Aldi","city":null,"address":null,"lat":45.8286949,"lon":-0.8684619},
{"name":"Aldi","brand":"Aldi","city":null,"address":"Rue Georges Seurat","lat":48.9530949,"lon":2.497734},
{"name":"ALDI","brand":"Aldi","city":null,"address":null,"lat":45.6367628,"lon":0.2087207},
{"name":"ALDI","brand":"Aldi","city":null,"address":null,"lat":49.5469731,"lon":0.4935265},
{"name":"Aldi","brand":"Aldi","city":null,"address":"Avenue de la Petite Vitesse","lat":49.6431215,"lon":2.5606834},
{"name":"Aldi","brand":"Aldi","city":null,"address":"Route de Campagne","lat":50.4208625,"lon":1.88838},
{"name":"ALDI","brand":"Aldi","city":null,"address":null,"lat":46.0189358,"lon":0.6568653},
{"name":"ALDI","brand":"Aldi","city":null,"address":null,"lat":45.1922813,"lon":0.6850943},
{"name":"Aldi","brand":"Aldi","city":null,"address":"Rue Pierre Brossolette","lat":48.9109263,"lon":2.2925053},
{"name":"Aldi","brand":"Aldi","city":"Saint-Yrieix-la-Perche","address":"1 Avenue Général Charles de Gaulle, 87500 Saint-Yrieix-la-Perche","lat":45.5179161,"lon":1.2078309},
{"name":"Aldi","brand":"Aldi","city":null,"address":"22 Rue Albert Camus","lat":49.0243515,"lon":1.3774766},
{"name":"ALDI","brand":"Aldi","city":null,"address":"1 Rue de Metz","lat":49.1432406,"lon":6.8108876},
{"name":"ALDI","brand":"Aldi","city":null,"address":null,"lat":46.367557,"lon":2.5739336},
{"name":"ALDI","brand":"Aldi","city":null,"address":null,"lat":49.3480527,"lon":6.1574346},
{"name":"Aldi","brand":"Aldi","city":null,"address":"14 Avenue Pierre Mendès France","lat":49.1492205,"lon":0.9162588},
{"name":"Aldi","brand":"Aldi","city":null,"address":null,"lat":50.3683504,"lon":3.3937045},
{"name":"ALDI","brand":"Aldi","city":null,"address":null,"lat":45.6379129,"lon":0.1286948},
{"name":"ALDI","brand":"Aldi","city":"Paray-le-Monial","address":"15 Rue de Bourgogne, 71600 Paray-le-Monial","lat":46.4580346,"lon":4.1098281},
{"name":"ALDI","brand":"Aldi","city":null,"address":null,"lat":48.7089897,"lon":7.8009109},
{"name":"ALDI","brand":"Aldi","city":null,"address":null,"lat":45.952698,"lon":6.6307816},
{"name":"Aldi","brand":"Aldi","city":null,"address":null,"lat":43.6298036,"lon":5.155496},
{"name":"Aldi","brand":"Aldi","city":null,"address":"Place Régis Ryckebusch","lat":48.6917022,"lon":2.3376901},
{"name":"ALDI","brand":"Aldi","city":null,"address":null,"lat":44.0729948,"lon":1.5358919},
{"name":"ALDI","brand":"Aldi","city":null,"address":null,"lat":47.3714185,"lon":1.7389277},
{"name":"Aldi","brand":"Aldi","city":null,"address":null,"lat":46.0272078,"lon":0.1839595},
{"name":"ALDI","brand":"Aldi","city":null,"address":null,"lat":47.8463964,"lon":-0.9643886},
{"name":"Aldi","brand":"Aldi","city":"Caudebec-lès-Elbeuf","address":"237 Rue Lamartine, 76320 Caudebec-lès-Elbeuf","lat":49.2875411,"lon":1.0358538},
{"name":"ALDI","brand":"Aldi","city":"Tarascon-sur-Ariège","address":"1 Avenue Saint-Roch, 09400 Tarascon-sur-Ariège","lat":42.847452,"lon":1.6001982},
{"name":"ALDI","brand":"Aldi","city":null,"address":null,"lat":43.0866927,"lon":1.8681714},
{"name":"Aldi","brand":"Aldi","city":null,"address":"Place de la Nation","lat":48.8488841,"lon":2.3974983},
{"name":"Aldi","brand":"Aldi","city":null,"address":"Route de Champbenoist","lat":48.551719,"lon":3.2981037},
{"name":"Aldi","brand":"Aldi","city":null,"address":"Avenue Salvador Allende","lat":48.6938859,"lon":2.2841755},
{"name":"Aldi","brand":"Aldi","city":null,"address":"Rue du Dronckaert","lat":50.7378836,"lon":3.1295793},
{"name":"Aldi","brand":"Aldi","city":null,"address":"Rue Joséphine Baker","lat":48.9585031,"lon":2.368134},
{"name":"Aldi","brand":"Aldi","city":null,"address":"Route de Liesse","lat":49.532106,"lon":3.8544873},
{"name":"Aldi","brand":"Aldi","city":null,"address":"Avenue Georges Brassens","lat":50.7373265,"lon":2.2818629},
{"name":"ALDI","brand":"Aldi","city":null,"address":null,"lat":47.4852236,"lon":6.8163379},
{"name":"ALDI","brand":"Aldi","city":null,"address":null,"lat":48.0694098,"lon":1.3087861},
{"name":"ALDI","brand":"Aldi","city":null,"address":null,"lat":47.0822081,"lon":6.6338892},
{"name":"ALDI","brand":"Aldi","city":null,"address":null,"lat":46.0346721,"lon":4.2867016},
{"name":"Aldi","brand":"Aldi","city":null,"address":"Avenue Pierre Mendés-France","lat":49.5823365,"lon":3.6458806},
{"name":"Aldi","brand":"Aldi","city":null,"address":null,"lat":47.0176234,"lon":3.1496697},
{"name":"Aldi","brand":"Aldi","city":"Orléans","address":"Avenue de l'Hôpital, 45100 Orléans","lat":47.8399019,"lon":1.9245252},
{"name":"Aldi","brand":"Aldi","city":null,"address":null,"lat":50.3216499,"lon":3.431025},
{"name":"Aldi","brand":"Aldi","city":null,"address":"Route de La Gorgue","lat":50.6375466,"lon":2.6439433},
{"name":"ALDI","brand":"Aldi","city":null,"address":null,"lat":47.9274631,"lon":-3.7047182},
{"name":"ALDI","brand":"Aldi","city":null,"address":null,"lat":48.9707518,"lon":6.2965017},
{"name":"Aldi","brand":"Aldi","city":null,"address":"Rue des Tilleuls","lat":48.5334858,"lon":1.6835956},
{"name":"Aldi","brand":"Aldi","city":null,"address":"4 Rue Albert 1er","lat":50.6936425,"lon":3.2056238},
{"name":"Aldi","brand":"Aldi","city":null,"address":"Faubourg d'Arras","lat":50.1091524,"lon":2.8478881},
{"name":"ALDI","brand":"Aldi","city":null,"address":null,"lat":48.048842,"lon":6.4074468},
{"name":"ALDI","brand":"Aldi","city":null,"address":null,"lat":45.2128672,"lon":2.348864},
{"name":"ALDI","brand":"Aldi","city":null,"address":null,"lat":47.8916508,"lon":0.0404476},
{"name":"Aldi","brand":"Aldi","city":"La Celle-Saint-Cloud","address":"18 Avenue de la Jonchère, 78170 La Celle-Saint-Cloud","lat":48.8596204,"lon":2.1487196},
{"name":"ALDI","brand":"Aldi","city":null,"address":null,"lat":47.1477243,"lon":-0.5235498},
{"name":"Aldi","brand":"Aldi","city":"La Châtre","address":"Rue des Ajoncs, 36400 La Châtre","lat":46.5736442,"lon":1.9759074},
{"name":"Aldi","brand":"Aldi","city":null,"address":null,"lat":44.7201857,"lon":4.6034872},
{"name":"Aldi","brand":"Aldi","city":null,"address":"Rue Jean Monnet","lat":48.9545615,"lon":2.6645725},
{"name":"Aldi","brand":"Aldi","city":null,"address":null,"lat":44.4662808,"lon":1.4280136},
{"name":"Aldi","brand":"Aldi","city":"Panazol","address":"70 Avenue du Général de Gaulle, 87350 Panazol","lat":45.8307554,"lon":1.2981325},
{"name":"Aldi","brand":"Aldi","city":"Noisy-le-Sec","address":"227 Rue de Paris, 93130 Noisy-le-Sec","lat":48.9031989,"lon":2.4655824},
{"name":"Aldi","brand":"Aldi","city":null,"address":null,"lat":47.0873462,"lon":-1.2639844},
{"name":"Aldi","brand":"Aldi","city":null,"address":"239 Rue de Paris","lat":49.8349881,"lon":3.2654723},
{"name":"Aldi","brand":"Aldi","city":null,"address":"62 Rue de la Fère","lat":49.8328444,"lon":3.3066551},
{"name":"Aldi","brand":"Aldi","city":null,"address":"Ancienne Route Nationale","lat":50.5220446,"lon":2.7935771},
{"name":"Aldi","brand":"Aldi","city":null,"address":"Rue de Paris","lat":48.8840099,"lon":2.846235},
{"name":"Aldi","brand":"Aldi","city":null,"address":"303 Chaussée de Rouvroy","lat":50.1058824,"lon":1.804365},
{"name":"Aldi","brand":"Aldi","city":null,"address":null,"lat":49.9761127,"lon":1.5750981},
{"name":"Aldi","brand":"Aldi","city":null,"address":"Rue Hapiot","lat":50.4470796,"lon":2.7352735},
{"name":"Aldi","brand":"Aldi","city":null,"address":"Avenue de la Ferme Fonteyne","lat":51.062024,"lon":2.4930499},
{"name":"Aldi","brand":"Aldi","city":null,"address":null,"lat":48.010216,"lon":7.5373463},
{"name":"Aldi","brand":"Aldi","city":null,"address":null,"lat":49.2666551,"lon":4.0626391},
{"name":"Aldi","brand":"Aldi","city":null,"address":null,"lat":48.1910484,"lon":-2.4035278},
{"name":"Aldi","brand":"Aldi","city":null,"address":null,"lat":43.138597,"lon":6.0204647},
{"name":"Aldi","brand":"Aldi","city":null,"address":null,"lat":48.6125657,"lon":2.4608363},
{"name":"Aldi","brand":"Aldi","city":null,"address":null,"lat":47.0444522,"lon":-0.8864057},
{"name":"Aldi","brand":"Aldi","city":null,"address":"Route de Gravelines","lat":50.8666481,"lon":2.3470254},
{"name":"Aldi","brand":"Aldi","city":null,"address":null,"lat":45.7805505,"lon":1.3072069}
]