[
{"name":"Vival by Casino Blotzheim","brand":"Vival","city":"Blotzheim","address":"2 Rue du Général de Gaulle, 68730 Blotzheim","lat":47.6016221,"lon":7.4953677},
{"name":"Vival Ardres","brand":"Vival","city":"Ardres","address":"76 Rue du Rivage, 62610 Ardres","lat":50.8570915,"lon":1.973838},
{"name":"Vival","brand":"Vival","city":null,"address":null,"lat":46.3524522,"lon":1.8271842},
{"name":"Vival by Casino","brand":"Vival","city":"Marsac","address":"37, 23210 Marsac","lat":46.096424,"lon":1.5876108},
{"name":"Vival by Casino","brand":"Vival","city":"Chavanoz","address":"Route de Loyettes, 38230 Chavanoz","lat":45.7673088,"lon":5.1964024},
{"name":"Vival","brand":"Vival","city":null,"address":null,"lat":43.5529408,"lon":7.1289718},
{"name":"Vival by Casino","brand":"Vival","city":null,"address":null,"lat":45.4159209,"lon":-1.1431575},
{"name":"Vival","brand":"Vival","city":null,"address":"64 Avenue Denis Séméria","lat":43.715187,"lon":7.2926072},
{"name":"Vival","brand":"Vival","city":null,"address":null,"lat":45.4898304,"lon":5.3889109},
{"name":"Vival","brand":"Vival","city":null,"address":null,"lat":47.1291935,"lon":3.1001977},
{"name":"Vival","brand":"Vival","city":"Sainte-Clotilde","address":"199 D Route du Bois de Nèfles, 97490 Sainte-Clotilde","lat":-20.9092624,"lon":55.4755894},
{"name":"Vival by Casino","brand":"Vival","city":null,"address":"4 Place Meunier","lat":45.3827687,"lon":4.7488601},
{"name":"Vival by Casino","brand":"Vival","city":null,"address":null,"lat":44.3011398,"lon":4.5669154},
{"name":"Vival","brand":"Vival","city":null,"address":null,"lat":45.392169,"lon":6.2659876},
{"name":"Vival","brand":"Vival","city":"La Londe-les-Maures","address":"150 Rue du Forum, 83250 La Londe-les-Maures","lat":43.117278,"lon":6.242646},
{"name":"Vival by Casino","brand":"Vival","city":null,"address":null,"lat":41.8282143,"lon":8.7838349},
{"name":"Vival","brand":"Vival","city":null,"address":null,"lat":45.4153856,"lon":6.3591462},
{"name":"Vival by Casino","brand":"Vival","city":null,"address":null,"lat":45.7300231,"lon":4.8330531},
{"name":"Vival","brand":"Vival","city":null,"address":null,"lat":43.5508546,"lon":7.0095724},
{"name":"Vival","brand":"Vival","city":null,"address":null,"lat":45.7573482,"lon":4.8358756},
{"name":"Vival","brand":"Vival","city":null,"address":null,"lat":45.7474972,"lon":4.8342886},
{"name":"Vival","brand":"Vival","city":null,"address":null,"lat":45.1173865,"lon":5.3270079}
]