[
{"name":"Au Bon Air","brand":"Biomonde","city":"Rouen","address":"28 Rue de la Mare du Parc, 76100 Rouen","lat":49.421982,"lon":1.0822711},
{"name":"Biomonde","brand":"Biomonde","city":null,"address":null,"lat":45.7501818,"lon":-0.6737353},
{"name":"Biomonde Cher","brand":"Biomonde","city":null,"address":null,"lat":47.0943654,"lon":2.4475828},
{"name":"Biomonde","brand":"Biomonde","city":"Rosières","address":"580 Route des Vernades, 07260 Rosières","lat":44.4811213,"lon":4.2636026},
{"name":"Biomonde","brand":"Biomonde","city":null,"address":null,"lat":48.0121176,"lon":6.6022889},
{"name":"Biomonde","brand":"Biomonde","city":"Château-d'Olonne","address":"85180 Château-d'Olonne","lat":46.48593,"lon":-1.7458933},
{"name":"BIO Rayons verts","brand":"Biomonde","city":null,"address":null,"lat":49.8949819,"lon":2.2966007},
{"name":"Biomonde","brand":"Biomonde","city":null,"address":null,"lat":47.7639054,"lon":1.610656},
{"name":"Biomonde","brand":"Biomonde","city":null,"address":"81 Boulevard de la Jamagne, 88400","lat":48.0790331,"lon":6.8884034},
{"name":"Biomonde","brand":"Biomonde","city":null,"address":"Rue de Plaisance","lat":47.3357381,"lon":1.7503967},
{"name":"Les Comptoirs De La Bio","brand":"Biomonde","city":null,"address":null,"lat":45.2581523,"lon":4.6975887},
{"name":"Biomonde","brand":"Biomonde","city":null,"address":"Route des Mirouelles","lat":45.9464588,"lon":-1.3177289},
{"name":"Biomonde","brand":"Biomonde","city":null,"address":"8 Avenue des Frères Lumière","lat":47.2335541,"lon":-2.1549924},
{"name":"Autrement Bio","brand":"Biomonde","city":null,"address":"50 Avenue de l'Europe","lat":50.726581,"lon":2.7377644},
{"name":"Culture bio","brand":"Biomonde","city":null,"address":"133 Rue de la Coudraie","lat":46.6922058,"lon":4.3449471},
{"name":"Biomonde","brand":"Biomonde","city":null,"address":null,"lat":48.5866213,"lon":6.5110402},
{"name":"Bio Clair","brand":"Biomonde","city":"Bar-le-Duc","address":"29 Rue du Four, 55000 Bar-le-Duc","lat":48.7764253,"lon":5.1605279},
{"name":"Biomonde","brand":"Biomonde","city":null,"address":null,"lat":46.7880813,"lon":4.443792},
{"name":"Biomonde","brand":"Biomonde","city":"Mornant","address":"Mornant","lat":45.6200436,"lon":4.6722247},
{"name":"Biomonde Val de Scarpe","brand":"Biomonde","city":null,"address":null,"lat":50.294062,"lon":2.7913709},
{"name":"Biomonde","brand":"Biomonde","city":null,"address":"671, 73700","lat":45.6131403,"lon":6.7660643},
{"name":"Biomonde","brand":"Biomonde","city":null,"address":"245 Rue du Parc Saint-Jean","lat":46.1140616,"lon":4.7336046},
{"name":"Biomonde","brand":"Biomonde","city":"Guyancourt","address":"3, 78280 Guyancourt","lat":48.7659804,"lon":2.0786587},
{"name":"Biomonde","brand":"Biomonde","city":null,"address":null,"lat":16.3291874,"lon":-61.3557405},
{"name":"Bio des Pins","brand":"Biomonde","city":null,"address":null,"lat":47.8555546,"lon":-3.8419314},
{"name":"Biomonde","brand":"Biomonde","city":null,"address":null,"lat":42.4733609,"lon":2.6685966},
{"name":"Biomonde","brand":"Biomonde","city":"Rennes","address":"10 Avenue Jorge Semprún, 35000 Rennes","lat":48.1094013,"lon":-1.6459696}
]