[
{"name":"Bio C' Bon","brand":"Bio C' Bon","city":null,"address":"5 Avenue Président J.f. Kennedy","lat":44.832899,"lon":-0.658997},
{"name":"Bio C' Bon","brand":"Bio C' Bon","city":"Paris","address":"49 Rue de la Grange aux Belles, 75010 Paris","lat":48.8764439,"lon":2.3684913},
{"name":"Bio C' Bon","brand":"Bio C' Bon","city":null,"address":null,"lat":48.8510585,"lon":2.3756145},
{"name":"Bio C' Bon","brand":"Bio C' Bon","city":null,"address":"52 Avenue Parmentier, 75011","lat":48.8623611,"lon":2.3769354},
{"name":"Bio C' Bon","brand":"Bio C' Bon","city":"Paris","address":"9 Place Pigalle, 75009 Paris","lat":48.8817666,"lon":2.3371231},
{"name":"Bio C' Bon","brand":"Bio C' Bon","city":null,"address":"16 Rue de la Cerisaie, 75004","lat":48.8522672,"lon":2.3651848},
{"name":"Bio C' Bon","brand":"Bio C' Bon","city":null,"address":null,"lat":48.8081454,"lon":2.2402265},
{"name":"Bio C' Bon","brand":"Bio C' Bon","city":null,"address":"85","lat":43.292653,"lon":5.3840999},
{"name":"Bio C' Bon","brand":"Bio C' Bon","city":null,"address":null,"lat":43.6998654,"lon":7.2766384},
{"name":"Bio C' Bon","brand":"Bio C' Bon","city":null,"address":null,"lat":48.8688115,"lon":2.3351558},
{"name":"Bio C' Bon","brand":"Bio C' Bon","city":null,"address":null,"lat":48.8483485,"lon":2.4335067},
{"name":"Bio C' Bon","brand":"Bio C' Bon","city":null,"address":null,"lat":48.8740961,"lon":2.3847244},
{"name":"Bio C' Bon","brand":"Bio C' Bon","city":null,"address":null,"lat":48.8170361,"lon":2.3190873},
{"name":"Bio C' Bon","brand":"Bio C' Bon","city":null,"address":"56 Rue de Paris, 93260","lat":48.8786198,"lon":2.4124715},
{"name":"Bio C' Bon","brand":"Bio C' Bon","city":"Saint-Raphaël","address":"281 Traverse Jean Moulin, 83700 Saint-Raphaël","lat":43.4284415,"lon":6.7801907},
{"name":"Bio C' Bon","brand":"Bio C' Bon","city":null,"address":null,"lat":48.8339758,"lon":2.3449628},
{"name":"Bio C' Bon","brand":"Bio C' Bon","city":null,"address":null,"lat":48.8289348,"lon":2.323308},
{"name":"Bio C' Bon","brand":"Bio C' Bon","city":null,"address":"20 Rue du Maréchal Foch, 78000","lat":48.8083171,"lon":2.1332706},
{"name":"Bio C' Bon","brand":"Bio C' Bon","city":"Bordeaux","address":"95 Cours Victor Hugo, 33000 Bordeaux","lat":44.835243,"lon":-0.5707517},
{"name":"Bio C' Bon","brand":"Bio C' Bon","city":"Paris","address":"142 Rue Saint-Maur, 75011 Paris","lat":48.8686823,"lon":2.3749729},
{"name":"Bio C' Bon","brand":"Bio C' Bon","city":null,"address":null,"lat":48.8716275,"lon":2.392082},
{"name":"Bio C' Bon","brand":"Bio C' Bon","city":null,"address":"64","lat":48.896555,"lon":2.2877776},
{"name":"Bio C' Bon","brand":"Bio C' Bon","city":"Pantin","address":"30 Rue Hoche, 93500 Pantin","lat":48.8935801,"lon":2.4019149},
{"name":"Bio C' Bon","brand":"Bio C' Bon","city":null,"address":null,"lat":48.8824257,"lon":2.238536},
{"name":"Bio C' Bon","brand":"Bio C' Bon","city":null,"address":"8 Boulevard Chanzy, 93100","lat":48.8585799,"lon":2.4355945},
{"name":"Bio C' Bon","brand":"Bio C' Bon","city":null,"address":"43 Avenue de Saint-Mandé, 75012","lat":48.845223,"lon":2.4016967},
{"name":"Bio C' Bon","brand":"Bio C' Bon","city":"Lille","address":"1 Boulevard Jean-Baptiste Lebas, 59000 Lille","lat":50.6284418,"lon":3.0692206},
{"name":"Bio C' Bon","brand":"Bio C' Bon","city":null,"address":null,"lat":48.8432024,"lon":2.3296123},
{"name":"Bio C' Bon","brand":"Bio C' Bon","city":null,"address":null,"lat":48.8243443,"lon":2.2108021},
{"name":"Bio C' Bon","brand":"Bio C' Bon","city":null,"address":null,"lat":48.8535987,"lon":2.3392427},
{"name":"Bio C' Bon","brand":"Bio C' Bon","city":null,"address":null,"lat":48.7568802,"lon":2.3065474},
{"name":"Bio C' Bon","brand":"Bio C' Bon","city":null,"address":"670 Avenue du Canton Vert, 13190","lat":43.3418861,"lon":5.4721853},
{"name":"Bio C' Bon","brand":"Bio C' Bon","city":"Aix-en-Provence","address":"3 Avenue des Belges, 13100 Aix-en-Provence","lat":43.525135,"lon":5.4438169},
{"name":"Bio C' Bon","brand":"Bio C' Bon","city":null,"address":"11 Cours Gambetta, 13100","lat":43.5246515,"lon":5.4553335},
{"name":"Bio C' Bon","brand":"Bio C' Bon","city":null,"address":"217 Rue Jean Jaurès, 59160","lat":50.6426962,"lon":3.011979},
{"name":"Bio C' Bon","brand":"Bio C' Bon","city":null,"address":null,"lat":43.3028037,"lon":5.3978913},
{"name":"Bio C' Bon","brand":"Bio C' Bon","city":null,"address":null,"lat":48.913637,"lon":2.2727832},
{"name":"Bio C' Bon","brand":"Bio C' Bon","city":null,"address":null,"lat":45.7454697,"lon":4.8646038},
{"name":"Bio C' Bon","brand":"Bio C' Bon","city":null,"address":"11 Rue des Coches, 78100","lat":48.8962594,"lon":2.0934097},
{"name":"Bio C' Bon","brand":"Bio C' Bon","city":null,"address":null,"lat":48.8772562,"lon":2.3007153},
{"name":"Bio C' Bon","brand":"Bio C' Bon","city":null,"address":"73 Rue Notre-Dame, 33000","lat":44.851975,"lon":-0.5712095},
{"name":"Bio C' Bon","brand":"Bio C' Bon","city":null,"address":null,"lat":48.8589331,"lon":2.2762119},
{"name":"Bio C' Bon","brand":"Bio C' Bon","city":null,"address":"43 Rue de Bourgogne, 75007","lat":48.8568958,"lon":2.3173777},
{"name":"Bio C' Bon","brand":"Bio C' Bon","city":null,"address":"3 Avenue de Mazargues","lat":43.2698109,"lon":5.3880689},
{"name":"Bio C' Bon","brand":"Bio C' Bon","city":null,"address":"9 Place Vauban, 06400","lat":43.5550363,"lon":7.0166755},
{"name":"Bio C' Bon","brand":"Bio C' Bon","city":null,"address":null,"lat":48.8665733,"lon":2.2854699},
{"name":"Bio C' Bon","brand":"Bio C' Bon","city":"Paris","address":"124 Avenue Jean Jaurès, 75019 Paris","lat":48.8862256,"lon":2.3840029},
{"name":"Bio C' Bon","brand":"Bio C' Bon","city":null,"address":null,"lat":48.8239333,"lon":2.3576554},
{"name":"Bio C' Bon","brand":"Bio C' Bon","city":null,"address":"90 Boulevard Voltaire","lat":48.9160852,"lon":2.2910223},
{"name":"Bio C' Bon","brand":"Bio C' Bon","city":"Paris","address":"3 Rue Fondary, 75015 Paris","lat":48.848934,"lon":2.2912784},
{"name":"Bio C' Bon","brand":"Bio C' Bon","city":null,"address":null,"lat":48.9229591,"lon":2.2570477},
{"name":"Bio C' Bon","brand":"Bio C' Bon","city":null,"address":null,"lat":50.6503806,"lon":3.0704752},
{"name":"Bio C' Bon","brand":"Bio C' Bon","city":null,"address":null,"lat":46.3243707,"lon":-0.4615886},
{"name":"Bio C' Bon","brand":"Bio C' Bon","city":"Nogent-sur-Marne","address":"7 Avenue de Joinville, 94130 Nogent-sur-Marne","lat":48.8338942,"lon":2.4725295},
{"name":"Bio C' Bon","brand":"Bio C' Bon","city":null,"address":null,"lat":48.8930832,"lon":2.3333633},
{"name":"Bio C' Bon","brand":"Bio C' Bon","city":null,"address":"104 Rue Fondaudege","lat":44.8485415,"lon":-0.5829278},
{"name":"Bio C' Bon","brand":"Bio C' Bon","city":null,"address":null,"lat":43.6151796,"lon":1.4103999}
]