[
{"name":"U Express","brand":"U Express","city":null,"address":null,"lat":48.4530224,"lon":-4.4660922},
{"name":"U Express Rennes Liberté","brand":"U Express","city":"Rennes","address":"44 Boulevard de la Liberté, 35000 Rennes","lat":48.1083218,"lon":-1.6823633},
{"name":"U Express","brand":"U Express","city":null,"address":null,"lat":48.2743342,"lon":-4.595435},
{"name":"U Express","brand":"U Express","city":null,"address":null,"lat":48.2309748,"lon":-4.3567822},
{"name":"U Express","brand":"U Express","city":null,"address":null,"lat":47.1128156,"lon":-2.0941298},
{"name":"U Express","brand":"U Express","city":null,"address":null,"lat":47.6215898,"lon":6.8314927},
{"name":"U Express","brand":"U Express","city":null,"address":null,"lat":47.0485776,"lon":-1.961606},
{"name":"U Express","brand":"U Express","city":null,"address":null,"lat":43.5530292,"lon":7.0255538},
{"name":"U Express","brand":"U Express","city":"Le Grand-Quevilly","address":"65 Avenue des Provinces, 76120 Le Grand-Quevilly","lat":49.4089886,"lon":1.0519635},
{"name":"Supermarché U Express","brand":"U Express","city":null,"address":null,"lat":47.1084615,"lon":0.6253802},
{"name":"U Express","brand":"U Express","city":"Le Grau-du-Roi","address":"Route de l'Espiguette, 30240 Le Grau-du-Roi","lat":43.5159125,"lon":4.1497478},
{"name":"U Express","brand":"U Express","city":null,"address":null,"lat":43.6617854,"lon":4.1770249},
{"name":"U Express","brand":"U Express","city":null,"address":null,"lat":-21.3427822,"lon":55.4872876},
{"name":"U Express","brand":"U Express","city":null,"address":null,"lat":-21.3415632,"lon":55.4714066},
{"name":"U Express","brand":"U Express","city":null,"address":null,"lat":48.0421822,"lon":7.1299214},
{"name":"U Express","brand":"U Express","city":null,"address":"Rue du Mas Loubier","lat":45.8398632,"lon":1.2538139},
{"name":"U Express","brand":"U Express","city":null,"address":null,"lat":48.6597219,"lon":-3.9182892},
{"name":"U Express","brand":"U Express","city":"Aytré","address":"48 Rue Jules Ferry, 17440 Aytré","lat":46.1336352,"lon":-1.1179142},
{"name":"U Express","brand":"U Express","city":null,"address":null,"lat":48.6313905,"lon":-3.9892608},
{"name":"U Express","brand":"U Express","city":"Saint-Maixent-l'École","address":"26 Avenue Gambetta, 79400 Saint-Maixent-l'École","lat":46.4152424,"lon":-0.2033935},
{"name":"U Express","brand":"U Express","city":null,"address":null,"lat":45.6260806,"lon":-1.025981},
{"name":"U Utile","brand":"U Express","city":null,"address":null,"lat":45.6037877,"lon":-0.9970794},
{"name":"U Express","brand":"U Express","city":"Pont-Saint-Esprit","address":"220 Impasse Porte Sud, 30130 Pont-Saint-Esprit","lat":44.2398759,"lon":4.6386121},
{"name":"U Express","brand":"U Express","city":null,"address":null,"lat":46.1081113,"lon":-0.0678818},
{"name":"U Express","brand":"U Express","city":null,"address":null,"lat":47.847325,"lon":-0.9489227},
{"name":"U Express","brand":"U Express","city":"Courthézon","address":"Route de Châteauneuf-du-Pape, Courthézon","lat":44.0877934,"lon":4.8785771},
{"name":"U Express","brand":"U Express","city":null,"address":null,"lat":44.6496269,"lon":1.5703105},
{"name":"U Express","brand":"U Express","city":null,"address":null,"lat":43.9736906,"lon":4.6920564},
{"name":"U Express","brand":"U Express","city":null,"address":"Avenue du Dauphiné","lat":45.6285009,"lon":4.8196582},
{"name":"U Express","brand":"U Express","city":null,"address":"46 Cours Jean Jaurès","lat":45.1517111,"lon":5.7057224},
{"name":"U Express","brand":"U Express","city":null,"address":null,"lat":47.8913406,"lon":-4.0129604},
{"name":"U Express","brand":"U Express","city":null,"address":null,"lat":47.8335699,"lon":-0.7249217},
{"name":"U Express","brand":"U Express","city":null,"address":null,"lat":43.8990721,"lon":4.9484121},
{"name":"U Express","brand":"U Express","city":null,"address":"3 Place du Champ de Foire, 86140","lat":46.8159182,"lon":0.3270002},
{"name":"U Express","brand":"U Express","city":null,"address":null,"lat":43.7459356,"lon":5.0770829},
{"name":"U Express","brand":"U Express","city":null,"address":null,"lat":46.5870465,"lon":0.3267455},
{"name":"U Express","brand":"U Express","city":null,"address":"8 Avenue du Midi, 06220","lat":43.5674175,"lon":7.0746955},
{"name":"U Express","brand":"U Express","city":null,"address":null,"lat":46.7609615,"lon":-1.8367645},
{"name":"U Express","brand":"U Express","city":null,"address":"Route de Pernes, 84380","lat":44.0526511,"lon":5.1286796},
{"name":"U Express","brand":"U Express","city":null,"address":null,"lat":43.958646,"lon":4.9386243},
{"name":"U Express","brand":"U Express","city":"Poitiers","address":"Place de Provence, 86000 Poitiers","lat":46.5890605,"lon":0.358938},
{"name":"U Express","brand":"U Express","city":"Orchamps-Vennes","address":"2 Rue de la Verdolle, 25390 Orchamps-Vennes","lat":47.1285945,"lon":6.5231045},
{"name":"U Express","brand":"U Express","city":null,"address":null,"lat":47.199612,"lon":-1.4312042},
{"name":"U Express","brand":"U Express","city":"Bessancourt","address":"116 TER Avenue de la République, 95550 Bessancourt","lat":49.0437485,"lon":2.206539},
{"name":"U Express","brand":"U Express","city":"Lacanau","address":"Rue Alexandre Dumas, Lacanau","lat":45.0045104,"lon":-1.198228},
{"name":"U Express","brand":"U Express","city":null,"address":null,"lat":43.576605,"lon":3.8344637},
{"name":"U Express","brand":"U Express","city":null,"address":null,"lat":46.206787,"lon":-1.521145},
{"name":"U Express","brand":"U Express","city":"Cherbourg-en-Cotentin","address":"62 Rue de la Paix, 50120 Cherbourg-en-Cotentin","lat":49.650031,"lon":-1.6502165},
{"name":"U Express","brand":"U Express","city":"Yvetot","address":"20 Rue Guy de Maupassant, 76190 Yvetot","lat":49.618522,"lon":0.753426},
{"name":"U Express","brand":"U Express","city":null,"address":null,"lat":45.8764115,"lon":-0.309386},
{"name":"U Express","brand":"U Express","city":null,"address":null,"lat":45.7698515,"lon":-1.1417165},
{"name":"U Express","brand":"U Express","city":null,"address":null,"lat":45.88287,"lon":0.582122},
{"name":"U Express","brand":"U Express","city":null,"address":null,"lat":47.48027,"lon":6.3537265},
{"name":"U Express","brand":"U Express","city":"Nice","address":"106 Avenue Henry Dunant, Nice","lat":43.7275515,"lon":7.2661035},
{"name":"U Express","brand":"U Express","city":null,"address":null,"lat":47.6533236,"lon":2.737667},
{"name":"U Express","brand":"U Express","city":"Nice","address":"57 Avenue Sainte-Marguerite, Nice","lat":43.678082,"lon":7.2197835},
{"name":"U Express","brand":"U Express","city":"Saint-Georges-du-Bois","address":"LD LE BORDAGE DES HAYES RD 309, 72700 Saint-Georges-du-Bois","lat":47.9671729,"lon":0.0928404},
{"name":"U Express","brand":"U Express","city":null,"address":null,"lat":45.9061775,"lon":6.4241705},
{"name":"U Express Monplaisir Lumière","brand":"U Express","city":null,"address":null,"lat":45.7433976,"lon":4.870351},
{"name":"U Express","brand":"U Express","city":null,"address":null,"lat":50.9929238,"lon":2.1362445},
{"name":"U Express","brand":"U Express","city":null,"address":"128 Boulevard de l'Avenir","lat":43.97675,"lon":0.007711},
{"name":"U Express","brand":"U Express","city":null,"address":null,"lat":49.4842177,"lon":1.016179},
{"name":"U Express","brand":"U Express","city":null,"address":null,"lat":44.6404655,"lon":2.566306},
{"name":"U Express","brand":"U Express","city":"Saint-Père-en-Retz","address":"Rue du Prieuré, 44320 Saint-Père-en-Retz","lat":47.2032739,"lon":-2.0479748},
{"name":"U Express","brand":"U Express","city":"Saint-Laurent-d'Aigouze","address":"180 Avenue du Général Trouchaud, 30220 Saint-Laurent-d'Aigouze","lat":43.6290745,"lon":4.1927695},
{"name":"U Express","brand":"U Express","city":null,"address":"Avenue René Boudon","lat":44.1043017,"lon":3.8834292},
{"name":"U Express","brand":"U Express","city":"Marsilly","address":"Avenue de l'Île d'Oléron, 17137 Marsilly","lat":46.2307842,"lon":-1.1348334},
{"name":"U Express","brand":"U Express","city":null,"address":null,"lat":48.254422,"lon":0.314729},
{"name":"U Express","brand":"U Express","city":"Paris","address":"15 Rue des Petits Carreaux, Paris","lat":48.8669014,"lon":2.3470962},
{"name":"U Express","brand":"U Express","city":"Argentré","address":"Chemin du Verger, 53210 Argentré","lat":48.085605,"lon":-0.6431085},
{"name":"U Express","brand":"U Express","city":null,"address":null,"lat":42.5627376,"lon":9.4416064},
{"name":"U Express","brand":"U Express","city":null,"address":null,"lat":16.3282657,"lon":-61.4486276},
{"name":"U Express","brand":"U Express","city":"Rennes","address":"21 Rue de Brest, 35000 Rennes","lat":48.1125001,"lon":-1.6929179},
{"name":"U Express","brand":"U Express","city":"Le Tampon","address":"129 Rue Martinel Lassays, 97430 Le Tampon","lat":-21.2802415,"lon":55.5154736},
{"name":"U Express","brand":"U Express","city":"Mésanger","address":"185 Rue de la Vieille Cour, 44522 Mésanger","lat":47.4320553,"lon":-1.2289958},
{"name":"U Express Villeneuve d'Aveyron","brand":"U Express","city":null,"address":"Avenue du Rouergue","lat":44.4325835,"lon":2.0312046},
{"name":"U Express","brand":"U Express","city":"Briec","address":"Rue de Kerhapp, 29510 Briec","lat":48.1029024,"lon":-4.000937},
{"name":"U Express","brand":"U Express","city":null,"address":"1","lat":49.4436576,"lon":1.087827},
{"name":"U Express","brand":"U Express","city":null,"address":null,"lat":45.2286496,"lon":4.9585256},
{"name":"Nom inconnu","brand":"U Express","city":null,"address":null,"lat":43.358994,"lon":3.1692165},
{"name":"U Express","brand":"U Express","city":null,"address":null,"lat":43.4501883,"lon":2.0635315},
{"name":"U Express","brand":"U Express","city":null,"address":null,"lat":43.7292007,"lon":1.059883},
{"name":"U Express","brand":"U Express","city":null,"address":null,"lat":48.816795,"lon":2.3216547},
{"name":"U Express","brand":"U Express","city":null,"address":null,"lat":44.2752279,"lon":5.2709591},
{"name":"U Express","brand":"U Express","city":null,"address":null,"lat":44.4897595,"lon":4.7201746},
{"name":"U Express","brand":"U Express","city":null,"address":"160 Route d'Aleyrac","lat":44.541345,"lon":4.9337033},
{"name":"U Express","brand":"U Express","city":null,"address":null,"lat":45.0021182,"lon":5.0929217},
{"name":"U Express","brand":"U Express","city":null,"address":null,"lat":42.5051566,"lon":9.4617697},
{"name":"Utile","brand":"U Express","city":"Bazouges-la-Pérouse","address":"2 Rue du Lavoir, 35560 Bazouges-la-Pérouse","lat":48.4245858,"lon":-1.570312},
{"name":"U Express","brand":"U Express","city":null,"address":null,"lat":45.761829,"lon":4.8465007},
{"name":"U Express","brand":"U Express","city":"Thue et Mue","address":"Rue Hector Malot, 14740 Thue et Mue","lat":49.2155181,"lon":-0.5041948},
{"name":"U Express","brand":"U Express","city":"Saint-Louis","address":"97134 Saint-Louis","lat":15.9521259,"lon":-61.3140312},
{"name":"U Express","brand":"U Express","city":"Grans","address":"Impasse des Chènes Verts, 13450 Grans","lat":43.6015194,"lon":5.0739988},
{"name":"U Express","brand":"U Express","city":null,"address":null,"lat":43.2041087,"lon":6.5634396},
{"name":"U Express Les Deux Alpes","brand":"U Express","city":"Les Deux Alpes","address":"57, 38860 Les Deux Alpes","lat":45.0126524,"lon":6.124393},
{"name":"U Express","brand":"U Express","city":null,"address":null,"lat":46.1437913,"lon":6.1418553},
{"name":"U Express","brand":"U Express","city":null,"address":null,"lat":45.7489934,"lon":4.8475414},
{"name":"U Express","brand":"U Express","city":null,"address":"108","lat":49.2617184,"lon":4.0189698},
{"name":"U Express","brand":"U Express","city":null,"address":null,"lat":48.5398355,"lon":7.7633963},
{"name":"U Express","brand":"U Express","city":null,"address":null,"lat":43.5430329,"lon":-0.6829751},
{"name":"U Express","brand":"U Express","city":null,"address":null,"lat":46.1498748,"lon":-1.0756218},
{"name":"U Express","brand":"U Express","city":null,"address":null,"lat":48.797354,"lon":-1.3975936},
{"name":"Utile Montbrun-les-Bains","brand":"U Express","city":null,"address":"26570","lat":44.1738588,"lon":5.441005},
{"name":"U Express","brand":"U Express","city":null,"address":"33 Rue Armorique, 29200","lat":48.3851175,"lon":-4.5035466},
{"name":"U Express","brand":"U Express","city":null,"address":null,"lat":-17.6124772,"lon":-149.6137899},
{"name":"U Express","brand":"U Express","city":null,"address":null,"lat":47.005949,"lon":-0.850826},
{"name":"U Express","brand":"U Express","city":null,"address":null,"lat":43.6843931,"lon":7.1086666},
{"name":"U Express","brand":"U Express","city":"Grenoble","address":"17 Avenue de Vizille, 38000 Grenoble","lat":45.1851012,"lon":5.7168274},
{"name":"U Express","brand":"U Express","city":"Paris","address":"Paris","lat":48.8660666,"lon":2.2739354},
{"name":"U Express","brand":"U Express","city":null,"address":null,"lat":-21.3527749,"lon":55.5617427},
{"name":"U Express","brand":"U Express","city":null,"address":null,"lat":48.8479482,"lon":2.4489972},
{"name":"U Express","brand":"U Express","city":null,"address":null,"lat":46.1585438,"lon":-1.268484},
{"name":"U Express","brand":"U Express","city":null,"address":null,"lat":45.7561817,"lon":4.8473158},
{"name":"U Express","brand":"U Express","city":"Castelmoron-sur-Lot","address":"RD 225, 47260 Castelmoron-sur-Lot","lat":44.4013629,"lon":0.4996998},
{"name":"U Express","brand":"U Express","city":"Saint-Romain-en-Gal","address":"Avenue de la Gare, 69560 Saint-Romain-en-Gal","lat":45.5279149,"lon":4.8652335},
{"name":"U Express","brand":"U Express","city":"Marciac","address":"Le Cagdan Rte de Mirande, 32230 Marciac","lat":43.5186499,"lon":0.1713268},
{"name":"U Express","brand":"U Express","city":null,"address":null,"lat":48.8645661,"lon":2.3724976},
{"name":"U Express","brand":"U Express","city":"Le Grau-du-Roi","address":"Rue du Levant, 30240 Le Grau-du-Roi","lat":43.5349243,"lon":4.1382906},
{"name":"U Express","brand":"U Express","city":"Plerguer","address":"Le Puits Saliou (RD 75), 35540 Plerguer","lat":48.5302277,"lon":-1.8522971},
{"name":"U Express","brand":"U Express","city":"Rueil-Malmaison","address":"109 Avenue Paul Doumer, 92500 Rueil-Malmaison","lat":48.8794459,"lon":2.1798375},
{"name":"U Express","brand":"U Express","city":null,"address":null,"lat":45.6475187,"lon":0.125521},
{"name":"U Express","brand":"U Express","city":null,"address":null,"lat":47.2496733,"lon":-1.4831992},
{"name":"U express","brand":"U Express","city":null,"address":null,"lat":48.8263193,"lon":2.1374175},
{"name":"U Express","brand":"U Express","city":"La Frette-sur-Seine","address":"4 Place de la Gare, 95530 La Frette-sur-Seine","lat":48.9801371,"lon":2.1805873},
{"name":"U Express","brand":"U Express","city":"Vannes","address":"4 Passage de Fareham, 56000 Vannes","lat":47.6391819,"lon":-2.7764448},
{"name":"U Express","brand":"U Express","city":"Le Rheu","address":"35650 Le Rheu","lat":48.1001618,"lon":-1.7964998},
{"name":"U Express","brand":"U Express","city":"Bernay","address":"1 Rue Gabriel Vallée, 27300 Bernay","lat":49.0893728,"lon":0.59363},
{"name":"U Express","brand":"U Express","city":"Cannes","address":"06400 Cannes","lat":43.5558626,"lon":7.0158084},
{"name":"U Express","brand":"U Express","city":"Le Havre","address":"Place des Halles Centrales, 76600 Le Havre","lat":49.4904079,"lon":0.1042952},
{"name":"U Express","brand":"U Express","city":null,"address":null,"lat":43.7825623,"lon":7.5133253},
{"name":"U Express","brand":"U Express","city":"Strasbourg","address":"67 Rue Boecklin, 67000 Strasbourg","lat":48.6004769,"lon":7.7803107},
{"name":"U Express","brand":"U Express","city":null,"address":null,"lat":48.5788544,"lon":7.7510886},
{"name":"U Express","brand":"U Express","city":null,"address":null,"lat":45.9391828,"lon":6.1215786},
{"name":"U Express","brand":"U Express","city":null,"address":null,"lat":-16.7305425,"lon":-151.442948},
{"name":"U Express","brand":"U Express","city":"Châtellerault","address":"86100 Châtellerault","lat":46.815622,"lon":0.5456425},
{"name":"U Express","brand":"U Express","city":"Saint-Léonard-de-Noblat","address":"17 Boulevard Adrien Pressemane, 87400 Saint-Léonard-de-Noblat","lat":45.8392171,"lon":1.4919441},
{"name":"U Express","brand":"U Express","city":null,"address":null,"lat":48.8581241,"lon":2.3723737},
{"name":"U Express","brand":"U Express","city":null,"address":null,"lat":45.7638287,"lon":4.8642416},
{"name":"U Express","brand":"U Express","city":null,"address":null,"lat":47.2388779,"lon":-1.5704345},
{"name":"U Express","brand":"U Express","city":"Saint-Aubin-lès-Elbeuf","address":"11 Rue du Maréchal Leclerc, 76410 Saint-Aubin-lès-Elbeuf","lat":49.3028927,"lon":1.0136102},
{"name":"U Express","brand":"U Express","city":"Papeete","address":"Av. du Commandant Chesse, 98714 Papeete","lat":-17.5312838,"lon":-149.559787},
{"name":"U Express Feyzin","brand":"U Express","city":null,"address":null,"lat":45.6742575,"lon":4.8594989},
{"name":"U Express","brand":"U Express","city":null,"address":"10","lat":45.9435947,"lon":-0.519951},
{"name":"U Express","brand":"U Express","city":"Levallois-Perret","address":"Rue Anatole France, 92300 Levallois-Perret","lat":48.893256,"lon":2.284096},
{"name":"U Express","brand":"U Express","city":"Tarascon","address":"4 Boulevard Victor Hugo, 13150 Tarascon","lat":43.8025149,"lon":4.658163},
{"name":"U Express","brand":"U Express","city":null,"address":null,"lat":45.636505,"lon":-1.0636193},
{"name":"U Express","brand":"U Express","city":null,"address":null,"lat":44.1745613,"lon":5.1331275},
{"name":"U Express","brand":"U Express","city":"Pont-l'abbé","address":"2 Rue Roger Signor, 29120 Pont-l'abbé","lat":47.8640418,"lon":-4.2227902},
{"name":"Courses U - Point Drive","brand":"U Express","city":null,"address":null,"lat":45.7756651,"lon":4.8273632},
{"name":"U Express","brand":"U Express","city":null,"address":null,"lat":14.6051338,"lon":-61.0839662},
{"name":"U Express","brand":"U Express","city":null,"address":null,"lat":43.6954017,"lon":1.4386412},
{"name":"U Express","brand":"U Express","city":null,"address":null,"lat":48.8684603,"lon":2.3474778},
{"name":"U Express","brand":"U Express","city":"Redon","address":"Rue du Capitaine Martin, 35600 Redon","lat":47.650505,"lon":-2.0869675},
{"name":"Utile Saint-Denis-d'Oléron - Coop Atlantique","brand":"U Express","city":null,"address":"20 Rue Ernest Morisset","lat":46.0330318,"lon":-1.3781476},
{"name":"U Express","brand":"U Express","city":"Rennes","address":"10 Place Hoche, 35000 Rennes","lat":48.1154699,"lon":-1.676622},
{"name":"U Express","brand":"U Express","city":"Rennes","address":"75 Rue Saint-Hélier, 35000 Rennes","lat":48.1062827,"lon":-1.6668904},
{"name":"U Express","brand":"U Express","city":null,"address":"11","lat":49.4424237,"lon":1.0980846},
{"name":"U Express","brand":"U Express","city":null,"address":null,"lat":47.4765372,"lon":-0.5490365},
{"name":"U Express","brand":"U Express","city":null,"address":null,"lat":47.0609093,"lon":-0.8832303},
{"name":"U Express","brand":"U Express","city":null,"address":null,"lat":43.5985525,"lon":5.4831917},
{"name":"U Express","brand":"U Express","city":null,"address":"29 Rue Raymond Auguste Monvoisin","lat":44.8223094,"lon":-0.5520556},
{"name":"U Express","brand":"U Express","city":null,"address":null,"lat":45.0096381,"lon":4.4008438},
{"name":"U Express","brand":"U Express","city":"Le Mans","address":"40 Place de la République, 72000 Le Mans","lat":48.0046215,"lon":0.1961879},
{"name":"U Express","brand":"U Express","city":null,"address":null,"lat":-20.9207554,"lon":55.5288949},
{"name":"U Express Saint-Étienne","brand":"U Express","city":null,"address":null,"lat":45.4371434,"lon":4.4115795},
{"name":"U Express","brand":"U Express","city":null,"address":null,"lat":49.8299892,"lon":1.4031573},
{"name":"U Express","brand":"U Express","city":null,"address":null,"lat":45.0416187,"lon":0.3507356},
{"name":"U Express","brand":"U Express","city":null,"address":null,"lat":43.4891333,"lon":-1.4723053},
{"name":"U Express","brand":"U Express","city":"Noves","address":"Place Jules Ferry, 13550 Noves","lat":43.8776486,"lon":4.9038703},
{"name":"U Express","brand":"U Express","city":null,"address":null,"lat":47.8712761,"lon":2.1293044},
{"name":"U Express","brand":"U Express","city":null,"address":null,"lat":47.3892667,"lon":0.6959985},
{"name":"U Express","brand":"U Express","city":null,"address":null,"lat":48.5933436,"lon":7.7143536},
{"name":"U Express","brand":"U Express","city":"Bouc-Bel-Air","address":"Avenue de la Gratiane, 13320 Bouc-Bel-Air","lat":43.4606061,"lon":5.4140988},
{"name":"U Express","brand":"U Express","city":null,"address":null,"lat":45.7512222,"lon":4.8308357},
{"name":"U Express","brand":"U Express","city":"La Rochelle","address":"Place de l'Europe, 17000 La Rochelle","lat":46.1672303,"lon":-1.1800295},
{"name":"U Express","brand":"U Express","city":null,"address":null,"lat":46.3939661,"lon":5.5702979},
{"name":"U Express","brand":"U Express","city":null,"address":null,"lat":48.0902221,"lon":0.1561502},
{"name":"U Express","brand":"U Express","city":null,"address":null,"lat":43.6951875,"lon":7.2566119},
{"name":"U Express","brand":"U Express","city":null,"address":null,"lat":48.5158426,"lon":-3.5844193},
{"name":"U Express","brand":"U Express","city":"Beauvoisin","address":"192 Rue des Cerisiers, 30640 Beauvoisin","lat":43.7266315,"lon":4.3286482},
{"name":"U Express","brand":"U Express","city":"Meudon","address":"2 Place Simone Veil, 92360 Meudon","lat":48.7828235,"lon":2.2281149},
{"name":"U Express","brand":"U Express","city":null,"address":null,"lat":45.753097,"lon":4.8294895},
{"name":"U Express","brand":"U Express","city":null,"address":null,"lat":47.491156,"lon":-0.5605683},
{"name":"U Express","brand":"U Express","city":"Le Mans","address":"Avenue du Général de Gaulle, 72000 Le Mans","lat":48.0038982,"lon":0.200378},
{"name":"U Express","brand":"U Express","city":"Ruffieux","address":"Route De Saumont, 73310 Ruffieux","lat":45.8470562,"lon":5.8367543},
{"name":"Supermarché U express","brand":"U Express","city":null,"address":null,"lat":49.4397192,"lon":1.2059614},
{"name":"U Express","brand":"U Express","city":null,"address":null,"lat":45.6330466,"lon":4.8565577},
{"name":"U Express","brand":"U Express","city":null,"address":null,"lat":50.6472511,"lon":3.0601905},
{"name":"U Express","brand":"U Express","city":null,"address":null,"lat":48.8535631,"lon":2.2946309},
{"name":"U Express","brand":"U Express","city":null,"address":null,"lat":48.1893277,"lon":1.9309423},
{"name":"U Express","brand":"U Express","city":null,"address":null,"lat":43.3287975,"lon":5.4899639}
]