[
{"name":"E.Leclerc Express","brand":"E.Leclerc Express","city":null,"address":"Impasse du Fond-Saint-Jacques","lat":50.2808969,"lon":3.9098539},
{"name":"E.Leclerc Express","brand":"E.Leclerc Express","city":null,"address":"Avenue du Général Leclerc","lat":49.4845451,"lon":1.7161848},
{"name":"E.Leclerc Express","brand":"E.Leclerc Express","city":null,"address":"2 Place du Général de Gaulle","lat":50.4739664,"lon":3.243118},
{"name":"E.Leclerc Express","brand":"E.Leclerc Express","city":null,"address":"75 Rue Maurice Thorez, 59146","lat":50.3673775,"lon":3.1997817},
{"name":"E.Leclerc Express","brand":"E.Leclerc Express","city":null,"address":null,"lat":49.2457525,"lon":6.1019445},
{"name":"E.Leclerc Express","brand":"E.Leclerc Express","city":null,"address":null,"lat":48.6459358,"lon":-4.3695452},
{"name":"E.Leclerc Express","brand":"E.Leclerc Express","city":null,"address":"Avenue du Général de Gaulle","lat":49.3263555,"lon":2.4633895},
{"name":"E.Leclerc Express","brand":"E.Leclerc Express","city":"Rambouillet","address":"Rue de la Louvière, 78120 Rambouillet","lat":48.6458259,"lon":1.8458202},
{"name":"E. Leclerc Express","brand":"E.Leclerc Express","city":null,"address":null,"lat":44.5166082,"lon":0.1576955},
{"name":"E.Leclerc Express","brand":"E.Leclerc Express","city":null,"address":"Avenue Ernest d'Hauterive","lat":49.2535672,"lon":3.0892946},
{"name":"E.Leclerc Express","brand":"E.Leclerc Express","city":null,"address":null,"lat":47.6164095,"lon":6.134909},
{"name":"E.Leclerc Express","brand":"E.Leclerc Express","city":null,"address":null,"lat":48.3931508,"lon":4.5302636},
{"name":"E.Leclerc Express","brand":"E.Leclerc Express","city":null,"address":"Place Roger Salengro","lat":50.4593625,"lon":2.6149735},
{"name":"E.Leclerc Express","brand":"E.Leclerc Express","city":null,"address":"Avenue de Bouchain","lat":50.2758718,"lon":3.329063},
{"name":"E.Leclerc Express","brand":"E.Leclerc Express","city":null,"address":"60 Chaussée Brunehaut","lat":50.6664925,"lon":1.8251445},
{"name":"E.Leclerc Express","brand":"E.Leclerc Express","city":null,"address":null,"lat":43.5278335,"lon":-0.9164537},
{"name":"E.Leclerc Express","brand":"E.Leclerc Express","city":null,"address":"4 Rue Saint-Jean, 68170","lat":47.7468141,"lon":7.3996389},
{"name":"E.Leclerc Express","brand":"E.Leclerc Express","city":null,"address":null,"lat":45.9747112,"lon":6.0312975},
{"name":"E.Leclerc Express","brand":"E.Leclerc Express","city":null,"address":"Rue Léon Blum","lat":49.7805246,"lon":2.4724882},
{"name":"E.Leclerc Express","brand":"E.Leclerc Express","city":null,"address":"Place Montesquieu - ZAC de le gare, 95310","lat":49.0332385,"lon":2.1274412},
{"name":"E.Leclerc Express","brand":"E.Leclerc Express","city":null,"address":null,"lat":48.6916707,"lon":6.1816844},
{"name":"E.Leclerc Express","brand":"E.Leclerc Express","city":null,"address":null,"lat":47.392415,"lon":0.6791433},
{"name":"E.Leclerc Express","brand":"E.Leclerc Express","city":null,"address":null,"lat":44.6086292,"lon":2.033941},
{"name":"E.Leclerc Express","brand":"E.Leclerc Express","city":null,"address":null,"lat":44.44207,"lon":-1.2452613},
{"name":"E.Leclerc Express","brand":"E.Leclerc Express","city":null,"address":null,"lat":47.3377297,"lon":5.0345048},
{"name":"E.Leclerc Express","brand":"E.Leclerc Express","city":null,"address":"Rue Jean Racine","lat":49.169059,"lon":3.2572156},
{"name":"E.Leclerc Express","brand":"E.Leclerc Express","city":null,"address":"Rue Delacroix, 62500","lat":50.7452834,"lon":2.2631729},
{"name":"E.Leclerc Express","brand":"E.Leclerc Express","city":"Tosse","address":"Avenue du Général de Gaulle, 40230 Tosse","lat":43.6893096,"lon":-1.3338187},
{"name":"E.Leclerc Express","brand":"E.Leclerc Express","city":"Anglet","address":"52 Avenue de Bayonne, 64600 Anglet","lat":43.4818336,"lon":-1.5079165},
{"name":"E.Leclerc Express","brand":"E.Leclerc Express","city":null,"address":"38 Quai des Chartrons","lat":44.851122,"lon":-0.5696241},
{"name":"E.Leclerc Express","brand":"E.Leclerc Express","city":"Meaux","address":"30 Cours Raoult, 77100 Meaux","lat":48.9579608,"lon":2.8817166},
{"name":"E.Leclerc Express","brand":"E.Leclerc Express","city":null,"address":"Rue du Fort-du-Rietz","lat":50.5159704,"lon":2.1250712},
{"name":"E.Leclerc Express","brand":"E.Leclerc Express","city":null,"address":null,"lat":49.0439268,"lon":2.108849},
{"name":"E.Leclerc Express","brand":"E.Leclerc Express","city":null,"address":"47 Avenue Charles de Gaulle","lat":49.7426094,"lon":3.7713832},
{"name":"E.Leclerc Express","brand":"E.Leclerc Express","city":null,"address":null,"lat":48.4725056,"lon":-4.3223803}
]