[
{"name":"Coccinelle Supermarché","brand":"Coccinelle Supermarché","city":"Haubourdin","address":"Avenue de l'Europe, 59320 Haubourdin","lat":50.6151538,"lon":2.9775547},
{"name":"Coccinelle Supermarché","brand":"Coccinelle Supermarché","city":null,"address":null,"lat":43.490498,"lon":-0.783543},
{"name":"Coccinelle Supermarché","brand":"Coccinelle Supermarché","city":"Blainville-sur-Orne","address":"18 Rue Jacques Duclos, 14550 Blainville-sur-Orne","lat":49.226726,"lon":-0.3052802},
{"name":"Coccinelle Supermarché","brand":"Coccinelle Supermarché","city":"Sèvres","address":"15 Route de Gallardon, 92310 Sèvres","lat":48.8112288,"lon":2.2059993},
{"name":"Coccinelle Supermarché","brand":"Coccinelle Supermarché","city":null,"address":null,"lat":49.18592,"lon":-0.3971505},
{"name":"Coccinelle Supermarché","brand":"Coccinelle Supermarché","city":null,"address":null,"lat":48.3990885,"lon":-0.0966915},
{"name":"Coccinelle Supermarché","brand":"Coccinelle Supermarché","city":"Plumelec","address":"5 Rue des Martyrs de la Résistance, 56420 Plumelec","lat":47.838238,"lon":-2.6406725},
{"name":"Coccinelle Supermarché","brand":"Coccinelle Supermarché","city":null,"address":"Chemin de Messe","lat":49.327017,"lon":2.2075625},
{"name":"Coccinelle Supermarché","brand":"Coccinelle Supermarché","city":"Sours","address":"2 2 Rue Jacques Gautron - ZAC des Ouches, 28630 Sours","lat":48.414058,"lon":1.6008952},
{"name":"Coccinelle Supermarché","brand":"Coccinelle Supermarché","city":null,"address":null,"lat":46.7464839,"lon":1.8267081},
{"name":"Coccinelle Supermarché","brand":"Coccinelle Supermarché","city":null,"address":null,"lat":49.8279232,"lon":0.9120207},
{"name":"Coccinelle Supermarché","brand":"Coccinelle Supermarché","city":"Auberville","address":"1 Route de Lisieux, 14640 Auberville","lat":49.3069193,"lon":-0.0257102},
{"name":"Coccinelle Supermarché","brand":"Coccinelle Supermarché","city":"Romainville","address":"14 Route de Montreuil, 93230 Romainville","lat":48.8782451,"lon":2.4491201},
{"name":"Coccinelle Supermarché","brand":"Coccinelle Supermarché","city":null,"address":null,"lat":43.2956193,"lon":3.5250585},
{"name":"Coccinelle Supermarché","brand":"Coccinelle Supermarché","city":null,"address":null,"lat":49.1881207,"lon":-0.3583402},
{"name":"Coccinelle Supermarché","brand":"Coccinelle Supermarché","city":"Alfortville","address":"15 bis Rue Charles de Gaulle, 94140 Alfortville","lat":48.8146318,"lon":2.4144294},
{"name":"Coccinelle Supermarché","brand":"Coccinelle Supermarché","city":"Saint-Denis","address":"4 Allée de l'Île-de-France, 93200 Saint-Denis","lat":48.9425388,"lon":2.3826179},
{"name":"Coccinelle Supermarché","brand":"Coccinelle Supermarché","city":null,"address":null,"lat":49.2055331,"lon":-0.3377793},
{"name":"Coccinelle Supermarché","brand":"Coccinelle Supermarché","city":null,"address":"52 Grande Rue","lat":48.418271,"lon":-0.3358297},
{"name":"Coccinelle Supermarché","brand":"Coccinelle Supermarché","city":null,"address":null,"lat":50.1296001,"lon":2.1731706},
{"name":"Casino Shop","brand":"Coccinelle Supermarché","city":"Paris","address":"269 Avenue Daumesnil, 75012 Paris","lat":48.8362521,"lon":2.4053141},
{"name":"Coccinelle Supermarché","brand":"Coccinelle Supermarché","city":"Paris","address":"28 Rue Philippe de Girard, 75010 Paris","lat":48.8838044,"lon":2.3617163},
{"name":"Coccinelle Supermarché","brand":"Coccinelle Supermarché","city":null,"address":null,"lat":49.8713106,"lon":1.0473516},
{"name":"Coccinelle Supermarché","brand":"Coccinelle Supermarché","city":null,"address":null,"lat":48.8838356,"lon":2.3471833},
{"name":"Coccinelle Supermarché","brand":"Coccinelle Supermarché","city":"L'Île-Saint-Denis","address":"7 Boulevard Marcel Paul, 93450 L'Île-Saint-Denis","lat":48.9195339,"lon":2.3270591},
{"name":"Coccinelle Supermarché","brand":"Coccinelle Supermarché","city":null,"address":"10 Rue Jean Touchard","lat":49.5484077,"lon":1.8532864},
{"name":"Coccinelle Supermarché","brand":"Coccinelle Supermarché","city":null,"address":"11 Rue Nationale","lat":49.7673451,"lon":1.7537358},
{"name":"Coccinelle Supermarché","brand":"Coccinelle Supermarché","city":null,"address":null,"lat":48.8565535,"lon":2.4049088},
{"name":"Coccinelle Supermarché","brand":"Coccinelle Supermarché","city":null,"address":"1 Rue du Séquoia, 78870","lat":48.8397568,"lon":2.0811745},
{"name":"Coccinelle Supermarché","brand":"Coccinelle Supermarché","city":null,"address":null,"lat":47.6359162,"lon":6.8452618},
{"name":"Coccinelle Supermarché","brand":"Coccinelle Supermarché","city":null,"address":"84 Rue du Maréchal Foch","lat":50.6151742,"lon":3.0161563},
{"name":"Coccinelle Supermarché","brand":"Coccinelle Supermarché","city":null,"address":null,"lat":48.6450281,"lon":2.0673994},
{"name":"Coccinelle Supermarché","brand":"Coccinelle Supermarché","city":"Reims","address":"9 Rue Jules Guichard, 51100 Reims","lat":49.2664262,"lon":4.0226968},
{"name":"Coccinelle Supermarché","brand":"Coccinelle Supermarché","city":"Reims","address":"131,133 Rue de Vesle, 51100 Reims","lat":49.2521022,"lon":4.0254394},
{"name":"Coccinelle Supermarché","brand":"Coccinelle Supermarché","city":null,"address":null,"lat":48.8826138,"lon":2.4332303},
{"name":"Coccinelle Supermarché","brand":"Coccinelle Supermarché","city":null,"address":null,"lat":50.6857008,"lon":2.8818037},
{"name":"Coccinelle Supermarché","brand":"Coccinelle Supermarché","city":null,"address":null,"lat":48.9182904,"lon":2.4644485},
{"name":"Coccinelle Supermarché","brand":"Coccinelle Supermarché","city":null,"address":null,"lat":48.7810403,"lon":2.4643952}
]