[
{"name":"La Vie Claire","brand":"La Vie Claire","city":null,"address":"6 Avenue des Allobroges","lat":45.05058,"lon":5.0813506},
{"name":"La Vie Claire","brand":"La Vie Claire","city":null,"address":"46 Avenue de Cournon","lat":45.7530512,"lon":3.1378993},
{"name":"La Vie Claire","brand":"La Vie Claire","city":null,"address":null,"lat":45.2546042,"lon":4.6856977},
{"name":"La Vie Claire","brand":"La Vie Claire","city":"Baume-les-Dames","address":"5 Rue du Stade, 25110 Baume-les-Dames","lat":47.3502479,"lon":6.3589478},
{"name":"La Vie Claire","brand":"La Vie Claire","city":null,"address":"18 Square Alfred Boucher","lat":45.693191,"lon":5.9111624},
{"name":"La Vie Claire","brand":"La Vie Claire","city":"Vertou","address":"15 Rue Jeanne D'Arc, 44120 Vertou","lat":47.1689113,"lon":-1.4758052},
{"name":"La Vie Claire","brand":"La Vie Claire","city":null,"address":null,"lat":48.8999677,"lon":2.3056674},
{"name":"La Vie Claire","brand":"La Vie Claire","city":null,"address":null,"lat":48.8978029,"lon":2.2480984},
{"name":"La Vie Claire","brand":"La Vie Claire","city":null,"address":"5a Rue des Ormes","lat":49.1168677,"lon":7.0856891},
{"name":"La Vie Claire","brand":"La Vie Claire","city":null,"address":null,"lat":45.759213,"lon":5.686096},
{"name":"La Vie Claire","brand":"La Vie Claire","city":null,"address":null,"lat":49.0125403,"lon":2.25061},
{"name":"La Vie Claire","brand":"La Vie Claire","city":null,"address":null,"lat":45.8220165,"lon":4.9940695},
{"name":"La Vie Claire","brand":"La Vie Claire","city":"Béziers","address":"7 Place Jean Jaurès, 34500 Béziers","lat":43.340507,"lon":3.216279},
{"name":"La Vie Claire","brand":"La Vie Claire","city":null,"address":null,"lat":50.5236815,"lon":2.6407065},
{"name":"La Vie Claire","brand":"La Vie Claire","city":"Aigues Mortes","address":"10 Rue des Artisans, 30220 Aigues Mortes","lat":43.577734,"lon":4.1869685},
{"name":"La Vie Claire","brand":"La Vie Claire","city":null,"address":null,"lat":45.8885925,"lon":4.45562},
{"name":"La Vie Claire","brand":"La Vie Claire","city":"La Montagne","address":"11 Rue Robert Schuman, 44620 La Montagne","lat":47.175175,"lon":-1.6796},
{"name":"La Vie Claire","brand":"La Vie Claire","city":null,"address":null,"lat":44.992436,"lon":-0.429179},
{"name":"La Vie Claire","brand":"La Vie Claire","city":null,"address":null,"lat":43.4593714,"lon":5.860371},
{"name":"La Vie Claire","brand":"La Vie Claire","city":null,"address":null,"lat":45.7471278,"lon":4.7432726},
{"name":"La Vie Claire","brand":"La Vie Claire","city":"Meylan","address":"21 Avenue du Grésivaudan, 38240 Meylan","lat":45.2107169,"lon":5.7636378},
{"name":"La Vie Claire","brand":"La Vie Claire","city":null,"address":null,"lat":48.2750432,"lon":6.9640052},
{"name":"La Vie Claire","brand":"La Vie Claire","city":null,"address":null,"lat":44.7218178,"lon":5.0375417},
{"name":"La Vie Claire","brand":"La Vie Claire","city":null,"address":null,"lat":45.8894462,"lon":4.828232},
{"name":"La Vie Claire","brand":"La Vie Claire","city":null,"address":null,"lat":44.9610092,"lon":4.8835426},
{"name":"La Vie Claire","brand":"La Vie Claire","city":"Lavaur","address":"81500 Lavaur","lat":43.7043705,"lon":1.7991868},
{"name":"La Vie Claire","brand":"La Vie Claire","city":"Chaumont","address":"1 Boulevard Thiers, 52000 Chaumont","lat":48.1092365,"lon":5.1436587},
{"name":"La Vie Claire","brand":"La Vie Claire","city":null,"address":"450 Route de Besançon","lat":46.6824466,"lon":5.5596334},
{"name":"La Vie Claire","brand":"La Vie Claire","city":"Saint-Étienne","address":"25 Cours Victor Hugo, 42000 Saint-Étienne","lat":45.4322351,"lon":4.3885431},
{"name":"La Vie Claire","brand":"La Vie Claire","city":null,"address":null,"lat":48.7023341,"lon":2.6004659},
{"name":"La Vie Claire","brand":"La Vie Claire","city":null,"address":null,"lat":43.7176094,"lon":1.5704502},
{"name":"La Vie Claire","brand":"La Vie Claire","city":null,"address":null,"lat":47.2369653,"lon":2.0926765},
{"name":"La Vie Claire","brand":"La Vie Claire","city":null,"address":null,"lat":43.6126943,"lon":6.9678505},
{"name":"La Vie Claire","brand":"La Vie Claire","city":null,"address":null,"lat":48.8449526,"lon":2.2857911},
{"name":"La Vie Claire","brand":"La Vie Claire","city":"Nemours","address":"23 chemin des Mazes, 77140 Nemours","lat":48.2761588,"lon":2.7058803},
{"name":"La Vie Claire","brand":"La Vie Claire","city":"Bénouville","address":"153 Rue du Commerce, 14970 Bénouville","lat":49.2360726,"lon":-0.2896872},
{"name":"La Vie Claire","brand":"La Vie Claire","city":null,"address":null,"lat":48.961524,"lon":2.9107851},
{"name":"La Vie Claire","brand":"La Vie Claire","city":null,"address":null,"lat":48.8927678,"lon":2.1042393},
{"name":"La Vie Claire","brand":"La Vie Claire","city":null,"address":"78800","lat":48.9243805,"lon":2.1880052},
{"name":"La Vie Claire","brand":"La Vie Claire","city":null,"address":null,"lat":45.7470021,"lon":-0.6277308},
{"name":"La Vie Claire","brand":"La Vie Claire","city":null,"address":null,"lat":45.7527088,"lon":4.8314002},
{"name":"La Vie Claire","brand":"La Vie Claire","city":null,"address":null,"lat":48.8298298,"lon":1.9546191},
{"name":"La Vie Claire","brand":"La Vie Claire","city":"Le Mesnil-Esnard","address":"117 Rue Hector Malot, 76240 Le Mesnil-Esnard","lat":49.4068717,"lon":1.1537342},
{"name":"La Vie Claire","brand":"La Vie Claire","city":null,"address":"9/11 Place du Colonel Fabien, 75010","lat":48.8780769,"lon":2.3694981},
{"name":"La Vie Claire","brand":"La Vie Claire","city":null,"address":null,"lat":42.6693059,"lon":2.8980715},
{"name":"La Vie Claire","brand":"La Vie Claire","city":null,"address":null,"lat":46.3752673,"lon":6.483602},
{"name":"La Vie Claire","brand":"La Vie Claire","city":null,"address":"77 Avenue du Général Leclerc, 92340","lat":48.7811659,"lon":2.3164748},
{"name":"La Vie Claire","brand":"La Vie Claire","city":"Alençon","address":"76 Grande Rue, 61000 Alençon","lat":48.4293514,"lon":0.0876752},
{"name":"La Vie Claire","brand":"La Vie Claire","city":null,"address":"45","lat":49.0900308,"lon":0.5980699},
{"name":"La Vie Claire","brand":"La Vie Claire","city":null,"address":null,"lat":48.8474634,"lon":2.2978722},
{"name":"La Vie Claire","brand":"La Vie Claire","city":null,"address":null,"lat":43.3452212,"lon":1.2637427},
{"name":"La Vie Claire","brand":"La Vie Claire","city":null,"address":null,"lat":48.8605284,"lon":2.3707845},
{"name":"La Vie Claire","brand":"La Vie Claire","city":null,"address":null,"lat":48.8251038,"lon":2.2144374},
{"name":"La Vie Claire","brand":"La Vie Claire","city":"Mortagne-au-Perche","address":"20 Place du Général de Gaulle, 61400 Mortagne-au-Perche","lat":48.520333,"lon":0.5455044},
{"name":"La Vie Claire","brand":"La Vie Claire","city":"Nantes","address":"14 Rue Pitre Chevalier, 44000 Nantes","lat":47.2243684,"lon":-1.5501701},
{"name":"La Vie Claire","brand":"La Vie Claire","city":null,"address":null,"lat":45.1997218,"lon":0.6654219},
{"name":"La Vie Claire","brand":"La Vie Claire","city":null,"address":null,"lat":48.9390138,"lon":2.1580575},
{"name":"La Vie Claire","brand":"La Vie Claire","city":null,"address":null,"lat":45.7430043,"lon":-0.6254825},
{"name":"La Vie Claire","brand":"La Vie Claire","city":null,"address":null,"lat":48.8110839,"lon":2.3138813},
{"name":"La Vie Claire","brand":"La Vie Claire","city":null,"address":null,"lat":47.266407,"lon":6.0605709},
{"name":"La Vie Claire","brand":"La Vie Claire","city":"Plœmeur","address":"14 Rue de Kervam, 56270 Plœmeur","lat":47.7349682,"lon":-3.4272291},
{"name":"La Vie Claire","brand":"La Vie Claire","city":null,"address":null,"lat":48.8614413,"lon":2.3430512},
{"name":"La Vie Claire","brand":"La Vie Claire","city":"Maurepas","address":"3 Avenue Louis Pasteur, 78310 Maurepas","lat":48.7613038,"lon":1.9131875},
{"name":"La Vie Claire","brand":"La Vie Claire","city":"Saint-Pierre","address":"13 Rue de la Poudrière, 97410 Saint-Pierre","lat":-21.3335443,"lon":55.4568281},
{"name":"La Vie Claire","brand":"La Vie Claire","city":"Lannion","address":"Rue de Saint-Marc, 22300 Lannion","lat":48.7335311,"lon":-3.4375928},
{"name":"La Vie Claire","brand":"La Vie Claire","city":null,"address":null,"lat":48.8330691,"lon":2.3034426},
{"name":"La Vie Claire","brand":"La Vie Claire","city":"Rouen","address":"23 Place Saint-Marc, 76000 Rouen","lat":49.4387112,"lon":1.1005056},
{"name":"La Vie Claire","brand":"La Vie Claire","city":"Pacé","address":"1 Rue Jean-Marie Tullou, 35740 Pacé","lat":48.1460329,"lon":-1.7662727},
{"name":"La Vie Claire","brand":"La Vie Claire","city":null,"address":null,"lat":48.8760786,"lon":2.3482332},
{"name":"La Vie Claire","brand":"La Vie Claire","city":"Rennes","address":"7 Rue Poullain Duparc, 35000 Rennes","lat":48.1085253,"lon":-1.6805779},
{"name":"La Vie Claire","brand":"La Vie Claire","city":null,"address":"39bis","lat":48.6335302,"lon":-2.0543858},
{"name":"La Vie Claire","brand":"La Vie Claire","city":null,"address":"68 Rue du Faubourg Saint-Martin","lat":48.871469,"lon":2.3572324},
{"name":"La Vie Claire","brand":"La Vie Claire","city":null,"address":null,"lat":48.8705891,"lon":2.3934293},
{"name":"La Vie Claire","brand":"La Vie Claire","city":null,"address":null,"lat":44.1151326,"lon":4.1066565},
{"name":"La Vie Claire","brand":"La Vie Claire","city":"Beaune","address":"21200 Beaune","lat":47.0209099,"lon":4.8419295},
{"name":"La Vie Claire","brand":"La Vie Claire","city":"Plouhinec","address":"2 Rue Brizeux, 29780 Plouhinec","lat":48.0164053,"lon":-4.5007821},
{"name":"La Vie Claire","brand":"La Vie Claire","city":"Saint-Gratien","address":"1 Rue Parmentier, 95210 Saint-Gratien","lat":48.9668294,"lon":2.2838752},
{"name":"La Vie Claire","brand":"La Vie Claire","city":null,"address":"74","lat":49.441172,"lon":1.0896152},
{"name":"La Vie Claire","brand":"La Vie Claire","city":null,"address":null,"lat":45.857278,"lon":4.7079735},
{"name":"La Vie Claire","brand":"La Vie Claire","city":"Nouméa","address":"32 Rue de la République, 98800 Nouméa","lat":-22.2687789,"lon":166.441722},
{"name":"La Vie Claire","brand":"La Vie Claire","city":null,"address":null,"lat":45.6328369,"lon":0.2133574},
{"name":"La Vie Claire","brand":"La Vie Claire","city":"Grimaud","address":"83310 Grimaud","lat":43.2749145,"lon":6.5750733},
{"name":"La Vie Claire","brand":"La Vie Claire","city":"Saint-Paul","address":"4 Bis Allée des Palmiers, 97460 Saint-Paul","lat":-20.9855731,"lon":55.2970279},
{"name":"La Vie Claire","brand":"La Vie Claire","city":"Sainte-Clotilde","address":"12 Rue Jules Hermann, 97490 Sainte-Clotilde","lat":-20.8919603,"lon":55.4962359},
{"name":"La Vie Claire","brand":"La Vie Claire","city":null,"address":null,"lat":48.8357062,"lon":2.3500402},
{"name":"La Vie Claire","brand":"La Vie Claire","city":null,"address":"4 Rue d'Alger, 59400","lat":50.1760406,"lon":3.2353929},
{"name":"La Vie Claire","brand":"La Vie Claire","city":null,"address":null,"lat":48.8560406,"lon":2.3786589},
{"name":"La Vie Claire","brand":"La Vie Claire","city":null,"address":null,"lat":50.4519044,"lon":1.6153711},
{"name":"La Vie Claire - Magasin bio","brand":"La Vie Claire","city":null,"address":"60","lat":48.8155017,"lon":2.3498059},
{"name":"La Vie Claire","brand":"La Vie Claire","city":"Boulogne-Billancourt","address":"68 Boulevard de la République, 92100 Boulogne-Billancourt","lat":48.8329501,"lon":2.2472768},
{"name":"La Vie Claire","brand":"La Vie Claire","city":"La Teste-de-Buch","address":"8 Place Léopold mouliets, 33260 La Teste-de-Buch","lat":44.6329889,"lon":-1.1516666},
{"name":"La Vie Claire","brand":"La Vie Claire","city":null,"address":null,"lat":45.9507529,"lon":6.6315065},
{"name":"La Vie Claire","brand":"La Vie Claire","city":"Paray-le-Monial","address":"Boulevard du Champ Bossu, 71600 Paray-le-Monial","lat":46.4646625,"lon":4.1150684},
{"name":"La Vie Claire","brand":"La Vie Claire","city":null,"address":null,"lat":48.7626829,"lon":2.2825576},
{"name":"La Vie Claire","brand":"La Vie Claire","city":null,"address":null,"lat":45.742118,"lon":4.8206865},
{"name":"La Vie Claire","brand":"La Vie Claire","city":"Le Pouliguen","address":"18 Rue du Cornen, 44510 Le Pouliguen","lat":47.2744299,"lon":-2.4418589},
{"name":"La Vie Claire","brand":"La Vie Claire","city":null,"address":null,"lat":48.8350005,"lon":-1.5516415},
{"name":"La Vie Claire","brand":"La Vie Claire","city":null,"address":null,"lat":46.4502051,"lon":-0.8051691},
{"name":"La Vie Claire","brand":"La Vie Claire","city":null,"address":null,"lat":46.6491297,"lon":-0.7237345},
{"name":"La Vie Claire","brand":"La Vie Claire","city":null,"address":null,"lat":47.3977899,"lon":0.7851188},
{"name":"La Vie Claire","brand":"La Vie Claire","city":null,"address":null,"lat":49.312997,"lon":-1.2614479},
{"name":"La Vie Claire","brand":"La Vie Claire","city":null,"address":"3 Rue Joseph Jacquard, 78120","lat":48.6242543,"lon":1.8295064},
{"name":"La Vie Claire","brand":"La Vie Claire","city":null,"address":null,"lat":44.7720292,"lon":-0.3342914},
{"name":"La Vie Claire","brand":"La Vie Claire","city":null,"address":"185 Avenue Aristide Briand","lat":49.0574965,"lon":1.1679641},
{"name":"La Vie Claire","brand":"La Vie Claire","city":null,"address":null,"lat":47.3708595,"lon":1.7388097},
{"name":"La Vie Claire","brand":"La Vie Claire","city":null,"address":null,"lat":48.6832322,"lon":2.1886237},
{"name":"La Vie Claire","brand":"La Vie Claire","city":null,"address":null,"lat":48.1895746,"lon":2.2491977},
{"name":"La Vie Claire","brand":"La Vie Claire","city":null,"address":null,"lat":44.8501946,"lon":0.5358426},
{"name":"La Vie Claire","brand":"La Vie Claire","city":"Mantes-la-Jolie","address":"42 Rue de Lorraine, 78200 Mantes-la-Jolie","lat":48.988768,"lon":1.7123211},
{"name":"La Vie Claire","brand":"La Vie Claire","city":null,"address":null,"lat":49.5393293,"lon":0.9615442},
{"name":"La Vie Claire","brand":"La Vie Claire","city":null,"address":null,"lat":45.1768785,"lon":1.5844305},
{"name":"La Vie Claire","brand":"La Vie Claire","city":null,"address":null,"lat":48.8545693,"lon":2.3381552},
{"name":"La Vie Claire","brand":"La Vie Claire","city":null,"address":null,"lat":48.8743551,"lon":2.3213129},
{"name":"La Vie Claire","brand":"La Vie Claire","city":null,"address":null,"lat":48.9805345,"lon":2.1831653},
{"name":"La Vie Claire","brand":"La Vie Claire","city":null,"address":"19 Rue du Gouverneur Général Éboué","lat":48.8266306,"lon":2.2714947},
{"name":"La Vie Claire","brand":"La Vie Claire","city":null,"address":null,"lat":48.7911957,"lon":2.2875136},
{"name":"La Vie Claire","brand":"La Vie Claire","city":null,"address":null,"lat":48.9463995,"lon":2.1506398},
{"name":"La Vie Claire","brand":"La Vie Claire","city":"Pontault-Combault","address":"Rue du Fort, 77340 Pontault-Combault","lat":48.7778879,"lon":2.6086628},
{"name":"La Vie Claire","brand":"La Vie Claire","city":"Le Perreux-sur-Marne","address":"74 Avenue Georges Clemenceau, 94170 Le Perreux-sur-Marne","lat":48.8422776,"lon":2.5040914},
{"name":"La Vie Claire","brand":"La Vie Claire","city":null,"address":"1 Rue de la Résistance, 93230","lat":48.882191,"lon":2.4330658},
{"name":"La Vie Claire","brand":"La Vie Claire","city":"Dammarie-les-Lys","address":"753 Avenue Marguerite Perey, 77190 Dammarie-les-Lys","lat":48.5066282,"lon":2.6085344},
{"name":"La Vie Claire","brand":"La Vie Claire","city":"Paris","address":"53 Rue Custine, 75018 Paris","lat":48.8894826,"lon":2.3437014},
{"name":"La Vie Claire","brand":"La Vie Claire","city":null,"address":null,"lat":48.9187439,"lon":2.3178081},
{"name":"La Vie Claire","brand":"La Vie Claire","city":null,"address":null,"lat":48.8046729,"lon":3.1005586},
{"name":"La Vie Claire","brand":"La Vie Claire","city":null,"address":null,"lat":44.4467217,"lon":1.4429749},
{"name":"La Vie Claire","brand":"La Vie Claire","city":null,"address":null,"lat":43.4817484,"lon":-1.5610039},
{"name":"La Vie Claire","brand":"La Vie Claire","city":null,"address":null,"lat":44.5028564,"lon":1.1844152},
{"name":"La Vie Claire","brand":"La Vie Claire","city":null,"address":null,"lat":44.1333595,"lon":0.3382467},
{"name":"La Vie Claire","brand":"La Vie Claire","city":null,"address":null,"lat":48.3681473,"lon":2.8433844},
{"name":"La Vie Claire","brand":"La Vie Claire","city":null,"address":null,"lat":47.9745435,"lon":3.5111691},
{"name":"La Vie Claire","brand":"La Vie Claire","city":null,"address":null,"lat":43.3480526,"lon":-1.7708754},
{"name":"La Vie Claire","brand":"La Vie Claire","city":null,"address":null,"lat":43.6510912,"lon":1.335125},
{"name":"Emmaüs 82","brand":"La Vie Claire","city":null,"address":"82000","lat":43.9955795,"lon":1.3363679},
{"name":"La Vie Claire","brand":"La Vie Claire","city":null,"address":null,"lat":49.0456759,"lon":3.4021071},
{"name":"La Vie Claire","brand":"La Vie Claire","city":null,"address":null,"lat":44.9127769,"lon":2.445359},
{"name":"La Vie Claire","brand":"La Vie Claire","city":null,"address":null,"lat":50.0021502,"lon":2.3141352},
{"name":"La Vie Claire","brand":"La Vie Claire","city":null,"address":null,"lat":45.7694259,"lon":4.850764},
{"name":"La Vie Claire","brand":"La Vie Claire","city":null,"address":null,"lat":44.3510918,"lon":2.5764972},
{"name":"La Vie Claire","brand":"La Vie Claire","city":null,"address":null,"lat":47.8785719,"lon":6.7661897},
{"name":"La Vie Claire","brand":"La Vie Claire","city":null,"address":null,"lat":46.2586395,"lon":6.0291085},
{"name":"La Vie Claire","brand":"La Vie Claire","city":null,"address":null,"lat":49.1645594,"lon":5.8437319},
{"name":"La Vie Claire","brand":"La Vie Claire","city":"Oyonnax","address":"6 Rue Élie Deschamps, 01100 Oyonnax","lat":46.2681355,"lon":5.654079},
{"name":"La Vie Claire Pays Lionnais","brand":"La Vie Claire","city":null,"address":null,"lat":47.6129915,"lon":-0.7063361},
{"name":"La Vie Claire","brand":"La Vie Claire","city":null,"address":"3 Rue du Commerce, 69700","lat":45.5826999,"lon":4.7480943},
{"name":"La Vie Claire","brand":"La Vie Claire","city":"La Roche-sur-Yon","address":"La Roche-sur-Yon","lat":46.6423736,"lon":-1.4360883},
{"name":"La Vie Claire","brand":"La Vie Claire","city":"Mably","address":"22 Rue de l'Artisanat, 42300 Mably","lat":46.0681814,"lon":4.0494242},
{"name":"La Vie Claire","brand":"La Vie Claire","city":null,"address":null,"lat":45.2862472,"lon":4.1590461},
{"name":"La Vie Claire","brand":"La Vie Claire","city":null,"address":null,"lat":47.1471503,"lon":6.34314},
{"name":"La Vie Claire","brand":"La Vie Claire","city":null,"address":null,"lat":45.7499076,"lon":4.8512177},
{"name":"La Vie Claire","brand":"La Vie Claire","city":null,"address":null,"lat":45.2947618,"lon":5.5088809},
{"name":"La Vie Claire","brand":"La Vie Claire","city":"Mâcon","address":"94 Route de Lyon, 71000 Mâcon","lat":46.2881942,"lon":4.8101334},
{"name":"La Vie Claire","brand":"La Vie Claire","city":"Annecy","address":"16 Rue de la Poterie, 74000 Annecy","lat":45.9059835,"lon":6.1128996},
{"name":"La Vie Claire","brand":"La Vie Claire","city":null,"address":null,"lat":43.5836057,"lon":7.1202781},
{"name":"La Vie Claire","brand":"La Vie Claire","city":null,"address":null,"lat":49.0273948,"lon":7.9631088},
{"name":"La Vie Claire","brand":"La Vie Claire","city":null,"address":null,"lat":43.7427961,"lon":7.4254973},
{"name":"La Vie Claire","brand":"La Vie Claire","city":null,"address":null,"lat":49.1201699,"lon":6.1878592},
{"name":"La Vie Claire","brand":"La Vie Claire","city":"Amancy","address":"596 Rue du Quarré, 74800 Amancy","lat":46.0747618,"lon":6.3143705},
{"name":"La Vie Claire","brand":"La Vie Claire","city":"Chambéry","address":"73000 Chambéry","lat":45.5677137,"lon":5.9218926},
{"name":"La Vie Claire","brand":"La Vie Claire","city":null,"address":"Avenue Charles de Gaulle","lat":45.7585382,"lon":4.7760136},
{"name":"La Vie Claire Lyon Université","brand":"La Vie Claire","city":null,"address":null,"lat":45.7490769,"lon":4.8419486},
{"name":"La Vie Claire","brand":"La Vie Claire","city":null,"address":"53 Avenue Philippe Auguste","lat":48.8527447,"lon":2.392924},
{"name":"La Vie Claire","brand":"La Vie Claire","city":null,"address":null,"lat":45.7443009,"lon":4.8699531},
{"name":"La Vie Claire","brand":"La Vie Claire","city":null,"address":null,"lat":45.9793634,"lon":4.7322165},
{"name":"La Vie Claire","brand":"La Vie Claire","city":null,"address":null,"lat":45.3842471,"lon":5.5795732},
{"name":"La Vie Claire","brand":"La Vie Claire","city":"Villeneuve-d'Ascq","address":"3 Rue de l'Attelage, 59493 Villeneuve-d'Ascq","lat":50.6244103,"lon":3.1594107},
{"name":"La Vie Claire","brand":"La Vie Claire","city":null,"address":null,"lat":48.8984874,"lon":2.2898844},
{"name":"La Vie Claire","brand":"La Vie Claire","city":"Pérols","address":"830 Avenue Georges Frêche, 34470 Pérols","lat":43.5743982,"lon":3.9408926},
{"name":"La Vie Claire","brand":"La Vie Claire","city":null,"address":null,"lat":45.980789,"lon":4.3339739},
{"name":"La Vie Claire","brand":"La Vie Claire","city":null,"address":null,"lat":45.8160943,"lon":4.8883306},
{"name":"La Vie Claire","brand":"La Vie Claire","city":"Rueil-Malmaison","address":"1 Rue Pierre Brossolette, 92500 Rueil-Malmaison","lat":48.8804679,"lon":2.1811022},
{"name":"La Vie Claire","brand":"La Vie Claire","city":null,"address":null,"lat":47.489976,"lon":3.9097457},
{"name":"La Vie Claire","brand":"La Vie Claire","city":"Gignac","address":"34150 Gignac","lat":43.651702,"lon":3.5436514},
{"name":"La Vie Claire","brand":"La Vie Claire","city":"Vabres-l'Abbaye","address":"12400 Vabres-l'Abbaye","lat":43.9533828,"lon":2.8482146},
{"name":"La Vie Claire","brand":"La Vie Claire","city":null,"address":null,"lat":48.5899527,"lon":2.2484711},
{"name":"La Vie Claire","brand":"La Vie Claire","city":null,"address":null,"lat":42.6526295,"lon":9.4421524},
{"name":"La Vie Claire","brand":"La Vie Claire","city":null,"address":null,"lat":43.917595,"lon":5.0494234},
{"name":"La Vie Claire","brand":"La Vie Claire","city":null,"address":null,"lat":45.7822474,"lon":4.8889878},
{"name":"La Vie Claire Bio","brand":"La Vie Claire","city":"Antony","address":"92160 Antony","lat":48.752044,"lon":2.3047295},
{"name":"La Vie Claire","brand":"La Vie Claire","city":"Montluçon","address":"59 Avenue Jules Guesde, 03100 Montluçon","lat":46.3397352,"lon":2.5844327},
{"name":"La Vie Claire","brand":"La Vie Claire","city":null,"address":null,"lat":49.5328715,"lon":0.1881562},
{"name":"La Vie Claire","brand":"La Vie Claire","city":"Bar-sur-Aube","address":"7 Boulevard Gambetta, 10200 Bar-sur-Aube","lat":48.2344584,"lon":4.7062333},
{"name":"La Vie Claire","brand":"La Vie Claire","city":null,"address":null,"lat":48.2382675,"lon":-4.4961007},
{"name":"La Vie Claire","brand":"La Vie Claire","city":null,"address":null,"lat":45.5177493,"lon":4.9210998},
{"name":"La Vie Claire","brand":"La Vie Claire","city":null,"address":"26 Route de Crémieu","lat":45.749242,"lon":5.1877054},
{"name":"La Vie Claire","brand":"La Vie Claire","city":null,"address":"17","lat":45.5567216,"lon":6.651442},
{"name":"La Vie Claire","brand":"La Vie Claire","city":"Paris","address":"194 Rue Lecourbe, 75015 Paris","lat":48.8406881,"lon":2.2961151},
{"name":"La Vie Claire","brand":"La Vie Claire","city":"La Queue-les-Yvelines","address":"Rue des Croix, La Queue-les-Yvelines","lat":48.8030552,"lon":1.7792497},
{"name":"La Vie Claire","brand":"La Vie Claire","city":null,"address":"35 Rue Saint-Jean, 49400","lat":47.2599645,"lon":-0.0768541},
{"name":"La Vie Claire","brand":"La Vie Claire","city":null,"address":null,"lat":42.7335636,"lon":2.8889102},
{"name":"La Vie Claire Lyon Challemel Lacour","brand":"La Vie Claire","city":null,"address":null,"lat":45.7298445,"lon":4.8310453},
{"name":"La Vie Claire","brand":"La Vie Claire","city":null,"address":null,"lat":41.6021214,"lon":9.276906},
{"name":"La Vie Claire","brand":"La Vie Claire","city":null,"address":null,"lat":45.4069845,"lon":1.5733833},
{"name":"La Vie Claire","brand":"La Vie Claire","city":null,"address":null,"lat":48.7866733,"lon":2.3667003},
{"name":"La Vie Claire","brand":"La Vie Claire","city":null,"address":null,"lat":48.8023887,"lon":2.0616303},
{"name":"La Vie Claire","brand":"La Vie Claire","city":null,"address":null,"lat":43.4078012,"lon":-1.621074},
{"name":"La Vie Claire","brand":"La Vie Claire","city":null,"address":null,"lat":42.6119015,"lon":8.8926907},
{"name":"La Vie Claire","brand":"La Vie Claire","city":"Dolus-d'Oléron","address":"Rue Gustave Eiffel, 17550 Dolus-d'Oléron","lat":45.9034261,"lon":-1.2606845},
{"name":"La Vie Claire","brand":"La Vie Claire","city":null,"address":"6 Rue Henri Seillon","lat":43.120801,"lon":5.932194},
{"name":"La Vie Claire","brand":"La Vie Claire","city":"La Destrousse","address":"Route des Vignerons, 13112 La Destrousse","lat":43.3838699,"lon":5.6019068},
{"name":"La Vie Claire","brand":"La Vie Claire","city":null,"address":null,"lat":47.3047574,"lon":0.7151408},
{"name":"La Vie Claire","brand":"La Vie Claire","city":null,"address":"Avenue Descartes","lat":49.40842,"lon":2.1167296},
{"name":"La Vie Claire Bio","brand":"La Vie Claire","city":null,"address":null,"lat":45.7616869,"lon":4.9183157},
{"name":"La Vie Claire","brand":"La Vie Claire","city":null,"address":null,"lat":48.8242948,"lon":2.5435138}
]