[
  {
    "name": "Naturéo Yerres",
    "city": "Yerres",
    "address": null,
    "lat": 48.7139515,
    "lon": 2.478557
  },
  {
    "name": "NaturéO",
    "city": null,
    "address": null,
    "lat": 49.1094531,
    "lon": 6.2333158
  },
  {
    "name": "naturéO Ballainvilliers",
    "city": null,
    "address": null,
    "lat": 48.6698915,
    "lon": 2.2846542
  },
  {
    "name": "naturéO",
    "city": null,
    "address": null,
    "lat": 48.9536303,
    "lon": 2.1956286
  },
  {
    "name": "NaturéO",
    "city": "Corbeil-Essonnes",
    "address": null,
    "lat": 48.6070427,
    "lon": 2.4504617
  },
  {
    "name": "Naturéo",
    "city": "Le Havre",
    "address": "81 Rue Claude Lévi-Strauss, 76620 Le Havre",
    "lat": 49.5255634,
    "lon": 0.0908941
  },
  {
    "name": "naturéO Livry-Gargan",
    "city": null,
    "address": null,
    "lat": 48.9254649,
    "lon": 2.5513772
  },
  {
    "name": "naturéO",
    "city": "Amilly",
    "address": "850 Rue de l'Europe, 45200 Amilly",
    "lat": 47.979525,
    "lon": 2.7296035
  },
  {
    "name": "NaturéO",
    "city": null,
    "address": null,
    "lat": 48.4313576,
    "lon": 1.4924736
  },
  {
    "name": "NaturéO",
    "city": "Soisy-sous-Montmorency",
    "address": null,
    "lat": 48.9912116,
    "lon": 2.2906151
  },
  {
    "name": "NaturéO",
    "city": null,
    "address": null,
    "lat": 49.4052845,
    "lon": 2.7824841
  },
  {
    "name": "Naturéo",
    "city": "La Chapelle-sur-Erdre",
    "address": null,
    "lat": 47.283829,
    "lon": -1.5528676
  },
  {
    "name": "naturéO Saulx-les-Chartreux",
    "city": null,
    "address": null,
    "lat": 48.6953408,
    "lon": 2.2836272
  },
  {
    "name": "Naturéo",
    "city": null,
    "address": null,
    "lat": 48.6457672,
    "lon": 1.8564125
  },
  {
    "name": "Naturéo Saint-Mard",
    "city": null,
    "address": null,
    "lat": 49.0390197,
    "lon": 2.6854043
  },
  {
    "name": "Naturéo",
    "city": null,
    "address": null,
    "lat": 48.9914153,
    "lon": 2.3638454
  },
  {
    "name": "Naturéo",
    "city": null,
    "address": null,
    "lat": 47.4672489,
    "lon": -0.5943731
  },
  {
    "name": "Naturéo",
    "city": "La Chapelle-d'Armentières",
    "address": "1 bis Rue Ambroise Paré, 59930 La Chapelle-d'Armentières",
    "lat": 50.6584331,
    "lon": 2.8939593
  },
  {
    "name": "Naturéo",
    "city": null,
    "address": null,
    "lat": 48.9281842,
    "lon": 1.9801557
  },
  {
    "name": "NaturéO",
    "city": "Louveciennes",
    "address": "8 Route de Saint-Germain, 78430 Louveciennes",
    "lat": 48.8711188,
    "lon": 2.1125621
  },
  {
    "name": "NaturéO",
    "city": null,
    "address": null,
    "lat": 48.6481481,
    "lon": 6.1833049
  },
  {
    "name": "Naturéo",
    "city": null,
    "address": null,
    "lat": 50.4737635,
    "lon": 3.2348221
  },
  {
    "name": "naturéO Dourdan",
    "city": null,
    "address": null,
    "lat": 48.5233013,
    "lon": 2.0217214
  },
  {
    "name": "Naturéo Magny-Les-Hameaux",
    "city": null,
    "address": null,
    "lat": 48.7247916,
    "lon": 2.0834016
  },
  {
    "name": "naturéO",
    "city": null,
    "address": null,
    "lat": 48.9105859,
    "lon": 6.039378
  }
]