[
{"name":"NORMA","brand":"NORMA","city":null,"address":null,"lat":48.3755809,"lon":7.6026776},
{"name":"Norma","brand":"NORMA","city":"Schiltigheim","address":"11 Rue d'Erstein, 67300 Schiltigheim","lat":48.610748,"lon":7.7385881},
{"name":"Norma","brand":"NORMA","city":null,"address":"33","lat":49.1235188,"lon":6.1830193},
{"name":"Norma","brand":"NORMA","city":null,"address":"33A Avenue de la Gare","lat":48.5016435,"lon":7.4846062},
{"name":"NORMA","brand":"NORMA","city":null,"address":null,"lat":49.217245,"lon":4.0436161},
{"name":"NORMA","brand":"NORMA","city":"Tinqueux","address":"5 Place Robert Lynen, 51430 Tinqueux","lat":49.2507738,"lon":3.9771416},
{"name":"Norma","brand":"NORMA","city":"L'Hôpital","address":"24 Rue de l'Église, 57490 L'Hôpital","lat":49.156822,"lon":6.7299897},
{"name":"Norma","brand":"NORMA","city":"Yutz","address":"123 Avenue des Nations, 57970 Yutz","lat":49.3624626,"lon":6.2000344},
{"name":"NORMA","brand":"NORMA","city":null,"address":null,"lat":49.3664092,"lon":6.1528213},
{"name":"NORMA","brand":"NORMA","city":"Macheren","address":"N3, 57730 Macheren","lat":49.109258,"lon":6.7388441},
{"name":"Norma","brand":"NORMA","city":null,"address":null,"lat":47.4713995,"lon":6.8334055},
{"name":"Norma","brand":"NORMA","city":null,"address":null,"lat":49.289212,"lon":6.5285368},
{"name":"Norma","brand":"NORMA","city":null,"address":null,"lat":49.1563941,"lon":6.1589314},
{"name":"Norma","brand":"NORMA","city":null,"address":null,"lat":48.5870463,"lon":6.4844085},
{"name":"NORMA","brand":"NORMA","city":null,"address":null,"lat":48.5863129,"lon":6.5115174},
{"name":"Norma","brand":"NORMA","city":null,"address":"3","lat":48.2965791,"lon":6.1330431},
{"name":"NORMA","brand":"NORMA","city":null,"address":null,"lat":48.9017659,"lon":8.1097168},
{"name":"NORMA","brand":"NORMA","city":null,"address":null,"lat":48.4695236,"lon":7.7226913},
{"name":"Norma","brand":"NORMA","city":null,"address":null,"lat":48.6322131,"lon":6.3085231},
{"name":"Norma","brand":"NORMA","city":null,"address":null,"lat":48.6722235,"lon":5.928373},
{"name":"NORMA","brand":"NORMA","city":null,"address":null,"lat":48.2752714,"lon":6.9629107},
{"name":"Norma","brand":"NORMA","city":null,"address":null,"lat":48.7320451,"lon":4.5904751},
{"name":"Norma","brand":"NORMA","city":null,"address":null,"lat":48.9885473,"lon":7.0268274},
{"name":"NORMA","brand":"NORMA","city":"Obernai","address":"25 Rue du Maréchal Koenig, 67210 Obernai","lat":48.4577596,"lon":7.4942331},
{"name":"NORMA","brand":"NORMA","city":null,"address":null,"lat":49.405781,"lon":6.1547535},
{"name":"NORMA","brand":"NORMA","city":"Strasbourg","address":"9 Rue Saint-Michel, 67000 Strasbourg","lat":48.5814116,"lon":7.7362298},
{"name":"NORMA","brand":"NORMA","city":null,"address":null,"lat":48.8204134,"lon":7.9652658},
{"name":"NORMA","brand":"NORMA","city":null,"address":null,"lat":49.0755669,"lon":6.693912},
{"name":"Norma","brand":"NORMA","city":null,"address":null,"lat":48.768365,"lon":7.2366439},
{"name":"NORMA","brand":"NORMA","city":"Sarrebourg","address":"3 Terrasse Porte des Vosges, Sarrebourg","lat":48.7144505,"lon":7.0453392},
{"name":"NORMA","brand":"NORMA","city":null,"address":null,"lat":49.1439594,"lon":6.814697},
{"name":"NORMA","brand":"NORMA","city":"Grosbliederstroff","address":"20 Avenue Marchande, 57520 Grosbliederstroff","lat":49.1342986,"lon":7.0416079},
{"name":"Norma","brand":"NORMA","city":null,"address":null,"lat":47.8978124,"lon":7.2223092},
{"name":"NORMA","brand":"NORMA","city":null,"address":null,"lat":47.6899479,"lon":6.50437},
{"name":"NORMA","brand":"NORMA","city":null,"address":null,"lat":45.9987892,"lon":4.7346748},
{"name":"NORMA","brand":"NORMA","city":null,"address":null,"lat":47.7208822,"lon":7.3004306},
{"name":"NORMA","brand":"NORMA","city":null,"address":null,"lat":47.8710446,"lon":7.3512256},
{"name":"Norma","brand":"NORMA","city":null,"address":null,"lat":49.1182071,"lon":6.8803733},
{"name":"Norma","brand":"NORMA","city":"Wissembourg","address":"2 Rue du Pré aux Castors, 67160 Wissembourg","lat":49.028754,"lon":7.9608017},
{"name":"NORMA","brand":"NORMA","city":null,"address":"5 Rue Notre-Dame-de-Lorette, 88110","lat":48.4057635,"lon":6.8504061},
{"name":"NORMA","brand":"NORMA","city":"Strasbourg","address":"27 Rue des Frères, 67000 Strasbourg","lat":48.5830279,"lon":7.7533343},
{"name":"NORMA","brand":"NORMA","city":null,"address":null,"lat":48.5816992,"lon":7.7437207},
{"name":"NORMA","brand":"NORMA","city":null,"address":"307 Rue Nationale, 57600","lat":49.1775649,"lon":6.8822614},
{"name":"Norma","brand":"NORMA","city":null,"address":null,"lat":48.8304945,"lon":7.7458691},
{"name":"NORMA","brand":"NORMA","city":null,"address":null,"lat":47.280362,"lon":5.9919765},
{"name":"Norma","brand":"NORMA","city":null,"address":null,"lat":48.0778191,"lon":7.3313329},
{"name":"Norma","brand":"NORMA","city":null,"address":null,"lat":48.7669109,"lon":6.0575424},
{"name":"NORMA","brand":"NORMA","city":null,"address":null,"lat":47.5833769,"lon":6.7749455},
{"name":"NORMA","brand":"NORMA","city":null,"address":null,"lat":48.341022,"lon":7.3117954},
{"name":"NORMA","brand":"NORMA","city":null,"address":null,"lat":47.7504642,"lon":7.3693089},
{"name":"NORMA","brand":"NORMA","city":null,"address":null,"lat":47.7660308,"lon":7.3605837},
{"name":"NORMA","brand":"NORMA","city":null,"address":null,"lat":48.7115268,"lon":7.7074768},
{"name":"NORMA","brand":"NORMA","city":null,"address":null,"lat":47.4988314,"lon":6.8007007},
{"name":"NORMA","brand":"NORMA","city":null,"address":"rue de clairvivre","lat":48.5493772,"lon":7.7664624},
{"name":"NORMA","brand":"NORMA","city":null,"address":null,"lat":48.6486886,"lon":6.153003},
{"name":"NORMA","brand":"NORMA","city":null,"address":null,"lat":48.6659898,"lon":6.183494},
{"name":"NORMA","brand":"NORMA","city":"Epinal","address":"46 Rue de la Bazaine, 88000 Epinal","lat":48.200006,"lon":6.4675865},
{"name":"Nom inconnu","brand":"NORMA","city":null,"address":null,"lat":47.8196288,"lon":7.307071}
]