[
  {
    "name": "Géant Casino",
    "city": null,
    "address": null,
    "lat": -22.2752843,
    "lon": 166.4584794
  },
  {
    "name": "Géant Casino",
    "city": null,
    "address": null,
    "lat": 45.16757,
    "lon": 1.5622448
  },
  {
    "name": "Géant Casino",
    "city": null,
    "address": null,
    "lat": 48.5209545,
    "lon": -2.7902531
  },
  {
    "name": "Netto",
    "city": null,
    "address": null,
    "lat": 43.1955205,
    "lon": 5.611498
  },
  {
    "name": "Carrefour Market",
    "city": null,
    "address": null,
    "lat": 43.418508,
    "lon": 5.2347825
  },
  {
    "name": "Géant Casino",
    "city": null,
    "address": null,
    "lat": 41.9491084,
    "lon": 8.7767055
  },
  {
    "name": "Hyper U",
    "city": null,
    "address": null,
    "lat": -21.2726251,
    "lon": 55.5080521
  },
  {
    "name": "Géant Casino",
    "city": null,
    "address": null,
    "lat": 43.2958681,
    "lon": 5.4760597
  },
  {
    "name": "Géant Casino",
    "city": "Marseille",
    "address": null,
    "lat": 43.3253771,
    "lon": 5.4184492
  },
  {
    "name": "Géant Casino",
    "city": null,
    "address": null,
    "lat": 48.9271001,
    "lon": 2.4169767
  },
  {
    "name": "Géant Casino Drive",
    "city": null,
    "address": null,
    "lat": 49.6856109,
    "lon": 4.9743846
  },
  {
    "name": "Carrefour",
    "city": null,
    "address": null,
    "lat": 47.7764952,
    "lon": -3.3426611
  }
]