[
  {
    "name": "Carrefour Montagne",
    "city": null,
    "address": null,
    "lat": 45.5351764,
    "lon": 6.6373604
  },
  {
    "name": "Carrefour Montagne Les Gets",
    "city": "Les Gets",
    "address": "548 Rue du Centre, 74260 Les Gets",
    "lat": 46.1574244,
    "lon": 6.6670758
  },
  {
    "name": "Carrefour Montagne",
    "city": null,
    "address": null,
    "lat": 42.9111947,
    "lon": 0.177548
  },
  {
    "name": "Carrefour Montagne Saint-Chaffrey",
    "city": null,
    "address": null,
    "lat": 44.9331987,
    "lon": 6.5895559
  },
  {
    "name": "Carrefour Montagne",
    "city": null,
    "address": null,
    "lat": 45.0093227,
    "lon": 6.1231112
  },
  {
    "name": "Carrefour Montagne",
    "city": null,
    "address": null,
    "lat": 42.8891818,
    "lon": -0.1141636
  }
]