[
  {
    "name": "CocciMarket",
    "city": null,
    "address": null,
    "lat": 48.228196,
    "lon": -1.03609
  },
  {
    "name": "Coccimarket",
    "city": null,
    "address": null,
    "lat": 49.7066922,
    "lon": 0.9648521
  },
  {
    "name": "Coccinelle",
    "city": null,
    "address": null,
    "lat": 46.2481776,
    "lon": 4.7848187
  },
  {
    "name": "Cocci Market",
    "city": null,
    "address": null,
    "lat": 47.5810907,
    "lon": -2.3572253
  },
  {
    "name": "CocciMarket",
    "city": null,
    "address": null,
    "lat": 47.6037085,
    "lon": 0.5942577
  },
  {
    "name": "CocciMarket",
    "city": null,
    "address": null,
    "lat": 48.8981958,
    "lon": 2.0936666
  },
  {
    "name": "CocciMarket",
    "city": null,
    "address": null,
    "lat": 48.7242592,
    "lon": -1.168647
  },
  {
    "name": "CocciMarket",
    "city": null,
    "address": null,
    "lat": 48.5885829,
    "lon": -1.6586348
  },
  {
    "name": "Coccimarket",
    "city": null,
    "address": null,
    "lat": 48.3393088,
    "lon": 2.7000453
  },
  {
    "name": "CocciMarket",
    "city": null,
    "address": null,
    "lat": 46.745463,
    "lon": -1.9105174
  },
  {
    "name": "CocciMarket",
    "city": null,
    "address": null,
    "lat": 46.7206917,
    "lon": -1.1806735
  },
  {
    "name": "CocciMarket",
    "city": null,
    "address": null,
    "lat": 48.4476412,
    "lon": 0.254645
  },
  {
    "name": "Coccimarket",
    "city": "Coudekerque-Branche",
    "address": "44 Rue de l'Ancienne Mairie, 59210 Coudekerque-Branche",
    "lat": 51.0274306,
    "lon": 2.3918022
  }
]