[
{"name":"Netto","brand":"Netto","city":null,"address":null,"lat":43.8078101,"lon":4.2335489},
{"name":"Netto","brand":"Netto","city":null,"address":null,"lat":48.4042904,"lon":-4.4990771},
{"name":"Netto","brand":"Netto","city":null,"address":null,"lat":45.6273449,"lon":0.1543501},
{"name":"Netto","brand":"Netto","city":null,"address":null,"lat":45.4410262,"lon":1.5599901},
{"name":"Netto","brand":"Netto","city":null,"address":null,"lat":44.1105338,"lon":0.8892712},
{"name":"Netto","brand":"Netto","city":null,"address":null,"lat":47.4082231,"lon":0.9715666},
{"name":"Netto","brand":"Netto","city":null,"address":null,"lat":47.9757502,"lon":3.4149879},
{"name":"Netto","brand":"Netto","city":null,"address":null,"lat":45.2638355,"lon":5.9121219},
{"name":"Netto","brand":"Netto","city":null,"address":null,"lat":45.1643025,"lon":1.5588966},
{"name":"Netto","brand":"Netto","city":null,"address":null,"lat":43.182392,"lon":-0.6189836},
{"name":"Netto","brand":"Netto","city":"Thuir","address":"1 Avenue de la Côte Vermeille, 66300 Thuir","lat":42.6319822,"lon":2.7611225},
{"name":"Netto","brand":"Netto","city":null,"address":null,"lat":43.6686457,"lon":1.3670281},
{"name":"Netto","brand":"Netto","city":null,"address":null,"lat":45.254656,"lon":1.7597831},
{"name":"Netto","brand":"Netto","city":null,"address":null,"lat":48.655696,"lon":-4.1808256},
{"name":"Netto","brand":"Netto","city":"Saint-Paul-lès-Dax","address":"1795 Avenue de la Résistance, 40990 Saint-Paul-lès-Dax","lat":43.7256754,"lon":-1.0740988},
{"name":"Netto","brand":"Netto","city":null,"address":null,"lat":44.5151123,"lon":2.8040864},
{"name":"Netto","brand":"Netto","city":"Choisy-le-Roi","address":"2 Avenue Jean Jaurès, 94600 Choisy-le-Roi","lat":48.7663309,"lon":2.4100159},
{"name":"Netto","brand":"Netto","city":"Mende","address":"2 Route du Chapitre, 48000 Mende","lat":44.5174548,"lon":3.4874443},
{"name":"Netto","brand":"Netto","city":null,"address":null,"lat":46.6328951,"lon":1.0612819},
{"name":"Netto","brand":"Netto","city":null,"address":null,"lat":45.9625086,"lon":5.3422314},
{"name":"Netto","brand":"Netto","city":null,"address":null,"lat":45.7480135,"lon":-0.6234164},
{"name":"Netto","brand":"Netto","city":null,"address":null,"lat":43.6528568,"lon":6.9473359},
{"name":"Netto","brand":"Netto","city":null,"address":"10 Avenue de la Gare","lat":44.6129751,"lon":4.3927508},
{"name":"Netto","brand":"Netto","city":null,"address":"Rue Vandesmet","lat":50.8270721,"lon":2.2086822},
{"name":"Netto","brand":"Netto","city":"Bellac","address":"33 rue pierre merlin, 87300 Bellac","lat":46.1266036,"lon":1.0526166},
{"name":"Netto","brand":"Netto","city":null,"address":null,"lat":47.3409357,"lon":0.724077},
{"name":"Netto","brand":"Netto","city":"Creysse","address":"135 Avenue de la Roque, 24100 Creysse","lat":44.8487392,"lon":0.5359803},
{"name":"Netto","brand":"Netto","city":null,"address":"ZAC de Pré de Planche","lat":46.2470404,"lon":6.0823957},
{"name":"Netto","brand":"Netto","city":null,"address":null,"lat":44.7453653,"lon":-1.1027121},
{"name":"Netto","brand":"Netto","city":"Saint-Jeoire","address":"191 route de Montrenaz, 74490 Saint-Jeoire","lat":46.1350022,"lon":6.4634264},
{"name":"Netto","brand":"Netto","city":null,"address":null,"lat":44.157649,"lon":4.6135501},
{"name":"Netto","brand":"Netto","city":null,"address":null,"lat":47.785167,"lon":-3.3383895},
{"name":"Netto","brand":"Netto","city":"Saint-Yrieix-la-Perche","address":"56 Avenue de Périgueux, 87500 Saint-Yrieix-la-Perche","lat":45.4998974,"lon":1.1991354},
{"name":"Netto","brand":"Netto","city":"Saône","address":"Rue du Chenau Blond, 25660 Saône","lat":47.2074271,"lon":6.1036902},
{"name":"Netto","brand":"Netto","city":null,"address":null,"lat":46.9931431,"lon":-1.820832},
{"name":"Netto","brand":"Netto","city":"Agde","address":"Route de Sète, 34300 Agde","lat":43.3071765,"lon":3.4947388},
{"name":"Netto","brand":"Netto","city":null,"address":null,"lat":44.1342751,"lon":4.8168106},
{"name":"Netto","brand":"Netto","city":null,"address":null,"lat":48.0032892,"lon":3.7274348},
{"name":"Netto","brand":"Netto","city":"Avrillé","address":"216 Avenue Pierre Mendès France, 49240 Avrillé","lat":47.511026,"lon":-0.5943373},
{"name":"Netto","brand":"Netto","city":"La Côte-Saint-André","address":"45 Avenue Aristide Briand, 38260 La Côte-Saint-André","lat":45.3936942,"lon":5.2529357},
{"name":"Netto","brand":"Netto","city":null,"address":"1 Avenue Kennedy, 30130","lat":44.2604123,"lon":4.6479639},
{"name":"Netto","brand":"Netto","city":null,"address":"146 Route de Coulonges","lat":46.3430824,"lon":-0.4747085},
{"name":"Netto","brand":"Netto","city":"Cambo-les-Bains","address":"Avenue d'Espagne, 64250 Cambo-les-Bains","lat":43.3554658,"lon":-1.4128918},
{"name":"Netto","brand":"Netto","city":null,"address":null,"lat":44.532228,"lon":4.7452659},
{"name":"Netto","brand":"Netto","city":null,"address":null,"lat":47.3965094,"lon":0.744505},
{"name":"Netto","brand":"Netto","city":null,"address":null,"lat":45.186443,"lon":0.7042414},
{"name":"Netto","brand":"Netto","city":"Elne","address":"6 boulevard Jacques Albert, 66200 Elne","lat":42.6047161,"lon":2.9785049},
{"name":"Netto","brand":"Netto","city":null,"address":null,"lat":47.4971238,"lon":6.9112725},
{"name":"Netto","brand":"Netto","city":null,"address":null,"lat":44.5404322,"lon":-0.2411865},
{"name":"Netto","brand":"Netto","city":null,"address":null,"lat":48.5729621,"lon":-3.8340476},
{"name":"Netto","brand":"Netto","city":null,"address":null,"lat":48.6213814,"lon":-3.2960738},
{"name":"Netto","brand":"Netto","city":"Orange","address":"Rue d'Espagne, Orange","lat":44.1181488,"lon":4.8391551},
{"name":"Netto","brand":"Netto","city":null,"address":null,"lat":45.7131421,"lon":4.8794432},
{"name":"Netto","brand":"Netto","city":null,"address":"Rue des Troènes","lat":43.5365101,"lon":3.8582539},
{"name":"Netto","brand":"Netto","city":null,"address":null,"lat":46.4602197,"lon":-1.1469267},
{"name":"Netto","brand":"Netto","city":null,"address":null,"lat":44.4684422,"lon":1.4302647},
{"name":"Netto","brand":"Netto","city":"Lavaur","address":"81500 Lavaur","lat":43.6962566,"lon":1.8168881},
{"name":"Netto","brand":"Netto","city":null,"address":null,"lat":47.4542292,"lon":5.5911995},
{"name":"Netto","brand":"Netto","city":null,"address":null,"lat":43.5890547,"lon":4.9943874},
{"name":"Netto","brand":"Netto","city":null,"address":null,"lat":48.0420068,"lon":-1.7062698},
{"name":"Netto","brand":"Netto","city":null,"address":null,"lat":45.7763286,"lon":-0.0570661},
{"name":"Netto","brand":"Netto","city":"Poitiers","address":"86000 Poitiers","lat":46.5766783,"lon":0.3732842},
{"name":"Netto","brand":"Netto","city":null,"address":"25410","lat":47.1866361,"lon":5.8224922},
{"name":"Netto","brand":"Netto","city":"Rochefort","address":"4 Rue de Villeneuve Montigny, 17300 Rochefort","lat":45.9546115,"lon":-0.9783855},
{"name":"Netto","brand":"Netto","city":"Le Teil","address":"14 Rue Louis Lacrotte, 07400 Le Teil","lat":44.552816,"lon":4.6882285},
{"name":"Netto","brand":"Netto","city":null,"address":null,"lat":44.535294,"lon":4.687085},
{"name":"Netto","brand":"Netto","city":"Charleville-Mézières","address":"52 Rue de Warcq, 08000 Charleville-Mézières","lat":49.765032,"lon":4.698027},
{"name":"Netto","brand":"Netto","city":null,"address":null,"lat":49.78003,"lon":4.7104615},
{"name":"Netto","brand":"Netto","city":"Crépy-en-Valois","address":"Rue Henri Laroche, 60800 Crépy-en-Valois","lat":49.2234195,"lon":2.906287},
{"name":"Netto","brand":"Netto","city":"Le Thor","address":"150 Chemin Saint-Michel, 84250 Le Thor","lat":43.9281818,"lon":4.998853},
{"name":"Netto","brand":"Netto","city":null,"address":null,"lat":45.0679919,"lon":4.8483334},
{"name":"Netto","brand":"Netto","city":null,"address":null,"lat":46.0683772,"lon":4.0499646},
{"name":"Netto","brand":"Netto","city":null,"address":null,"lat":44.3226071,"lon":3.0633804},
{"name":"Netto","brand":"Netto","city":null,"address":null,"lat":48.187096,"lon":3.3165075},
{"name":"Netto","brand":"Netto","city":"Renage","address":"Route de Rives, 38140 Renage","lat":45.3423915,"lon":5.494298},
{"name":"Netto","brand":"Netto","city":null,"address":null,"lat":43.5933637,"lon":3.1303045},
{"name":"Netto","brand":"Netto","city":"Gardanne","address":"8 Avenue Jean Macé, 13120 Gardanne","lat":43.4536994,"lon":5.4707404},
{"name":"Netto","brand":"Netto","city":null,"address":"11 Avenue du Maquis Morvan","lat":44.3108631,"lon":5.8232288},
{"name":"Netto","brand":"Netto","city":"Castelnau-le-Lez","address":"1001 Avenue du Jeu de Mail, 34170 Castelnau-le-Lez","lat":43.6315855,"lon":3.907713},
{"name":"Netto","brand":"Netto","city":null,"address":null,"lat":47.376139,"lon":1.7353255},
{"name":"Netto","brand":"Netto","city":null,"address":null,"lat":45.7941876,"lon":3.2284631},
{"name":"Netto","brand":"Netto","city":null,"address":null,"lat":50.4383185,"lon":3.058458},
{"name":"Netto","brand":"Netto","city":null,"address":null,"lat":46.077381,"lon":6.3047075},
{"name":"Netto","brand":"Netto","city":null,"address":"Zone de la Louvade, 34130","lat":43.6252825,"lon":4.0148495},
{"name":"Netto","brand":"Netto","city":null,"address":null,"lat":43.6700999,"lon":4.4207528},
{"name":"Netto","brand":"Netto","city":"Saint-Sever","address":"40500 Saint-Sever","lat":43.771805,"lon":-0.5703875},
{"name":"Netto","brand":"Netto","city":null,"address":null,"lat":48.7401195,"lon":-3.4468915},
{"name":"Netto","brand":"Netto","city":null,"address":null,"lat":48.5649016,"lon":2.4477117},
{"name":"Netto","brand":"Netto","city":null,"address":null,"lat":47.890926,"lon":-3.9169185},
{"name":"Netto","brand":"Netto","city":null,"address":"Rue de Charmillon","lat":45.351107,"lon":5.9479375},
{"name":"Netto","brand":"Netto","city":null,"address":null,"lat":47.5214904,"lon":-0.4474062},
{"name":"Netto","brand":"Netto","city":null,"address":null,"lat":43.531248,"lon":6.4450695},
{"name":"Netto","brand":"Netto","city":null,"address":null,"lat":43.209909,"lon":0.076742},
{"name":"Netto","brand":"Netto","city":null,"address":null,"lat":43.2332435,"lon":0.0632525},
{"name":"Netto","brand":"Netto","city":null,"address":null,"lat":48.578638,"lon":2.258392},
{"name":"Netto","brand":"Netto","city":null,"address":null,"lat":46.8031091,"lon":4.4547909},
{"name":"Netto","brand":"Netto","city":null,"address":null,"lat":47.6523605,"lon":-2.73208},
{"name":"Netto","brand":"Netto","city":null,"address":null,"lat":46.7554191,"lon":4.4755753},
{"name":"Netto","brand":"Netto","city":"Nevers","address":"58000 Nevers","lat":47.0043785,"lon":3.153157},
{"name":"Netto","brand":"Netto","city":null,"address":null,"lat":46.7628846,"lon":4.8442949},
{"name":"Netto","brand":"Netto","city":null,"address":null,"lat":46.633976,"lon":4.8746428},
{"name":"Netto","brand":"Netto","city":null,"address":null,"lat":43.463518,"lon":2.004979},
{"name":"Netto","brand":"Netto","city":null,"address":null,"lat":45.6547845,"lon":4.231709},
{"name":"Netto","brand":"Netto","city":null,"address":"Avenue du Commandant Viala","lat":44.12772,"lon":4.080633},
{"name":"Netto","brand":"Netto","city":null,"address":null,"lat":48.5693455,"lon":2.1607018},
{"name":"Netto","brand":"Netto","city":"Saint-Barthélemy-d'Anjou","address":"31 Rue de Malmouche, 49000 Saint-Barthélemy-d'Anjou","lat":47.4683077,"lon":-0.518201},
{"name":"Netto","brand":"Netto","city":null,"address":null,"lat":48.4911445,"lon":-2.7644075},
{"name":"Netto","brand":"Netto","city":null,"address":null,"lat":48.2724723,"lon":-3.5722754},
{"name":"Netto","brand":"Netto","city":null,"address":null,"lat":48.8998708,"lon":6.044396},
{"name":"Netto","brand":"Netto","city":null,"address":"Boulevard Robert Schuman","lat":48.9282637,"lon":2.5484935},
{"name":"Netto","brand":"Netto","city":null,"address":null,"lat":43.1259425,"lon":5.899603},
{"name":"Netto","brand":"Netto","city":null,"address":null,"lat":49.7822289,"lon":1.7605866},
{"name":"Netto","brand":"Netto","city":null,"address":null,"lat":43.4011866,"lon":-0.3678084},
{"name":"Netto","brand":"Netto","city":null,"address":"49400","lat":47.278166,"lon":-0.067094},
{"name":"Netto","brand":"Netto","city":null,"address":null,"lat":45.9268925,"lon":2.8273},
{"name":"Netto","brand":"Netto","city":null,"address":"19","lat":43.2627263,"lon":5.4024502},
{"name":"Netto","brand":"Netto","city":null,"address":null,"lat":44.1431445,"lon":5.9652925},
{"name":"Netto","brand":"Netto","city":null,"address":null,"lat":43.4943195,"lon":-1.4969585},
{"name":"Netto","brand":"Netto","city":null,"address":null,"lat":44.8124275,"lon":4.788119},
{"name":"Netto","brand":"Netto","city":null,"address":null,"lat":46.267856,"lon":5.6551775},
{"name":"Netto","brand":"Netto","city":null,"address":null,"lat":49.0623364,"lon":3.3937564},
{"name":"Netto","brand":"Netto","city":null,"address":null,"lat":47.8870318,"lon":-4.0295889},
{"name":"Netto","brand":"Netto","city":null,"address":null,"lat":43.112233,"lon":0.7673495},
{"name":"Netto","brand":"Netto","city":"Brioude","address":"Avenue Léon Blum, 43100 Brioude","lat":45.290218,"lon":3.3873072},
{"name":"Netto","brand":"Netto","city":"Courpière","address":"85 Avenue de Thiers, 63120 Courpière","lat":45.7623895,"lon":3.53945},
{"name":"Netto","brand":"Netto","city":null,"address":null,"lat":44.588396,"lon":-0.032592},
{"name":"Netto","brand":"Netto","city":null,"address":null,"lat":49.048945,"lon":3.9547515},
{"name":"Netto","brand":"Netto","city":"Saint-Quay-Portrieux","address":"Rue Pierre Loti, 22410 Saint-Quay-Portrieux","lat":48.6588486,"lon":-2.8570931},
{"name":"Netto","brand":"Netto","city":null,"address":"40","lat":45.6057465,"lon":4.0741582},
{"name":"Netto","brand":"Netto","city":null,"address":null,"lat":43.1243218,"lon":5.8241362},
{"name":"Netto","brand":"Netto","city":null,"address":null,"lat":46.9097825,"lon":4.754573},
{"name":"Netto","brand":"Netto","city":null,"address":null,"lat":43.4134772,"lon":5.3548569},
{"name":"Netto","brand":"Netto","city":null,"address":null,"lat":47.681721,"lon":-2.735722},
{"name":"Netto","brand":"Netto","city":null,"address":null,"lat":44.3771268,"lon":4.7035533},
{"name":"Netto","brand":"Netto","city":null,"address":null,"lat":45.5300495,"lon":2.1426096},
{"name":"Netto","brand":"Netto","city":null,"address":null,"lat":47.0943882,"lon":2.4481141},
{"name":"Netto","brand":"Netto","city":null,"address":null,"lat":49.3487795,"lon":0.52984},
{"name":"Netto","brand":"Netto","city":null,"address":null,"lat":46.7963786,"lon":1.706285},
{"name":"Netto","brand":"Netto","city":"Ille-sur-Têt","address":"6 Route de Prades, 66130 Ille-sur-Têt","lat":42.6678976,"lon":2.6140035},
{"name":"Netto","brand":"Netto","city":"Péronne","address":"4 Rue de Madrid, 80200 Péronne","lat":49.9410085,"lon":2.9295065},
{"name":"Netto","brand":"Netto","city":"Gaillard","address":"97 Rue de Genève, 74240 Gaillard","lat":46.1909334,"lon":6.215138},
{"name":"Netto","brand":"Netto","city":null,"address":"Route de Romans, 26260","lat":45.1206969,"lon":4.98594},
{"name":"Netto","brand":"Netto","city":null,"address":null,"lat":47.644603,"lon":6.7825785},
{"name":"Netto","brand":"Netto","city":null,"address":null,"lat":47.105389,"lon":2.3879824},
{"name":"Netto","brand":"Netto","city":null,"address":null,"lat":43.3482511,"lon":-0.2557333},
{"name":"Netto","brand":"Netto","city":null,"address":null,"lat":49.706591,"lon":2.7747855},
{"name":"Netto","brand":"Netto","city":null,"address":null,"lat":48.75578,"lon":5.5874442},
{"name":"Netto","brand":"Netto","city":null,"address":null,"lat":46.2053185,"lon":4.316664},
{"name":"Netto","brand":"Netto","city":null,"address":null,"lat":45.4262915,"lon":5.7576745},
{"name":"Netto","brand":"Netto","city":null,"address":null,"lat":46.2049855,"lon":5.199216},
{"name":"Netto","brand":"Netto","city":null,"address":null,"lat":44.0416565,"lon":2.1666185},
{"name":"Netto","brand":"Netto","city":null,"address":null,"lat":46.7860697,"lon":4.9105466},
{"name":"Netto","brand":"Netto","city":null,"address":"Impasse de l'Europe, 76280","lat":49.6434619,"lon":0.2748705},
{"name":"Netto","brand":"Netto","city":null,"address":null,"lat":43.3852935,"lon":3.476946},
{"name":"Netto","brand":"Netto","city":null,"address":null,"lat":43.1316363,"lon":0.9342763},
{"name":"Netto","brand":"Netto","city":null,"address":null,"lat":47.3752468,"lon":-0.1018131},
{"name":"Netto","brand":"Netto","city":null,"address":null,"lat":50.4768955,"lon":3.0039185},
{"name":"Netto","brand":"Netto","city":"Courrières","address":"120 Rue Roger Salengro, 62710 Courrières","lat":50.460415,"lon":2.9602745},
{"name":"Netto","brand":"Netto","city":"Beaufort-en-Anjou","address":"Boulevard de la Prévôté, 49250 Beaufort-en-Anjou","lat":47.4356675,"lon":-0.2267695},
{"name":"Netto","brand":"Netto","city":null,"address":null,"lat":50.5086245,"lon":2.7214585},
{"name":"Netto","brand":"Netto","city":null,"address":null,"lat":43.3670961,"lon":3.0506419},
{"name":"Netto","brand":"Netto","city":null,"address":null,"lat":49.3236912,"lon":5.937323},
{"name":"Netto","brand":"Netto","city":null,"address":null,"lat":43.611371,"lon":3.8043295},
{"name":"Netto","brand":"Netto","city":null,"address":null,"lat":47.5206137,"lon":-2.2835184},
{"name":"Netto","brand":"Netto","city":null,"address":null,"lat":45.7492015,"lon":-0.6466855},
{"name":"Netto","brand":"Netto","city":null,"address":"5 Rue Martin Lejeas","lat":47.1810701,"lon":5.1580257},
{"name":"Netto","brand":"Netto","city":"Biganos","address":"323, 33380 Biganos","lat":44.6379127,"lon":-0.9558477},
{"name":"Netto","brand":"Netto","city":null,"address":null,"lat":44.8994903,"lon":1.4741265},
{"name":"Netto","brand":"Netto","city":null,"address":null,"lat":49.9893972,"lon":2.260629},
{"name":"Netto","brand":"Netto","city":null,"address":null,"lat":49.9554027,"lon":1.7690223},
{"name":"Netto","brand":"Netto","city":null,"address":null,"lat":48.9727144,"lon":3.2764751},
{"name":"Netto","brand":"Netto","city":null,"address":null,"lat":43.3524001,"lon":-1.5499784},
{"name":"Netto","brand":"Netto","city":null,"address":null,"lat":47.9178125,"lon":-3.335913},
{"name":"Netto","brand":"Netto","city":null,"address":null,"lat":44.7245573,"lon":3.8613522},
{"name":"Netto","brand":"Netto","city":null,"address":null,"lat":47.8312602,"lon":-0.3131513},
{"name":"Netto","brand":"Netto","city":null,"address":null,"lat":45.3127451,"lon":-0.9461086},
{"name":"Netto","brand":"Netto","city":null,"address":null,"lat":46.8366191,"lon":2.9311706},
{"name":"Netto","brand":"Netto","city":null,"address":null,"lat":44.7810441,"lon":-0.6892192},
{"name":"Netto","brand":"Netto","city":null,"address":null,"lat":45.0378797,"lon":0.3537269},
{"name":"Netto","brand":"Netto","city":null,"address":null,"lat":45.7379085,"lon":4.0125515},
{"name":"Netto","brand":"Netto","city":null,"address":null,"lat":45.427116,"lon":4.741564},
{"name":"Netto","brand":"Netto","city":null,"address":"11 Place Michelet, 78800","lat":48.9242568,"lon":2.1873905},
{"name":"Netto","brand":"Netto","city":null,"address":null,"lat":47.8909728,"lon":0.0408734},
{"name":"Netto","brand":"Netto","city":null,"address":null,"lat":48.1732105,"lon":-2.7534055},
{"name":"Netto","brand":"Netto","city":null,"address":null,"lat":48.1751015,"lon":-2.745881},
{"name":"Netto","brand":"Netto","city":null,"address":"Rue Faubourg Saint-Jean","lat":44.5612203,"lon":4.506571},
{"name":"Netto","brand":"Netto","city":null,"address":null,"lat":44.8075445,"lon":3.2816377},
{"name":"Netto","brand":"Netto","city":null,"address":null,"lat":44.8628397,"lon":0.467333},
{"name":"Netto","brand":"Netto","city":"La Loupe","address":"64 Rue de l'Église, 28240 La Loupe","lat":48.4681345,"lon":1.009584},
{"name":"Netto","brand":"Netto","city":null,"address":"10 Place Fontaine du Temple","lat":43.726024,"lon":7.2559771},
{"name":"Netto","brand":"Netto","city":null,"address":null,"lat":50.0740765,"lon":1.541074},
{"name":"Netto","brand":"Netto","city":"Lunel","address":"Avenue les Portes de la Mer, 34400 Lunel","lat":43.6818799,"lon":4.1522225},
{"name":"Netto","brand":"Netto","city":"Bernis","address":"Chemin de Calvisson, 30620 Bernis","lat":43.7674471,"lon":4.2806056},
{"name":"Netto","brand":"Netto","city":null,"address":null,"lat":49.8741155,"lon":1.2420053},
{"name":"Netto","brand":"Netto","city":null,"address":null,"lat":49.204109,"lon":3.5075877},
{"name":"Netto","brand":"Netto","city":null,"address":null,"lat":45.9622805,"lon":2.195218},
{"name":"Nom inconnu","brand":"Netto","city":null,"address":null,"lat":45.7424679,"lon":4.2176895},
{"name":"Netto","brand":"Netto","city":null,"address":null,"lat":44.4592317,"lon":4.215972},
{"name":"Netto","brand":"Netto","city":null,"address":null,"lat":46.4388286,"lon":4.6446818},
{"name":"Netto","brand":"Netto","city":"Confrançon","address":"105 Route de Vandeins, 01310 Confrançon","lat":46.2551865,"lon":5.0593761},
{"name":"Netto","brand":"Netto","city":null,"address":null,"lat":46.7654245,"lon":-1.5054275},
{"name":"Netto","brand":"Netto","city":null,"address":null,"lat":46.1518463,"lon":4.1517589},
{"name":"Netto","brand":"Netto","city":null,"address":null,"lat":46.987309,"lon":1.1674595},
{"name":"Netto","brand":"Netto","city":null,"address":null,"lat":45.5515444,"lon":4.2816806},
{"name":"Netto","brand":"Netto","city":null,"address":null,"lat":49.816041,"lon":2.805847},
{"name":"Netto","brand":"Netto","city":null,"address":null,"lat":43.4964058,"lon":4.9859076},
{"name":"Netto","brand":"Netto","city":"Valdahon","address":"5 Route de Vernierfontaine, 25800 Valdahon","lat":47.1476751,"lon":6.331405},
{"name":"Netto","brand":"Netto","city":null,"address":null,"lat":45.1089564,"lon":4.297037},
{"name":"Netto","brand":"Netto","city":null,"address":null,"lat":43.451669,"lon":3.7608074},
{"name":"Netto","brand":"Netto","city":null,"address":null,"lat":45.0121531,"lon":0.1151822},
{"name":"Netto","brand":"Netto","city":null,"address":null,"lat":45.6657712,"lon":4.9584543},
{"name":"Netto","brand":"Netto","city":null,"address":"Rue Principale","lat":50.7119089,"lon":2.3275034},
{"name":"Netto","brand":"Netto","city":null,"address":null,"lat":49.5702519,"lon":0.4892505},
{"name":"Netto","brand":"Netto","city":null,"address":null,"lat":45.1930035,"lon":4.8148779},
{"name":"Netto","brand":"Netto","city":null,"address":null,"lat":45.08149,"lon":5.7684305},
{"name":"Netto","brand":"Netto","city":null,"address":null,"lat":43.5973146,"lon":3.8651764},
{"name":"Netto","brand":"Netto","city":null,"address":null,"lat":43.410675,"lon":3.7053154},
{"name":"Netto","brand":"Netto","city":"Jacou","address":"Route de Teyran, 34830 Jacou","lat":43.6620332,"lon":3.9031914},
{"name":"Netto","brand":"Netto","city":null,"address":null,"lat":45.3926753,"lon":2.4927591},
{"name":"Netto","brand":"Netto","city":null,"address":null,"lat":43.1090439,"lon":-0.039452},
{"name":"Netto","brand":"Netto","city":null,"address":null,"lat":47.2628164,"lon":-1.0388002},
{"name":"Netto","brand":"Netto","city":null,"address":null,"lat":46.4351858,"lon":4.9530754},
{"name":"Netto","brand":"Netto","city":null,"address":null,"lat":43.4102919,"lon":5.5257342},
{"name":"Netto","brand":"Netto","city":null,"address":null,"lat":48.5235434,"lon":2.0215079},
{"name":"Netto","brand":"Netto","city":null,"address":null,"lat":48.8438624,"lon":-1.5843979},
{"name":"Netto","brand":"Netto","city":null,"address":null,"lat":47.2066463,"lon":-1.5997613},
{"name":"Netto","brand":"Netto","city":"Hagetmau","address":"Route de Cazalis, 40700 Hagetmau","lat":43.6392308,"lon":-0.6181136},
{"name":"Netto","brand":"Netto","city":"Darvoy","address":"2 Rue de Puiseaux, 45150 Darvoy","lat":47.8578413,"lon":2.0975287},
{"name":"Netto","brand":"Netto","city":"Soustons","address":"Avenue de Cramat, 40140 Soustons","lat":43.7465426,"lon":-1.3217604},
{"name":"Netto","brand":"Netto","city":null,"address":null,"lat":48.3521047,"lon":-1.2247453},
{"name":"Netto","brand":"Netto","city":null,"address":null,"lat":50.2477922,"lon":4.1490726},
{"name":"Netto","brand":"Netto","city":"Pusignan","address":"15 Route de Jons, 69330 Pusignan","lat":45.7655866,"lon":5.0745012},
{"name":"Netto","brand":"Netto","city":"Andernos-les-Bains","address":"270 Boulevard de la République, 33510 Andernos-les-Bains","lat":44.7453312,"lon":-1.1027205},
{"name":"Netto","brand":"Netto","city":null,"address":null,"lat":46.9400892,"lon":2.9396599},
{"name":"Netto","brand":"Netto","city":null,"address":null,"lat":49.6957978,"lon":4.9425672},
{"name":"Netto","brand":"Netto","city":"Paray-le-Monial","address":"33 bis Quai de l'Industrie, 71600 Paray-le-Monial","lat":46.452971,"lon":4.1041217},
{"name":"Netto","brand":"Netto","city":null,"address":null,"lat":44.2547678,"lon":0.3724274},
{"name":"Netto","brand":"Netto","city":null,"address":null,"lat":43.1887332,"lon":2.7508794},
{"name":"Netto","brand":"Netto","city":"Saint-Ismier","address":"Place de la fontaine amélie, 38330 Saint-Ismier","lat":45.2468563,"lon":5.8315133},
{"name":"Netto","brand":"Netto","city":null,"address":null,"lat":49.2009881,"lon":-0.3974206},
{"name":"Netto","brand":"Netto","city":null,"address":null,"lat":47.0538856,"lon":6.6638242},
{"name":"Netto","brand":"Netto","city":null,"address":null,"lat":44.1681983,"lon":0.7035286},
{"name":"Netto","brand":"Netto","city":null,"address":null,"lat":43.2034519,"lon":6.0471539},
{"name":"Netto","brand":"Netto","city":"Clermont-Ferrand","address":"6 Avenue Marx Dormoy, 63000 Clermont-Ferrand","lat":45.7711963,"lon":3.0810663},
{"name":"Netto","brand":"Netto","city":null,"address":null,"lat":42.7935387,"lon":0.5931284},
{"name":"Netto","brand":"Netto","city":null,"address":"08600","lat":50.1332036,"lon":4.8423481},
{"name":"Netto","brand":"Netto","city":null,"address":null,"lat":43.301377,"lon":1.2199996},
{"name":"Netto","brand":"Netto","city":null,"address":null,"lat":44.4051661,"lon":0.6978289},
{"name":"Netto","brand":"Netto","city":null,"address":null,"lat":43.3227769,"lon":1.9460088},
{"name":"Netto","brand":"Netto","city":null,"address":"221 Rue Jean Jaurès","lat":50.3971199,"lon":3.6407073},
{"name":"Netto","brand":"Netto","city":null,"address":null,"lat":47.9810167,"lon":-4.104481},
{"name":"Netto","brand":"Netto","city":null,"address":null,"lat":47.1862703,"lon":5.398156},
{"name":"Netto","brand":"Netto","city":null,"address":null,"lat":48.2533352,"lon":2.7024292},
{"name":"Netto","brand":"Netto","city":null,"address":null,"lat":46.3450993,"lon":5.1256195},
{"name":"Netto","brand":"Netto","city":null,"address":null,"lat":43.949638,"lon":4.819843},
{"name":"Netto","brand":"Netto","city":null,"address":null,"lat":45.0374336,"lon":5.0497105},
{"name":"Netto","brand":"Netto","city":null,"address":null,"lat":48.6326188,"lon":-1.9994956},
{"name":"Netto","brand":"Netto","city":null,"address":null,"lat":45.9983223,"lon":5.1749615},
{"name":"Netto","brand":"Netto","city":null,"address":null,"lat":45.1255129,"lon":5.576624},
{"name":"Netto","brand":"Netto","city":null,"address":null,"lat":46.6175883,"lon":0.315923},
{"name":"Netto","brand":"Netto","city":"Seyssinet-Pariset","address":"Rue de la fauconnière, 38170 Seyssinet-Pariset","lat":45.1763265,"lon":5.692478},
{"name":"Netto","brand":"Netto","city":null,"address":"23, 18200","lat":46.7339377,"lon":2.5000089},
{"name":"Netto","brand":"Netto","city":null,"address":"3 Rue Ferdinand de Lesseps","lat":49.396381,"lon":2.7871366},
{"name":"Netto","brand":"Netto","city":null,"address":"31 Route de Toulouse, 09190","lat":43.0044213,"lon":1.1260409},
{"name":"Netto","brand":"Netto","city":null,"address":null,"lat":44.4637393,"lon":2.4173123},
{"name":"Netto","brand":"Netto","city":null,"address":"Chemin Croisé de Bellevue","lat":49.9947601,"lon":2.6584363},
{"name":"Netto","brand":"Netto","city":null,"address":"Place Gambetta","lat":50.4195669,"lon":2.7788875},
{"name":"Netto","brand":"Netto","city":"Limoges","address":"93 Avenue Georges Guingouin, 87280 Limoges","lat":45.9092787,"lon":1.2972673},
{"name":"Netto","brand":"Netto","city":"Panazol","address":"2 Avenue Léonard Limosin, 87350 Panazol","lat":45.8280616,"lon":1.2924377},
{"name":"Netto","brand":"Netto","city":null,"address":null,"lat":48.3278682,"lon":-1.8388381},
{"name":"Netto","brand":"Netto","city":null,"address":null,"lat":44.9106547,"lon":2.4244707},
{"name":"Netto","brand":"Netto","city":null,"address":"Rue de la Grenouillère","lat":49.7729251,"lon":1.9871987},
{"name":"Netto","brand":"Netto","city":null,"address":null,"lat":49.110782,"lon":-1.0741024},
{"name":"Netto","brand":"Netto","city":"Vannes","address":"34 Rue Théophraste Renaudot, 56000 Vannes","lat":47.6631438,"lon":-2.7873878},
{"name":"Netto","brand":"Netto","city":null,"address":null,"lat":47.2314603,"lon":-0.1214517},
{"name":"Netto","brand":"Netto","city":null,"address":null,"lat":47.3495212,"lon":0.6489784},
{"name":"Netto","brand":"Netto","city":null,"address":null,"lat":47.4479875,"lon":-2.3132432},
{"name":"Netto","brand":"Netto","city":null,"address":null,"lat":44.9132831,"lon":4.909133},
{"name":"Netto","brand":"Netto","city":null,"address":null,"lat":45.0508817,"lon":4.8335443},
{"name":"Netto","brand":"Netto","city":"Argelès-Gazost","address":"4 Avenue Pierre de Coubertin, 65400 Argelès-Gazost","lat":43.0002871,"lon":-0.0955296},
{"name":"Netto","brand":"Netto","city":null,"address":null,"lat":49.4207237,"lon":1.9787623},
{"name":"Netto","brand":"Netto","city":null,"address":null,"lat":47.620618,"lon":4.343465},
{"name":"Netto","brand":"Netto","city":null,"address":null,"lat":43.8510966,"lon":0.6611903},
{"name":"Nom inconnu","brand":"Netto","city":null,"address":null,"lat":44.2076238,"lon":4.0248127},
{"name":"Netto","brand":"Netto","city":null,"address":null,"lat":44.8363889,"lon":0.7231885},
{"name":"Netto","brand":"Netto","city":null,"address":null,"lat":45.5949804,"lon":5.6362157},
{"name":"Netto","brand":"Netto","city":null,"address":null,"lat":47.1121477,"lon":-2.0700183},
{"name":"Netto","brand":"Netto","city":null,"address":null,"lat":44.5970788,"lon":0.3546331},
{"name":"Netto","brand":"Netto","city":null,"address":null,"lat":48.5005061,"lon":-2.7284313},
{"name":"Netto","brand":"Netto","city":null,"address":"Avenue Maréchal de Lattre de Tassigny","lat":43.7118819,"lon":2.7078401},
{"name":"Netto","brand":"Netto","city":null,"address":null,"lat":43.3878864,"lon":5.5992174},
{"name":"Netto","brand":"Netto","city":null,"address":null,"lat":47.7616482,"lon":-3.3960118},
{"name":"Netto","brand":"Netto","city":null,"address":null,"lat":43.4049268,"lon":4.9809393},
{"name":"Netto","brand":"Netto","city":"Castres","address":"81100 Castres","lat":43.5930332,"lon":2.2537356},
{"name":"Netto","brand":"Netto","city":null,"address":null,"lat":47.8651129,"lon":-4.2293462},
{"name":"Netto","brand":"Netto","city":null,"address":null,"lat":43.4514992,"lon":5.680613},
{"name":"Netto","brand":"Netto","city":null,"address":null,"lat":43.8321498,"lon":1.3912263},
{"name":"Netto","brand":"Netto","city":null,"address":null,"lat":44.2107012,"lon":0.6473993},
{"name":"Netto","brand":"Netto","city":"Estrées-Saint-Denis","address":"Place de l'Hôtel de Ville, 60190 Estrées-Saint-Denis","lat":49.4266138,"lon":2.6390195},
{"name":"Netto","brand":"Netto","city":"Guingamp","address":"3 Rue Chateaubriand, 22200 Guingamp","lat":48.5642876,"lon":-3.1587795},
{"name":"Netto","brand":"Netto","city":null,"address":null,"lat":43.1352493,"lon":6.0220245},
{"name":"Netto","brand":"Netto","city":null,"address":null,"lat":45.8106861,"lon":4.1966267},
{"name":"Netto","brand":"Netto","city":null,"address":null,"lat":45.6918599,"lon":5.0348113},
{"name":"Netto","brand":"Netto","city":null,"address":null,"lat":45.6156603,"lon":5.1439003},
{"name":"Netto","brand":"Netto","city":null,"address":null,"lat":44.0046702,"lon":1.3566428},
{"name":"Netto","brand":"Netto","city":"Pontivy","address":"Route de Mûr-de-Bretagne, Pontivy","lat":48.0808733,"lon":-2.9654145},
{"name":"Netto","brand":"Netto","city":"Pau","address":"163 Avenue Jean Mermoz, 64000 Pau","lat":43.3198957,"lon":-0.3795997},
{"name":"Netto Saint-Alban","brand":"Netto","city":"Saint-Alban","address":"Rue Pierre Mendès France, 31140 Saint-Alban","lat":43.6859834,"lon":1.4064901},
{"name":"Netto","brand":"Netto","city":null,"address":null,"lat":43.668946,"lon":-1.2816594},
{"name":"Netto","brand":"Netto","city":null,"address":null,"lat":43.7292868,"lon":5.1658509},
{"name":"Netto","brand":"Netto","city":null,"address":null,"lat":49.1403759,"lon":4.3586145},
{"name":"Netto","brand":"Netto","city":null,"address":null,"lat":49.8294187,"lon":3.3068177},
{"name":"Netto","brand":"Netto","city":null,"address":"Rue Delcourt","lat":50.6120713,"lon":2.4920686},
{"name":"Netto","brand":"Netto","city":null,"address":null,"lat":43.1996418,"lon":6.0479847},
{"name":"Netto","brand":"Netto","city":null,"address":null,"lat":45.4251829,"lon":4.4190618},
{"name":"Netto","brand":"Netto","city":null,"address":null,"lat":44.6107749,"lon":4.4100811},
{"name":"Netto","brand":"Netto","city":null,"address":null,"lat":47.605675,"lon":1.3259952},
{"name":"Netto","brand":"Netto","city":null,"address":null,"lat":47.7668153,"lon":-3.3354211},
{"name":"Netto","brand":"Netto","city":null,"address":null,"lat":47.2749212,"lon":0.1652665},
{"name":"Netto","brand":"Netto","city":null,"address":null,"lat":48.8513566,"lon":-0.5666177},
{"name":"Netto","brand":"Netto","city":"Beaune","address":"28 Rue du Faubourg Madeleine, 21200 Beaune","lat":47.0201069,"lon":4.8414998},
{"name":"Netto","brand":"Netto","city":"Saint-Brice-Courcelles","address":"Rue de Bernex, 51370 Saint-Brice-Courcelles","lat":49.2804161,"lon":4.0058062},
{"name":"Netto","brand":"Netto","city":null,"address":null,"lat":45.0385716,"lon":3.0689296},
{"name":"Netto","brand":"Netto","city":null,"address":null,"lat":44.9302202,"lon":5.0209318},
{"name":"Netto","brand":"Netto","city":null,"address":null,"lat":46.4737609,"lon":2.8248935},
{"name":"Netto","brand":"Netto","city":null,"address":null,"lat":45.2909901,"lon":4.1618126},
{"name":"Netto","brand":"Netto","city":"Morteau","address":"9 Rue Pasteur, 25500 Morteau","lat":47.0556851,"lon":6.6041259},
{"name":"Netto","brand":"Netto","city":null,"address":null,"lat":43.6880004,"lon":1.4224227},
{"name":"Netto","brand":"Netto","city":null,"address":null,"lat":43.3273825,"lon":5.382826},
{"name":"Netto","brand":"Netto","city":null,"address":null,"lat":42.6433044,"lon":2.8776095},
{"name":"Netto","brand":"Netto","city":null,"address":"Rue des Grands Champs","lat":47.3727571,"lon":-1.1817574},
{"name":"Netto","brand":"Netto","city":null,"address":null,"lat":47.0795855,"lon":5.4630675},
{"name":"Netto","brand":"Netto","city":null,"address":null,"lat":47.8870199,"lon":6.2771464},
{"name":"Netto","brand":"Netto","city":"Avensan","address":"7 Le Passage du Soc, 33480 Avensan","lat":45.0243712,"lon":-0.7867027},
{"name":"Netto","brand":"Netto","city":null,"address":"Route de la Gare","lat":48.8122033,"lon":1.7644429},
{"name":"Netto","brand":"Netto","city":null,"address":null,"lat":46.1162865,"lon":4.9488446},
{"name":"Netto","brand":"Netto","city":null,"address":null,"lat":45.5387618,"lon":4.190965},
{"name":"Netto","brand":"Netto","city":null,"address":null,"lat":48.2529901,"lon":2.702492},
{"name":"Netto","brand":"Netto","city":"Alès","address":"Quai de Bilina, Alès","lat":44.1326777,"lon":4.0737815},
{"name":"Netto","brand":"Netto","city":null,"address":null,"lat":45.6280784,"lon":6.3193026},
{"name":"Netto","brand":"Netto","city":"Sommières","address":"28 Route de Saussines, 30250 Sommières","lat":43.7815962,"lon":4.0828619},
{"name":"Netto","brand":"Netto","city":null,"address":null,"lat":46.8384128,"lon":5.6885952},
{"name":"Netto","brand":"Netto","city":"Champigny-sur-Marne","address":"29 Avenue Roger Salengro, 94500 Champigny-sur-Marne","lat":48.8197965,"lon":2.4857328},
{"name":"Netto","brand":"Netto","city":null,"address":"Rue Yvon Bouton","lat":50.4537607,"lon":3.5858627},
{"name":"Nom inconnu","brand":"Netto","city":null,"address":null,"lat":47.3171376,"lon":4.708001},
{"name":"Netto","brand":"Netto","city":null,"address":null,"lat":45.059632,"lon":5.1054541},
{"name":"Netto","brand":"Netto","city":null,"address":null,"lat":46.1137556,"lon":4.7328968},
{"name":"Netto","brand":"Netto","city":null,"address":null,"lat":46.1600983,"lon":1.8727908},
{"name":"Netto","brand":"Netto","city":null,"address":null,"lat":45.5203112,"lon":4.5980668},
{"name":"Netto","brand":"Netto","city":null,"address":null,"lat":43.4450661,"lon":5.5524928},
{"name":"Netto","brand":"Netto","city":null,"address":"Rue Ferdinand Buisson","lat":50.8084493,"lon":1.7886153},
{"name":"Netto","brand":"Netto","city":null,"address":null,"lat":47.6729299,"lon":-2.7662953},
{"name":"Netto","brand":"Netto","city":null,"address":null,"lat":46.9829331,"lon":3.1221243},
{"name":"Netto","brand":"Netto","city":null,"address":null,"lat":43.9174637,"lon":2.143964},
{"name":"Netto","brand":"Netto","city":null,"address":"Chemin du Tucat","lat":43.8280416,"lon":-0.8343508},
{"name":"Netto","brand":"Netto","city":null,"address":null,"lat":47.7404381,"lon":-3.3938205},
{"name":"Netto","brand":"Netto","city":null,"address":null,"lat":47.8110722,"lon":-3.2659328},
{"name":"Netto","brand":"Netto","city":null,"address":null,"lat":46.0495357,"lon":4.0732489},
{"name":"Netto","brand":"Netto","city":"Pont-l'Évêque","address":"Route de Rouen, 14130 Pont-l'Évêque","lat":49.2913603,"lon":0.1929142},
{"name":"Netto","brand":"Netto","city":null,"address":null,"lat":48.7521606,"lon":-0.0332565},
{"name":"Netto","brand":"Netto","city":null,"address":null,"lat":42.733202,"lon":2.8888523},
{"name":"Netto","brand":"Netto","city":null,"address":null,"lat":45.2424887,"lon":1.7432669},
{"name":"Netto","brand":"Netto","city":"Ploërmel","address":"34 Boulevard Laënnec, 56800 Ploërmel","lat":47.9319632,"lon":-2.3915979},
{"name":"Netto","brand":"Netto","city":null,"address":null,"lat":44.9065413,"lon":5.7926692},
{"name":"Netto","brand":"Netto","city":null,"address":null,"lat":46.1774787,"lon":-1.1054841},
{"name":"Netto","brand":"Netto","city":null,"address":null,"lat":43.7044698,"lon":7.2883654},
{"name":"Netto","brand":"Netto","city":null,"address":null,"lat":45.1473833,"lon":1.4892076},
{"name":"Netto","brand":"Netto","city":null,"address":null,"lat":47.3834292,"lon":0.6976568},
{"name":"Netto","brand":"Netto","city":"Dax","address":"1 Route de la Parcelle, 40100 Dax","lat":43.6908312,"lon":-1.0483651},
{"name":"Netto","brand":"Netto","city":null,"address":null,"lat":48.5721861,"lon":-4.3169984},
{"name":"Netto","brand":"Netto","city":null,"address":null,"lat":43.2854043,"lon":3.5089423},
{"name":"Netto","brand":"Netto","city":null,"address":null,"lat":44.4747219,"lon":0.9509762},
{"name":"Netto","brand":"Netto","city":null,"address":null,"lat":47.3903783,"lon":-2.4305671},
{"name":"Netto","brand":"Netto","city":null,"address":null,"lat":48.0272767,"lon":-3.4819125},
{"name":"Netto","brand":"Netto","city":null,"address":"Rue de la Gare","lat":50.0942761,"lon":3.5412943},
{"name":"Netto","brand":"Netto","city":null,"address":null,"lat":47.3424592,"lon":1.1683032},
{"name":"Netto","brand":"Netto","city":"Auzeville-Tolosane","address":"46 Route de Narbonne, 31320 Auzeville-Tolosane","lat":43.5303865,"lon":1.4883936},
{"name":"Netto","brand":"Netto","city":"Rouillac","address":"16170 Rouillac","lat":45.7763539,"lon":-0.0571025},
{"name":"Netto","brand":"Netto","city":"Saint-Vaast-la-Hougue","address":"1 Rue Marcel Pignot, 50550 Saint-Vaast-la-Hougue","lat":49.5898208,"lon":-1.2786478}
]