[
{"name":"Coccinelle Express","brand":"Coccinelle Express","city":null,"address":"13","lat":49.4254418,"lon":1.0939309},
{"name":"Coccinelle Express","brand":"Coccinelle Express","city":null,"address":null,"lat":48.5704559,"lon":-2.8190897},
{"name":"Coccinelle Express","brand":"Coccinelle Express","city":null,"address":"382 Rue Raoul Briquet","lat":50.51909,"lon":2.4571385},
{"name":"Coccinelle Express","brand":"Coccinelle Express","city":null,"address":null,"lat":48.187268,"lon":0.6427745},
{"name":"Coccinelle Express","brand":"Coccinelle Express","city":"Villepreux","address":"23 Avenue du Grand Canal, 78450 Villepreux","lat":48.8348784,"lon":1.9910441},
{"name":"Coccinelle Express","brand":"Coccinelle Express","city":"Signy-l'Abbaye","address":"17 Place Aristide Briand, 08460 Signy-l'Abbaye","lat":49.6980784,"lon":4.4203173},
{"name":"Coccinelle Express","brand":"Coccinelle Express","city":"Ermont","address":"1 Rue de l'Église, 95120 Ermont","lat":48.9893791,"lon":2.2585575},
{"name":"Coccinelle Express","brand":"Coccinelle Express","city":null,"address":"Place Paul Emile Victor","lat":49.3761223,"lon":2.4526925},
{"name":"Coccinelle Express","brand":"Coccinelle Express","city":null,"address":null,"lat":48.8326499,"lon":2.2280034},
{"name":"Coccinelle Express","brand":"Coccinelle Express","city":"Ormes","address":"1 Rue de la Poule Blanche, 45140 Ormes","lat":47.9405891,"lon":1.8202037},
{"name":"Coccinelle Express","brand":"Coccinelle Express","city":"Versailles","address":"35 Rue de la Ceinture, 78000 Versailles","lat":48.8088297,"lon":2.1546484},
{"name":"Coccinelle Express","brand":"Coccinelle Express","city":null,"address":null,"lat":48.7350017,"lon":2.262174},
{"name":"Coccinelle Express","brand":"Coccinelle Express","city":null,"address":null,"lat":48.9151355,"lon":2.4030167},
{"name":"Coccinelle Express","brand":"Coccinelle Express","city":null,"address":null,"lat":48.7934956,"lon":2.3204462},
{"name":"coccinelle express","brand":"Coccinelle Express","city":null,"address":null,"lat":47.9775425,"lon":-1.5853701},
{"name":"Coccinelle Express","brand":"Coccinelle Express","city":"Nogent-le-Rotrou","address":"40 Place du Général Saint-Pol, 28400 Nogent-le-Rotrou","lat":48.3213485,"lon":0.8210637},
{"name":"Coccinelle Express","brand":"Coccinelle Express","city":null,"address":null,"lat":48.5215303,"lon":0.5462579},
{"name":"Coccinelle Express","brand":"Coccinelle Express","city":null,"address":null,"lat":44.4977241,"lon":0.1653027},
{"name":"Coccinelle Express","brand":"Coccinelle Express","city":null,"address":null,"lat":48.4718016,"lon":1.0137082},
{"name":"Coccinelle Express","brand":"Coccinelle Express","city":null,"address":null,"lat":47.036679,"lon":-1.6415423},
{"name":"Coccinelle Express","brand":"Coccinelle Express","city":null,"address":null,"lat":46.5653585,"lon":0.3734465},
{"name":"Coccinelle Express","brand":"Coccinelle Express","city":null,"address":null,"lat":48.7892313,"lon":2.3196116},
{"name":"Coccinelle Express","brand":"Coccinelle Express","city":null,"address":null,"lat":47.3952657,"lon":0.6844472},
{"name":"Coccinelle Express","brand":"Coccinelle Express","city":null,"address":null,"lat":47.6897822,"lon":0.2674295},
{"name":"Coccinelle Express","brand":"Coccinelle Express","city":null,"address":"12 Place du Général de Gaulle","lat":50.1241275,"lon":3.4105959},
{"name":"Coccinelle Express","brand":"Coccinelle Express","city":null,"address":null,"lat":49.1887356,"lon":6.9039453},
{"name":"Coccinelle Express","brand":"Coccinelle Express","city":null,"address":null,"lat":48.9296739,"lon":2.4279776},
{"name":"Coccinelle Express","brand":"Coccinelle Express","city":null,"address":null,"lat":48.900223,"lon":2.1994539},
{"name":"Coccinelle Express","brand":"Coccinelle Express","city":null,"address":null,"lat":47.0174219,"lon":-1.0594457},
{"name":"Coccinelle Express","brand":"Coccinelle Express","city":null,"address":null,"lat":49.3835921,"lon":5.1773501},
{"name":"Coccinelle Express","brand":"Coccinelle Express","city":null,"address":"20 Mail Saint-Martin","lat":50.1748082,"lon":3.2320752},
{"name":"Coccinelle Express","brand":"Coccinelle Express","city":"Nogent-sur-Marne","address":"21 Grande Rue Charles de Gaulle, 94130 Nogent-sur-Marne","lat":48.8360682,"lon":2.4763503},
{"name":"Coccinelle Express","brand":"Coccinelle Express","city":"Caen","address":"137 Rue de Falaise, 14000 Caen","lat":49.1685671,"lon":-0.3519215},
{"name":"Coccinelle Express","brand":"Coccinelle Express","city":null,"address":"5","lat":47.7938516,"lon":2.1987838},
{"name":"Coccinelle","brand":"Coccinelle Express","city":null,"address":null,"lat":50.658666,"lon":3.0810993},
{"name":"Coccinelle Express","brand":"Coccinelle Express","city":null,"address":"71 Rue Saint-Aubert","lat":50.2913748,"lon":2.7706015},
{"name":"Coccinelle Express","brand":"Coccinelle Express","city":null,"address":null,"lat":47.7913794,"lon":1.0670642},
{"name":"Coccinelle Express","brand":"Coccinelle Express","city":null,"address":null,"lat":49.0757525,"lon":2.2019635},
{"name":"Coccinelle Express","brand":"Coccinelle Express","city":"Le Petit-Quevilly","address":"Place des Chartreux, 76140 Le Petit-Quevilly","lat":49.4230545,"lon":1.066764},
{"name":"Coccinelle Express","brand":"Coccinelle Express","city":"Labergement-Sainte-Marie","address":"9 Avenue de la Gare, 25160 Labergement-Sainte-Marie","lat":46.7750314,"lon":6.2794608},
{"name":"Coccinelle Express","brand":"Coccinelle Express","city":null,"address":null,"lat":49.0001188,"lon":-1.121995},
{"name":"Coccinelle Express","brand":"Coccinelle Express","city":null,"address":null,"lat":49.0911797,"lon":-0.8048725},
{"name":"Coccinelle Express","brand":"Coccinelle Express","city":null,"address":null,"lat":48.9984706,"lon":2.1440462},
{"name":"Coccinelle Express","brand":"Coccinelle Express","city":null,"address":"149","lat":49.457205,"lon":1.1294142},
{"name":"Coccinelle Express","brand":"Coccinelle Express","city":null,"address":null,"lat":49.6699524,"lon":5.0437223},
{"name":"Coccinelle Express","brand":"Coccinelle Express","city":null,"address":null,"lat":48.9276715,"lon":0.198633},
{"name":"Coccinelle Express","brand":"Coccinelle Express","city":null,"address":null,"lat":48.8016432,"lon":2.4261104},
{"name":"Coccinelle Express","brand":"Coccinelle Express","city":null,"address":null,"lat":48.5931651,"lon":2.1906062},
{"name":"Coccinelle Express","brand":"Coccinelle Express","city":null,"address":null,"lat":48.7066134,"lon":2.3357829},
{"name":"Coccinelle Express","brand":"Coccinelle Express","city":null,"address":null,"lat":48.8713287,"lon":2.4523776},
{"name":"Coccinelle Express","brand":"Coccinelle Express","city":null,"address":null,"lat":48.5213633,"lon":0.5463885},
{"name":"Coccinelle Express","brand":"Coccinelle Express","city":null,"address":null,"lat":48.7236724,"lon":2.4187336},
{"name":"Coccinelle Express","brand":"Coccinelle Express","city":null,"address":null,"lat":48.7089852,"lon":2.2417688},
{"name":"Coccinelle Express","brand":"Coccinelle Express","city":"Beauvais","address":"20 Rue Gambetta, 60000 Beauvais","lat":49.43292,"lon":2.0847873},
{"name":"Coccinelle Express","brand":"Coccinelle Express","city":null,"address":null,"lat":49.011217,"lon":2.209395},
{"name":"Coccinelle Express","brand":"Coccinelle Express","city":null,"address":null,"lat":48.8572982,"lon":2.3175148},
{"name":"Coccinelle Express","brand":"Coccinelle Express","city":null,"address":null,"lat":46.6614041,"lon":-1.4032473},
{"name":"Coccinelle Express","brand":"Coccinelle Express","city":"Ris-Orangis","address":"3 Rue Edmond Bonté, 91130 Ris-Orangis","lat":48.6596729,"lon":2.4145088},
{"name":"Coccinelle Express","brand":"Coccinelle Express","city":"Bobigny","address":"161 Rue de Paris, 93000 Bobigny","lat":48.9015179,"lon":2.4566874},
{"name":"Coccinelle Express","brand":"Coccinelle Express","city":null,"address":null,"lat":49.0992046,"lon":1.4888741},
{"name":"Coccinelle Express","brand":"Coccinelle Express","city":"L'Aigle","address":"4 Rue de la Madeleine, 61300 L'Aigle","lat":48.7637379,"lon":0.6340673},
{"name":"Coccinelle Express","brand":"Coccinelle Express","city":null,"address":null,"lat":48.766853,"lon":2.3820646},
{"name":"Coccinelle Express","brand":"Coccinelle Express","city":"La Celle-Saint-Cloud","address":"7 Place du Comte de Bendern, 78170 La Celle-Saint-Cloud","lat":48.8406566,"lon":2.1245669},
{"name":"Coccinelle Express","brand":"Coccinelle Express","city":"Sainte-Adresse","address":"10 Impasse du Cap, 76310 Sainte-Adresse","lat":49.5081418,"lon":0.0769612}
]